CGNDB ID,Geographical Name,Generic Term,Latitude,Longitude,Location
HAWAI,106-Narrow Lake-120 Road Corridor Game Preserve,Game Preserve,54.2833894,-104.6337670,
HABPD,56 Trail,Trail,53.8667198,-106.4338594,"56-3,4-W3"
HABJD,Aadland Lake,Lake,59.4168647,-108.7174374,
HAYKF,Aastrom Lake,Lake,59.8063145,-102.7283178,
HABJF,Abbey,Village,50.7366361,-108.7575833,31-20-20-W3
HABJE,Abbott,Railway Point,49.5833668,-104.4005434,21-7-18-W2
HAOSK,Abbott Creek,Creek,50.0333867,-109.9674555,31-12-29-W3
HABJG,Abbott Island,Island,56.7834464,-102.4337001,
HABJH,Abbott Lake,Lake,54.7667299,-102.4670833,67-4-W2
HABID,Abel Lake,Lake,54.4667425,-107.2172826,"63-8,9-W3"
HABKQ,Aberdeen,Town,52.3255360,-106.2915110,6-39-2-W3
HATAV,Aberdeen No. 373,Rural Municipality,52.4293846,-106.2930613,
HABIF,Aberfeldy,Railway Point,53.2500805,-109.8841140,28-49-27-W3
HABKP,Abernethy,Village,50.7445278,-103.4181631,25-20-11-W2
HATFC,Abernethy No. 186,Rural Municipality,50.6390735,-103.4851593,
HABIE,Abitau Bay,Bay,55.7000892,-107.7673547,
HABIG,Abitau Bay,Bay,59.8500992,-109.0340301,
HATZR,Abitau River,River,59.8834390,-109.0507186,
HABIH,Abound,Railway Point,50.3166946,-105.7672478,34-15-28-W2
HASDE,Abraham Bay,Bay,57.4667735,-107.0506458,
HABII,Abram Island,Island,55.3834047,-104.4004284,
HABIJ,Abrams Bay,Bay,55.0333982,-104.8171082,
HABIK,Abrey Lake,Lake,52.5500738,-109.8174282,21-41-27-W3
HABIL,Acaster Lake,Lake,55.9001059,-109.8508332,80-25-W3
HABIN,Ace Creek,Creek,59.5502342,-108.4674837,
HABIM,Ace Lake,Lake,59.5669012,-108.4508239,
HARPC,Acheninni Lake,Lake,54.5000595,-103.0004242,"63,64-7-W2"
HABIO,Achimoo Lake,Lake,59.2503889,-106.2343313,
HABIP,Acorn Lake,Lake,55.7834065,-105.9505057,
HATQD,Acton Lake,Lake,52.9167331,-107.8673090,45-13-W3
HABIQ,Acton Lake,Lake,59.3001600,-104.9339615,
HABIR,Ada,Locality,50.0666964,-106.1339257,6-13-1-W3
HABIT,Adair Bay,Bay,59.4170027,-107.7510236,
HABIU,Adair Creek,Creek,50.5333539,-103.2171820,18-18-9-W2
HABIV,Adair Lake,Lake,59.4002001,-108.8340903,
HABJB,Adam Lake,Lake,56.4334141,-105.3171534,
HBAXE,Adam Wood Memorial Landing,Landing,56.4850000,-109.3861111,
HAQML,Adams,Railway Point,50.4667067,-104.8672228,30-17-21-W2
HABIW,Adams Bay,Bay,55.8500902,-107.7840207,
HAUWI,Adams Creek,Creek,49.4833597,-109.8340911,21-6-29-W3
HABIX,Adams Creek,Creek,53.9000535,-103.2504377,57-9-W2
HABIZ,Adams Island,Island,52.6667324,-108.1673408,
HABJA,Adams Island,Island,57.3334551,-102.5503810,
HAONT,Adams Lake,Lake,49.6500350,-109.8340953,8-29-W3
HABJI,Adams Lake,Lake,51.0666655,-102.1671378,11-24-2-W2
HAQED,Adams Lake,Lake,56.1000780,-104.5671124,
HABJJ,Adams Peninsula,Peninsula,57.6334478,-106.1339461,
HABJK,Adams River,River,59.6835699,-108.3508674,
HABJL,Adamson Bay,Bay,55.0667324,-104.7837739,
HABJM,Adamson Lake,Lake,52.9500396,-106.0172086,45-1-W3
HAQMK,Adanac,Hamlet,52.4528462,-109.0562791,23-40-22-W3
HABJN,Addie Lake,Lake,59.7003118,-106.3008955,
HAABJ,Adelaide Park,Urban Community,52.0928207,-106.6417227,
HABJO,Adilman Lake,Lake,55.3167377,-104.3837602,
HABJQ,Admiral,Hamlet,49.7166946,-108.0173469,5-9-15-W3
HAOQB,Adolet Lake,Lake,49.8500316,-105.3005585,23-10-25-W2
HABJR,Adrian Lake,Lake,49.7000226,-102.8671555,34-8-7-W2
HASMP,Agar Lake,Lake,57.3001134,-109.3674609,
HAOQA,Agnellice Lake,Lake,49.9166975,-105.4672302,22-11-26-W2
HABKA,Agnew Bay,Bay,54.7333963,-102.8337544,
HABKB,Agumik Creek,Creek,55.4000791,-106.8005979,
HABKC,Agumik Lake,Lake,55.4500824,-106.8839476,"74,75-6-W3"
HABKD,Ahasew Lake,Lake,55.7334082,-104.1670932,
HASPY,Ahenakew Lake,Lake,58.0334615,-103.9171325,
HABJW,Ahrens Lake,Lake,52.5334051,-109.3840741,"21,22-41-24-W3"
HABKE,Ahrens Lake,Lake,54.8333996,-102.2837401,57-2-W2
HAXWE,Ahtahkakoop 104,Indian Reserve,53.3855688,-106.9011993,"50,51-6,7-W3"
HAOFJ,Aikenhead Lakes,Lakes,55.3167371,-104.9337824,
HABJV,Aikins,Railway Point,50.3333655,-107.7006678,10-16-13-W3
HABJT,Aiktow Creek,Creek,50.9666975,-106.4672866,22-23-4-W3
HAPYB,Air Ronge,Northern Village,55.0897360,-105.3414670,
HABJX,Airriess Lake,Lake,55.6334026,-106.3005198,"76,77-2-W3"
HAPAM,Airway Lake,Lake,56.0500853,-106.9839524,
HABKF,Aitkenhead Lake,Lake,59.6335802,-105.8007799,
HABKG,Ajawaan Lake,Lake,54.1500554,-106.4671928,59-4-W3
HABKH,Akerlund Lake,Lake,52.5000710,-109.2840692,"40,41-23-W3"
HAQCR,Akimau Creek,Creek,55.9667569,-108.1673728,
HAQCS,Akimau Island,Island,55.9834235,-108.2007074,
HABKI,Akiskoo Lake,Lake,59.7335565,-108.0675676,
HABKJ,Akoohum Bay,Bay,55.6000740,-104.0170858,
HABKK,Akosane,Railway Point,52.7333452,-102.4838070,26-43-4-W2
HABKM,Akut Lake,Lake,59.7335478,-108.2508845,
HAPNP,Alameda,Town,49.2681464,-102.2870583,1-4-3-W2
HABKO,Albatross,Locality,50.5333904,-104.6672297,23-18-20-W2
HAVEM,Albert,Urban Community,52.1178212,-106.6447780,
HABKR,Albert Lake,Lake,52.4667386,-109.5507494,29-40-25-W3
HAOXN,Albert Lake,Lake,56.4167482,-104.7504571,
HAUXI,Albert Park,Urban Community,50.4072618,-104.6311052,
HAUXJ,Albert Park South,Urban Community,50.4014285,-104.6311055,
HABKT,Alberts Lake,Lake,54.9000847,-109.4841546,68-23-W3
HABKU,Albertville,Village,53.3944528,-105.5382639,"12,13-51-25-W2; 7,18-51-24-W2"
HABKW,Albrecht Lake,Lake,59.6168543,-103.6338984,
HABKX,Alces Lake,Lake,59.6835751,-108.0342530,
HABJS,Alcott Creek,Creek,54.0334162,-107.9506547,
HABKZ,Alder Lake,Lake,54.8000665,-102.1837345,67-2-W2
HABLB,Aldina,Locality,53.0000479,-106.8839098,
HABLC,Aldridge Lake,Lake,59.5835095,-105.5173406,
HABLD,Aletter Lake,Lake,52.5834072,-109.6340862,35-41-26-W3
HABLE,Alexander Bay,Bay,55.4667398,-104.1170872,
HABLF,Alexander Island,Island,55.4167330,-105.9838294,
HATFZ,Alexander Lake,Lake,57.1834365,-104.6338117,
HABLH,Alexandra Lake,Lake,50.9166976,-105.7005853,"22,23-27-W2"
HABLG,Alexandra Lake,Lake,52.4667382,-109.4840795,26-40-25-W3
HABLJ,Alfred Bay,Bay,55.7500897,-107.7506866,
HABLK,Algae Lake,Lake,56.1000826,-103.5337387,
HABLL,Algol Lake,Lake,52.4834052,-109.5007467,2-41-25-W3
HABLM,Algold Bay,Bay,59.2837746,-106.6177437,
HAQHL,Algrove,Hamlet,52.4833347,-103.8838244,40-14-W2
HAVHG,Alice Beach,Resort Village,50.9276306,-105.1659306,"22,23-23-W2"
HABLN,Alida,Village,49.3890056,-101.8742889,16-5-33-W
HABLO,Alida Lake,Lake,52.8000756,-109.2674002,"21,22-44-23-W3"
HABLP,Alioth Lake,Lake,52.5167392,-109.5507489,5-41-25-W3
HABMH,Alkali Creek,Creek,50.9833926,-109.6841166,27-23-27-W3
HABLQ,Alkali Lake,Lake,49.8166785,-102.4004960,"7,18-10-3-W2"
HAUQP,Alkali Lake,Lake,49.0000310,-104.3005042,2-1-18-W2
HABLR,Alkali Lakes,Lakes,50.5666993,-107.0339718,18-8-W3
HABLS,Allan,Town,51.8958806,-106.0603667,34-1-W3
HAQMI,Allan Hills,Locality,51.6500344,-106.0839343,16-31-1-W3
HABLT,Allan Hills,Hills,51.6667014,-106.2506067,
HAQCO,Allan Island,Island,55.8500876,-108.3340505,
HABLU,Allan Island,Island,50.9500628,-109.8674676,
HABLV,Allan Lake,Lake,55.9500728,-105.3671443,
HABLW,Allan Rapids,Rapids,57.8834524,-107.7840541,
HABLX,Allansmith River,River,59.8835002,-108.4841736,
HAPRK,Allcock Lake,Lake,55.8334126,-106.6505806,79-5-W3
HAYKG,Allen Bay,Bay,59.8535361,-102.9311066,
HABLY,Allen Bay,Bay,55.6167390,-104.6337760,
HABLZ,Allen Island,Island,57.0667821,-102.5170400,
HASFV,Allen Lake,Lake,57.3834480,-103.4837622,
HAYKH,Allen Lake,Lake,59.9140992,-102.2263463,
HAQGS,Allen Lake,Lake,52.5333410,-102.0337974,41-1-W2
HAROP,Allen Peninsula,Peninsula,54.7333963,-102.8337544,
HABMA,Allen Rapids,Rapids,59.6670247,-106.5843104,
HARDG,Alley Lake,Lake,59.9001926,-104.7506417,
HABMI,Allin Creek,Creek,50.7500296,-106.7339604,2-21-6-W3
HAXSI,Allnutt Lake,Lake,58.9709988,-102.0310048,
HATTY,Alloa Lake,Lake,53.2500490,-107.0172460,30-49-7-W3
HAUQQ,Alma Lake,Lake,49.2000315,-104.2671819,8-3-17-W2
HABMB,Alpat Lake,Lake,56.0000776,-104.3337686,
HASNL,Alpine Bay,Bay,57.2167670,-107.4839957,
HABMD,Alpine Lake,Lake,52.5667397,-109.4840790,35-41-25-W3
HABME,Alsask,Hamlet,51.3797220,-109.9970110,10-28-29-W3
HABMF,Alsask Lake,Lake,51.3333940,-109.8674546,27-28-W3
HABMG,Alsmith Lake,Lake,54.9500691,-103.8504067,"69-12,13-W2"
HABMJ,Alstead Lake,Lake,55.6334233,-107.3840004,"76,77-9,10-W3"
HABMK,Alstead River,River,55.8334242,-107.4340014,79-10-W3
HAWJL,Alta Vista,Organized Hamlet,50.8031750,-104.9675939,22-21-22-W2
HABML,Altair Lake,Lake,52.6334073,-109.4840786,24-42-25-W3
HAURW,Altawan,Railway Point,49.2333470,-109.9340919,23-3-30-W3
HAQHW,Alterson Lake,Lake,52.3499945,-102.9671440,39-7-W2
HABMM,Althouse Lake,Lake,55.5167373,-104.8337807,
HABMN,Alticane,Hamlet,52.9000604,-107.4839507,26-45-11-W3
HASUN,Alton Lake,Lake,53.2667157,-106.9505759,33-49-7-W3
HABMO,Alvena,Village,52.5184058,-106.0192642,12-41-1-W3
HABMP,Amak Lake,Lake,55.6500743,-104.0670883,
HATNT,Amazon,Hamlet,51.5500350,-105.4505900,9-30-25-W2
HATNV,Ambassador,Railway Point,51.5667006,-105.0172366,15-30-22-W2
HASNP,American Lake,Lake,57.2001043,-106.7006206,
HASDL,American River,River,57.3167744,-106.5672849,
HASUF,Amiens,Locality,53.3167232,-107.2505963,50-9-W3
HABMQ,Amisk Lake,Lake,54.5833938,-102.2504017,
HAXVN,Amisk Lake 184,Indian Reserve,54.5817685,-102.4150064,"33,34,35-64,65-3-W2"
HAXDC,Amisk Lake Recreation Site,Recreation Site,54.6230810,-102.1001283,
HABMR,Amiskit Island,Island,56.8667805,-102.4503680,
HBADX,Amiskosakahikan 210,Indian Reserve,54.4449040,-102.1446770,
HASOK,Amiskowan Lake,Lake,53.9000514,-106.1338370,57-1-W3
HABMS,Amsterdam,Organized Hamlet,51.7478050,-102.4589830,14-32-4-W2
HABMT,Amuchewaspimewin Cliff,Cliff,55.4334047,-104.5504350,
HAQMH,Amulet,Hamlet,49.6167010,-104.7505460,2-8-21-W2
HABMU,Amundson Lake,Lake,55.2000652,-105.4171346,
HABMV,Amy Lake,Lake,54.8167332,-102.2170699,67-2-W2
HABMW,Amyot Lake,Lake,55.2667525,-107.8673608,"72,73-13-W3"
HAEEM,Amyot Lake,Lake,53.7000524,-106.6338771,54-5-W3
HAYOX,Anaka Lake,Lake,59.2071208,-102.9143897,
HABMX,Anaka Lake,Lake,55.8167397,-104.9171238,
HATNQ,Ancrum,Locality,51.8667007,-105.7839277,33-27-W2
HAYKJ,Anderson Bay,Bay,59.0979491,-103.0560557,
HAPWF,Anderson Bay,Bay,55.2500854,-108.3007143,
HABNA,Anderson Bay,Bay,59.9001450,-108.7674652,
HABMZ,Anderson Bay,Bay,54.5667290,-103.1670812,
HAWLB,Anderson Channel,Channel,59.8668744,-102.4171918,
HABND,Anderson Island,Island,59.4169107,-108.5674370,
HABNC,Anderson Island,Island,53.8000478,-103.0504523,
HAWZC,Anderson Island Protected Area,Protected Area,53.7943142,-103.0568334,
HABNH,Anderson Lake,Lake,59.4335184,-108.7507697,
HAYGX,Anderson Lake,Lake,59.0335039,-102.5774197,
HABNG,Anderson Lake,Lake,53.6500494,-105.8504917,12-54-27-W2
HAWPG,Anderson Lake,Lake,55.4972891,-106.1643951,75-2-W3
HABNE,Anderson Lake,Lake,51.0333322,-102.1504721,24-2-W2
HAYIP,Anderson Lake,Lake,59.2237729,-103.9880770,
HASRO,Anderson Lake,Lake,58.7001574,-102.3671078,
HARAF,Anderson Lake,Lake,56.5334163,-105.3671611,
HBAGD,Anderson Lake,Lake,59.1911111,-102.0822222,
HAYJN,Anderson Peninsula,Peninsula,59.7557600,-102.3657999,
HAYGP,Anderson Peninsula,Peninsula,59.0562799,-102.0940680,
HABNI,Anderson Peninsula,Peninsula,56.3667616,-108.0506998,
HABNJ,Anderson Peninsula,Peninsula,59.8168067,-108.8173806,
HABNK,Anderson Point,Point,59.5834307,-109.5507615,
HABNL,Anderson Rapids,Rapids,57.3501071,-106.1339295,
HAWOR,Andree Lake,Lake,58.2501286,-106.4006606,
HASDF,Andres Lake,Lake,57.3334365,-107.2006485,
HAAPK,Andrew Hastings Lake,Lake,55.9334083,-104.7837863,
HAQND,Andrew Lake,Lake,55.5667350,-106.2171795,76-2-W3
HABNM,Andrew Lake,Lake,58.2001318,-104.6338451,
HABNN,Andrew Lake,Lake,59.4669293,-108.3341727,
HABNO,Andrews Island,Island,59.4669481,-108.1342570,
HAORQ,Andrews Lake,Lake,50.0167022,-109.0340652,12-23-W3
HAVZR,Andrews Lake Game Preserve,Game Preserve,50.0167022,-109.0340652,
HAAPL,Andy Rankin Marsh,Marsh,50.7500338,-105.6839180,
HAQZG,Anerley,Hamlet,51.3667068,-107.3173173,28-10-W3
HABNP,Anerley Lakes,Lakes,51.3667066,-107.3006500,"28-9,10-W3"
HAAPM,Aneroid,Hamlet,49.7164140,-107.3001020,9-9-10-W3
HABNQ,Aney Lake,Lake,59.4669703,-107.9343121,
HABNR,Angell Island,Island,54.6167280,-102.2504019,
HABNS,Anglia,Hamlet,51.5667160,-108.1673570,30-16-W3
HATSF,Anglin Lake,Lake,53.7333834,-105.9338284,
HABNT,Anglin Lake,Locality,53.7000501,-105.9504963,54-27-W2
HAPCJ,Anglin Lake Recreation Site,Recreation Site,53.7020387,-105.9617102,54-55-27-28-W2
HAVVX,Anglo-Rouyn Mine Site,Locality,55.3000696,-105.0004512,
HAOIK,Angus Creek,Creek,55.4167539,-108.7174073,74-18-W3
HABNX,Angus Lake,Lake,56.4334386,-102.3836962,
HABNY,Angus McKay Bay,Bay,55.8000729,-104.8671217,
HARLV,Aniska Lake,Lake,59.6502008,-102.0338381,
HATQJ,Anita Lake,Lake,52.6000217,-105.1671954,12-42-23-W2
HATRO,Anna Lake,Lake,52.5833609,-105.5005432,2-42-25-W2
HABNZ,Annabel Creek,Creek,54.8417376,-101.8864998,67-29-W
HABOA,Annabel Lake,Lake,54.8334009,-102.1670666,"67-1,2-W2"
HABOB,Annaheim,Village,52.3212528,-104.8191564,4-39-20-W2
HABOC,Anne Lake,Lake,59.6669081,-108.3841921,
HATTR,Annie Lake,Lake,52.2000282,-105.2672231,29-37-23-W2
HABOF,Annie Laurie Lake,Lake,51.9666574,-102.6671439,"34,35-5-W2"
HAUHJ,Anson Lake,Lake,59.7501956,-103.6172398,
HAPCK,Antelope,Locality,50.1500372,-108.3340305,1-14-18-W3
HAURV,Antelope Coulee,Coulee,49.0166717,-109.5840737,"1-27,28-W3"
HABOI,Antelope Creek,Creek,50.7000437,-108.3340319,20-17-W3
HAPCL,Antelope Lake,Lake,50.2667072,-108.4006981,15-18-W3
HAXDG,Antelope Lake Regional Park,Regional Park,50.2778183,-108.4145873,
HATBW,Antelope Park No. 322,Rural Municipality,51.7507045,-109.8476259,
HAWBQ,Antelope Wildlife Management Unit,Wildlife Management Unit,51.7167283,-109.8174428,
HABOJ,Antler,Hamlet,49.5660528,-101.4575194,14-7-30-W
HATLJ,Antler No. 61,Rural Municipality,49.5773321,-101.7993422,
HABOK,Antler River,River,49.0166890,-101.3671070,22-2-27-W
HABOL,Antoine Lake,Lake,53.7833858,-106.4338618,7-56-3-W3
HAQCP,Antoine Point,Point,55.9834225,-108.3840505,81-16-W3
HABOM,Anton Lake,Lake,57.1001058,-108.1340479,
HABON,Antony Lake,Lake,56.2000843,-103.5170721,
HABOO,Anxiety Butte,Butte,49.6000241,-108.8007167,7-21-W3
HABOP,Apetow Lake,Lake,54.8500659,-102.3504104,"67,68-3-W2"
HABOQ,Apex Bay,Bay,56.6334239,-104.1837748,
HABOR,Apex Island,Island,56.6000893,-104.2171084,
HABOT,Apex Lake,Lake,56.6834264,-104.0671047,
HABOS,Apex Lake,Lake,54.4167258,-103.1004247,62-8-W2
HARLU,Apipuyew Lake,Lake,59.6668668,-102.4671906,
HABDN,Apisis Lake,Lake,59.7003703,-107.1010306,
HAQSD,Apland Lake,Lake,59.9668568,-105.3173388,
HABSP,Appleby Bay,Bay,49.1833641,-104.8005302,
HABSQ,Appleby Bay,Bay,54.4500766,-107.3006228,
HABSR,Appleby Creek,Creek,54.4500766,-107.3006228,
HABSS,Appleby Island,Island,49.1833641,-104.8005302,
HABST,Appleby Lake,Lake,54.3667368,-107.1005939,62-8-W3
HABSU,Appleby River,River,57.9334660,-106.9506855,
HAOIM,Apps Lake,Lake,55.4167504,-108.3007109,74-15-W3
HABSV,Apps River,River,55.3834174,-108.0673666,74-14-W3
HAPCM,April Lake,Lake,51.8499905,-102.4004724,20-33-3-W2
HABSW,Aquadell,Locality,50.6333646,-106.7839612,29-19-6-W3
HABSX,Aquadell Creek,Creek,50.6833640,-106.7506272,15-20-6-W3
HAWLC,Aquadeo,Resort Village,53.1372361,-108.4250028,16-48-17-W3
HABTA,Arabella,Locality,52.0499904,-102.0504610,35-1-W2
HAQMG,Arborfield,Town,53.1056694,-103.6607417,3-48-12-W2
HASZH,Arborfield No. 456,Rural Municipality,53.0692851,-103.5186429,
HABTD,Arbour Lakes,Lakes,52.9667113,-106.6172332,14-46-5-W3
HATPX,Arbury,Locality,51.1500401,-104.2838811,27-25-17-W2
HAPCN,Arbuthnot,Hamlet,49.8166954,-106.9006302,9-10-7-W3
HAPXZ,Arcand Island,Island,55.1333990,-105.1837913,
HAPYA,Archer Island,Island,55.1167325,-105.1004541,
HABTF,Archer Lake,Lake,56.4334200,-103.8670901,
HABTG,Archer Ridge,Ridge,51.1167020,-107.1006429,25-8-W3
HAPCO,Archerwill,Village,52.4389944,-103.8610139,18-40-13-W2
HARDF,Archibald Bay,Bay,59.7502061,-102.0838424,
HABTH,Archibald Island,Island,55.3834069,-103.6337384,
HBAGC,Archibald Lake,Lake,59.4125000,-103.6980548,Southwest of Milton Lake
HAYKI,Archibald Lake,Lake,59.8835421,-102.3102404,
HABTI,Archibald Lake,Lake,54.1833845,-102.1170811,60-1-W2
HAAOT,Archibald Lake,Lake,56.1000748,-105.2671413,
HAAVL,Archibald Lake,Lake,59.0170154,-108.5843744,
HAQRW,Archibald Lakes,Lakes,59.8002079,-102.1005081,
HAUAB,Archibald River,River,59.1336803,-108.4177397,
HABTK,Archie Lake,Lake,59.4669880,-107.7510042,
HASCL,Archie Lakes,Lakes,57.4167699,-108.0340376,
HABTL,Archive,Railway Point,50.2833602,-105.6172430,23-15-27-W2
HAVGP,Archydal,Locality,50.4833610,-105.7505820,35-17-28-W2
HABTM,Archydal Coulee,Coulee,50.4666943,-105.7505817,17-28-W2
HABTN,Arcola,Town,49.6354522,-102.4919222,9-8-4-W2
HAQRX,Arctic Butte,Butte,59.9168762,-102.3838561,
HABTP,Arcturus Lake,Lake,52.6167409,-109.6007509,19-42-25-W3
HABTQ,Ardath,Hamlet,51.6167073,-107.2339799,33-30-9-W3
HAOPZ,Ardill,Locality,49.9392331,-105.8419943,25-11-29-W2
HABTS,Ardwick,Railway Point,49.6333610,-106.0172461,13-8-1-W3
HABTT,Arelee,Hamlet,52.2500528,-107.5006459,10-38-11-W3
HAQDK,Argo,Railway Point,52.0167180,-108.1006809,17-35-15-W3
HARJL,Argue Lake,Lake,59.8668103,-109.6675537,
HABTV,Argue Peninsula,Peninsula,56.8000924,-105.3005250,
HATMP,Argyle No. 1,Rural Municipality,49.1540522,-101.4793929,
HAUXK,Argyle Park,Urban Community,50.4903180,-104.6283265,
HABTX,Arlington Beach,Organized Hamlet,51.2468222,-105.2358856,25-26-24-W2
HATKS,Arlington No. 79,Rural Municipality,49.6238384,-108.6588933,
HABTY,Arm Lake,Lake,51.0666980,-105.8005891,"23,26-24-28-W2"
HAMJP,Arm River,River,50.7833711,-105.0338950,18-21-22-W2
HATDR,Arm River No. 252,Rural Municipality,51.2243875,-105.8235798,
HAWDD,Arm River Recreation Site,Recreation Site,50.8366486,-105.4431275,5-22-25-W2
HAQMF,Arma,Railway Point,52.5833756,-106.3672487,4-42-3-W3
HABTZ,Armatage Bay,Bay,57.6834490,-106.3172933,
HABUA,Armbruster Lake,Lake,59.4335483,-108.6840929,
HABUB,Armilla,Railway Point,49.6333558,-102.5838077,11-8-5-W2
HABUC,Armit,Hamlet,52.8333599,-101.7838116,32-44-30-W
HAMJJ,Armit Lake,Lake,52.5500120,-101.6379559,24-41-30-W
HAMJK,Armit River,River,52.8583616,-101.6713093,45-28-W
HAXAC,Armit River Recreation Site,Recreation Site,52.8301581,-101.6776976,
HAMJL,Armitage Lake,Lake,54.9834223,-109.2174736,69-22-W3
HAMJM,Armley,Hamlet,53.1166944,-104.0338021,6-48-14-W2
HAMJN,Armour,Railway Point,50.5167086,-104.6172163,12-18-20-W2
HAMJO,Armour Lake,Lake,54.7500915,-109.0841224,34-66-21-W3
HAMJQ,Armstrong Coulee,Coulee,49.6333601,-109.2174030,"8,9-8-24-W3"
HAMJS,Armstrong Creek,Creek,55.6001036,-109.8841780,76-25-W3
HAMJT,Armstrong Island,Island,57.7001338,-102.1837069,
HAMJU,Armstrong Lake,Lake,51.1333326,-102.2838065,"25-2,3-W2"
HAMJW,Armstrong Lake,Lake,56.4500872,-103.8337559,
HAMJV,Armstrong Lake,Lake,53.5667394,-107.7506342,17-53-12-W3
HAMJX,Armstrong Point,Point,59.2837312,-106.7676997,
HAMJY,Arn Lake,Lake,52.5000318,-105.7005574,41-26-W2
HAPZT,Arn Lake,Lake,55.0834051,-103.5170667,
HAYPY,Arndt Lake,Lake,59.3099056,-102.3921573,
HAMJZ,Arner Lake,Lake,54.8000683,-102.0503940,67-1-W2
HAQHU,Arnfield Lake,Lake,52.3333257,-102.7338100,39-6-W2
HAUXL,Arnheim Place,Urban Community,50.4364288,-104.5866589,
HAMKA,Arnold Coulee,Coulee,49.7166934,-108.6173761,"10,11-9-20-W3"
HAMKC,Arnold Lake,Lake,54.7667581,-109.0507879,"67-20,21-W3"
HASPM,Arnold River,River,58.1001281,-105.5505917,
HAMKD,Aroma Lake,Lake,52.3000603,-108.5507025,
HAMKE,Aronson Island,Island,55.2667368,-104.8004432,
HATNM,Arpiers,Locality,51.9500344,-105.7839251,34-17-W2
HAQHT,Arps Lake,Lake,52.3666614,-102.7671413,39-6-W2
HAPCQ,Arran,Village,51.8844681,-101.7186203,6-34-30-W
HAMKF,Arrowhead Bay,Bay,55.3167373,-104.6171026,
HAMKG,Arrowhead Island,Island,55.1834012,-104.9671154,
HAMKH,Arrowhead Lake,Lake,55.5500726,-104.4504343,
HAPWP,Arsenault Lake,Lake,55.1000869,-108.5340657,"70,71-17-W3"
HAMKI,Arsenault River,River,55.1334197,-108.3673870,71-16-W3
HAMKK,Arthur Lake,Lake,54.7167334,-101.9003876,66-30-W
HATQI,Arthur Lake,Lake,52.5666939,-105.4505422,41-24-W2
HAMKJ,Arthur Lake,Lake,52.4166660,-102.4671351,40-4-W2
HAMKM,Artland,Hamlet,52.7000761,-109.8841001,7-43-27-W3
HAMKO,Asbell Bay,Bay,55.8500759,-104.4171039,
HAMKP,Ashdown Lake,Lake,59.5002820,-106.0508403,
HAMKQ,Ashe Lake,Lake,52.8667157,-106.9005833,"45-6,7-W3"
HAMKR,Ashfield Island,Island,55.1500677,-104.8337764,
HAYLM,Ashley Lake,Lake,55.6431445,-107.1228695,
HAMKU,Ashley Lake,Lake,49.7833459,-102.3671602,"9,10-3-W2"
HASPX,Ashley Peninsula,Peninsula,58.1167998,-103.5504535,
HAMKV,Ashworth Bay,Bay,59.4335020,-104.8839633,
HAXWF,Asimakaniseekan Askiy 102A,Indian Reserve,52.1286894,-106.5857044,"22-46,47-6,7-W3"
HBAEK,Asimakaniseekan Askiy 102B,Indian Reserve,52.1289020,-106.7098630,
HAMKW,Asimwok Bay,Bay,56.7001118,-102.4336988,
HAOXT,Asiski Lake,Lake,56.4500860,-104.0837660,
HAMKY,Askew Lake,Lake,54.7834245,-109.0341212,"7,16-67-20-W3"
HAWRU,Aspen Cove,Hamlet,53.5445350,-108.6895906,2-53-19-W3
HAMKZ,Aspholm Lake,Lake,57.1834378,-107.9006978,
HAMLA,Asquith,Town,52.1347731,-107.2266111,33-36-9-W3
HASXA,Asquith,Railway Point,52.1167132,-107.2173024,27-36-9-W3
HAMLB,Assaf Islands,Islands,59.3835380,-108.9340836,
HARIU,Assembly Lakes,Lakes,59.9501281,-109.3174699,
HAOOY,Assiniboia,Town,49.6291139,-105.9886333,10-8-30-W2
HAUXM,Assiniboia East,Urban Community,50.4347618,-104.5783251,
HAWHH,Assiniboia Regional Park,Regional Park,49.6111389,-105.8394622,10-8-30-W2
HAXVC,Assiniboine 76,Indian Reserve,50.3459504,-103.5305157,"15,16-16-11-W2"
HAMLC,Assiniboine Elbow,Elbow,51.7666563,-102.0171305,32-1-W2
HAQRC,Assiniboine River,River,51.2749909,-101.5337915,
HAMLD,Astleford Lake,Lake,56.5667510,-105.1671507,
HABEI,Astrolabe Lake,Lake,59.6502596,-105.8341322,
HAMLG,Atchakoos Lake,Lake,55.9000867,-102.6670425,
HAMLH,Atchison Island,Island,55.4334095,-103.1337250,
HAMLI,Atchison Lake,Lake,54.8334206,-108.1673786,67-15-W3
HAYOY,Atchison Lake,Lake,59.1457290,-102.9046634,
HAMLJ,Atchison Lake,Lake,58.8503725,-108.8510527,
HAWVE,Athabasca Sand Dunes Provincial Park,Provincial Park,59.1580586,-108.6218949,
HAMLK,Athapapuskow Lake,Lake,54.5500617,-101.8503856,
HAMLL,Atik Falls,Falls,55.6000778,-103.1837224,
HBBOB,Atim Ka-Mihkosit,Indian Reserve,50.4190576,-104.5815122,
HARVD,Atkinson Bay,Bay,54.3833874,-105.1671200,
HAQDJ,Attica,Railway Point,51.9500297,-105.1005651,29-34-22-W2
HAQBV,Attitti Bay,Bay,55.0667375,-102.4504091,
HAMLO,Attitti Lake,Lake,55.1334062,-102.4670733,
HAMLP,Atton Lake,Lake,52.8500738,-108.8673778,"44,45-20-W3"
HAQFE,Atton's Lake Regional Park,Regional Park,52.8334065,-108.8632108,44-20-W3
HAUZJ,Attree Creek,Creek,54.6833945,-102.6670912,66-5-W2
HAMLQ,Attree Lake,Lake,54.7167285,-102.6670911,66-5-W2
HAMLR,Atwater,Village,50.7758139,-102.2269111,4-21-2-W2
HAMLS,Atwater Lake,Lake,56.8000938,-103.6170901,
HAMLT,Aubichon Arm,Arm,55.5500855,-108.0006975,
HAMLU,Aubichon Lake,Lake,54.6000871,-107.8340315,65-13-W3
HAMLW,Auburnton,Locality,49.4000195,-102.0837914,21-5-1-W2
HAMLX,Auburnton Creek,Creek,49.3000195,-101.9671187,14-4-34-W
HAMLY,Augen Lake,Lake,59.5502032,-105.7007171,
HAMLZ,Augier Lake,Lake,59.6001828,-108.7840563,
HAMMA,August Lake,Lake,55.8000714,-105.5504825,
HAMMB,Auld Lake,Lake,55.8834085,-104.5837774,
HAMMC,Auriat Island,Island,57.4667764,-106.5339526,
HAUZG,Ausland Lake,Lake,55.8000881,-108.1340387,
HAMMD,Auto Lake,Lake,52.6000742,-109.6674208,9-42-26-W3
HATKV,Auvergne No. 76,Rural Municipality,49.6613370,-107.4387666,
HAMME,Ava,Railway Point,51.8500554,-108.6173832,33-19-W3
HAVEN,Avalon,Urban Community,52.0967098,-106.6561674,
HAMMF,Avebury,Locality,53.1500485,-106.9839121,17-48-7-W3
HAUST,Avery,Railway Point,53.2500738,-107.9839807,28-49-14-W3
HAMMG,Avonhurst,Hamlet,50.6333728,-104.1338690,26-19-16-W2
HACMR,Avonlea,Village,50.0124944,-105.0588278,22-12-23-W2
HACMS,Avonlea Creek,Creek,50.1500365,-104.9505566,4-14-22-W2
HATNU,Axe Lake,Lake,51.5333676,-105.2172457,29-23-W2
HACMT,Axford,Railway Point,49.6500337,-104.4172127,17-8-18-W2
HABBU,Axis Lake,Lake,59.3503452,-106.0009261,
HACMU,Axton Coulee,Coulee,49.6000242,-108.7340466,"26,35-7-21-W3"
HACMV,Ayissowa Lake,Lake,55.6834068,-104.3671008,
HACMW,Aylesbury,Village,50.9391667,-105.6940667,10-23-27-W2
HACMX,Aylsham,Village,53.1915694,-103.8027419,2-49-13-W2
HAKOG,B-Say-Tah,Resort Village,50.7808721,-103.8373860,23-21-14-W2
HACMZ,Babcook Bay,Bay,59.5835126,-104.3672733,
HACNA,Babey Lake,Lake,55.9500775,-104.1670949,
HACNB,Babiche Lake,Lake,58.9334987,-103.5671718,
HACNC,Baby Gull Islands,Islands,55.1834017,-104.7171054,
HACND,Bachelu Lake,Lake,57.4334504,-103.5170977,
HACNE,Bachman Lake,Lake,57.4501089,-105.7339094,
HACNF,Bachmeier Lake,Lake,56.5834188,-104.9338060,
HACNG,Backes Island,Island,54.9667503,-109.7008335,
HAWAW,Backes Island Wildlife Refuge,Wildlife Refuge,54.9667503,-109.7008335,
HACNH,Backus Lake,Lake,59.6001775,-105.4340039,
HACNK,Bad Carrot Lake,Lake,54.6833955,-102.9004214,"65,66-6-W2"
HACNL,Bad Carrot River,River,54.6833956,-102.8837549,66-6-W2
HACNJ,Bad Lake,Lake,51.3833837,-108.4340394,28-18-W3
HACNM,Bader Lake,Lake,57.6834469,-108.5507589,
HACNN,Badger Island,Island,53.1500432,-105.9171860,
HACNO,Badger Lake,Lake,55.9500763,-104.5504436,
HACNQ,Badgerville,Locality,51.6333233,-101.9171293,34-30-32-W
HACNR,Badland Lake,Lake,49.4166869,-108.3340218,27-5-18-W3
HASRZ,Badwater River,River,58.5835855,-105.7341151,
HAVGT,Bag Island,Island,55.1334012,-104.5670989,
HACNU,Bagshaw Lakes,Lakes,55.3500710,-104.5837682,
HAOEZ,Bague Bay,Bay,55.4167358,-105.3504661,
HARXK,Bagwa Lake,Lake,54.0667216,-106.5338620,59-4-W3
HACNV,Bahnuick Lake,Lake,59.6001795,-108.8007171,
HACNW,Baht Lake,Lake,54.8333989,-102.3504107,67-3-W2
HAQDI,Baildon,Hamlet,50.2666940,-105.4672370,24-15-26-W2
HATJM,Baildon No. 131,Rural Municipality,50.1783358,-105.4954861,
HACNX,Bailey Creek,Creek,53.6833846,-103.6004391,54-11-W2
HACNY,Bailey Island,Island,54.9834180,-109.6841670,
HARGY,Bailey Lake,Lake,59.9002030,-103.0338920,
HACNZ,Bailey Lake,Lake,55.7834107,-103.6670739,
HATGE,Bailey Lake,Lake,57.1667703,-104.4338007,
HASVL,Bainbridge Lake,Lake,53.6000411,-101.9671073,53-31-W
HACOA,Bainbridge River,River,53.5500405,-101.9837749,53-31-W
HACOB,Baird,Railway Point,50.3500327,-107.6506671,16-12-W3
HACOC,Baird Lake,Lake,53.9333946,-103.8504097,57-13-W2
HACOD,Bakalar Lake,Lake,59.5668606,-102.9171766,
HACOE,Baker Coulee,Coulee,49.6166911,-108.7673819,"8,9,10-8-21-W3"
HASNI,Baker Creek,Creek,57.1500996,-107.1506402,
HACOF,Baker Island,Island,55.0000867,-109.5841638,
HASAH,Baker Lake,Lake,56.7167599,-107.5006523,
HACOG,Balcarres,Town,50.8049556,-103.5442500,13-21-12-W2
HACOH,Bald Butte,Butte,49.4000286,-106.0672467,22-5-1-W3
HACOI,Baldhead Lake,Lake,55.4334050,-104.8671141,
HACOJ,Baldwin Lake,Lake,55.4334065,-104.1004202,
HACOK,Baldwinson Lakes,Lakes,57.1667682,-106.8506252,
HACOL,Baldwinton,Hamlet,52.7834086,-109.2674000,15-44-23-W3
HACOM,Baldy Lake,Lake,54.1000570,-104.6337696,59-18-W2
HACOO,Balgonie,Town,50.4914583,-104.2629111,3-18-17-W2
HACOP,Baljennie,Hamlet,52.5500594,-107.9006561,24-41-14-W3
HATUT,Baljennie Creek,Creek,52.5667275,-107.9673275,41-14-W3
HACOQ,Ball Island,Island,55.5667386,-104.6337749,
HAOEY,Ball Lake,Lake,55.4667379,-105.1671263,
HACOR,Ball Lake,Lake,53.9833852,-103.0504454,58-8-W2
HACOS,Ballantyne Bay,Bay,54.6667324,-103.5504076,
HASMK,Ballantyne Lake,Lake,57.1834340,-107.5339998,
HACOT,Ballantyne River,River,54.6333990,-103.7170747,65-12-W2
HACOU,Ballentin Island,Island,57.5667952,-102.4503833,
HACOV,Baller Island,Island,54.9667357,-102.3337418,
HACOW,Balliet Lake,Lake,59.4168343,-105.0006361,
HACOZ,Balloon Lake,Lake,52.6000746,-109.8007609,3-42-27-W3
HAWJM,Balone Beach,Organized Hamlet,52.6678470,-105.6012230,"31,5-42,43-25-W2"
HACPB,Balsam Brook,Brook,54.3833877,-102.5337652,62-4-W2
HACPC,Balsam Lake,Lake,54.5167247,-102.4504196,"64-3,4-W2"
HACPD,Baltus Lake,Lake,59.3335021,-103.8172292,
HAOZW,Banbury Lake,Lake,56.2000843,-106.7172619,
HACPE,Bancescu Lake,Lake,55.9167403,-105.9505129,
HACPF,Banda Lake,Lake,52.9500501,-107.0505862,46-8-W3
HACPG,Bandur Lake,Lake,55.7167393,-104.6504459,
HACPH,Bangor,Village,50.8059250,-102.3418639,15-21-3-W2
HATNW,Bank Lake,Lake,51.5833671,-105.1339067,30-23-W2
HACPI,Bankend,Organized Hamlet,51.5091528,-103.8488056,13-29-14-W2
HACPJ,Bankside Lake,Lake,53.2333631,-102.4004704,49-3-W2
HACPK,Bannock,Railway Point,52.8666787,-103.1504786,18-45-8-W2
HACPL,Bannock Creek,Creek,52.7666754,-103.1671437,7-44-8-W2
HACPM,Bannock Lake,Lake,58.8501632,-102.7004645,
HACPN,Banyard Lake,Lake,56.0334091,-104.9004585,
HASUC,Bapaume,Hamlet,53.3834005,-107.6672923,51-12-W3
HACPO,Baptiste Island,Island,56.9667740,-103.0337321,
HAPAQ,Baptiste Lake,Lake,56.1834144,-106.4172310,
HACPP,Baptiste Lake,Lake,54.5500790,-107.2672964,64-9-W3
HACPQ,Bar Lake,Lake,55.4500659,-106.4338567,"74,75-3-W3"
HASNH,Barabonoff Lakes,Lakes,57.2334339,-107.4339921,
HACPR,Barber Lake,Lake,51.3667135,-107.6673317,28-12-3
HACPS,Barber Point,Point,59.8500915,-109.3173739,
HASDV,Bard Island,Island,57.3501083,-106.4006107,
HACPT,Barford,Railway Point,52.5500017,-103.9004880,25-41-14-W2
HACPU,Baribeau Lake,Lake,59.9668195,-109.7843653,
HACPV,Baring,Hamlet,50.2500194,-103.0505141,9-15-8-W2
HACPW,Barish Lake,Lake,50.3833385,-101.8838108,24-16-33-W
HAQTE,Barker Bay,Bay,56.3834274,-107.3006540,
HACPX,Barker Island,Island,55.6667388,-104.8004495,
HACQA,Barker Lake,Lake,59.6669095,-108.2675543,
HACPY,Barker Lake,Lake,55.6667388,-104.8004495,
HACQB,Barkwell Bay,Bay,57.6167806,-106.1006095,
HACQC,Barlow Lake,Lake,52.9333911,-107.3839415,"3,4-46-10-W3"
HATHZ,Barnes Creek,Creek,53.5500678,-107.5672858,53-11-W3
HACQD,Barnes Island,Island,55.9667434,-104.5171091,
HATRP,Barnes Lake,Lake,53.5500724,-107.7506342,53-12-W3
HAOXK,Barnett Lake,Lake,56.4334141,-105.3671556,
HACQE,Barnett Ridge,Ridge,54.7167570,-108.5174019,"21,28-66-17-W3"
HAOIX,Barney Creek,Creek,55.7501051,-109.8841735,
HACQF,Barney Lake,Lake,54.6333961,-102.0003880,65-30-W
HAQCV,Barney Lake,Lake,55.9001068,-109.6674907,"79,80-24-W3"
HACQG,Barr Lake,Lake,57.2667687,-107.1673120,
HACQH,Barrett Island,Island,59.9835350,-103.7172596,
HACQI,Barrett Lake,Lake,57.9334571,-106.4673350,
HAWTD,Barrier Ford,Organized Hamlet,52.5403778,-103.7109806,"19,20-41-12-2"
HASVF,Barrier Lake,Lake,53.9000476,-101.7837501,57-30-W
HACQJ,Barrier Lake,Lake,52.5333327,-103.7838228,"41-12,13-W2"
HACQK,Barrier River,River,52.5999994,-103.6504867,10-42-12-W2
HATAJ,Barrier Valley No. 397,Rural Municipality,52.5302508,-103.9504491,
HAVGU,Barritt Bay,Bay,59.3335741,-108.9841447,
HAOOO,Barrot Lake,Lake,49.6833596,-108.5507057,32-8-19-W3
HACQL,Barrowman Lake,Lake,55.6167386,-105.3338015,
HACQM,Barthel,Locality,53.9167647,-109.0507373,3-57-21-W3
HACQN,Bartko Lake,Lake,55.7334070,-104.4837727,
HACQO,Bartlam Bay,Bay,54.9667377,-102.1170659,
HAOGY,Bartlett Lake,Lake,55.5000716,-104.9837856,
HACQP,Bartlett Lake,Lake,58.5834766,-109.8508996,
HAYPZ,Barton Lake,Lake,59.3196277,-102.3296554,
HACQQ,Barts Lake,Lake,59.9834722,-109.2508270,
HACQR,Barvas,Railway Point,51.1999973,-102.1004687,32-25-1-W2
HACQS,Basaraba Lake,Lake,56.3167453,-105.2838134,
HACQT,Base Lake,Lake,53.8833864,-106.4671937,"56,57-4-W3"
HAAAO,Base des Forces canadiennes Moose Jaw,Canadian Forces Base,50.3461377,-105.5547417,"5,7,8,17,18-16-26-W2"
HACQU,Baseline Bay,Bay,54.2167333,-107.1672529,
HAQZZ,Bashford Lake,Lake,56.7000912,-105.6505424,
HATQK,Basin Lake,Lake,52.6333569,-105.2838634,42-23-W2
HAYHI,Basin and Middle Lakes Bird Sanctuary,Migratory Bird Sanctuary,52.5833563,-105.2505338,
HACQV,Bassett Lake,Lake,55.5834044,-104.9837875,
HACQW,Batchelor Lake,Lake,52.1833251,-102.2837984,37-2-W2
HACQX,Bate Creek,Creek,49.4333549,-108.1506779,31-5-16-W3
HACQY,Bateman,Hamlet,50.0098972,-106.7498583,22-12-6-W3
HACRA,Bateman Island,Island,53.2167055,-105.7005050,
HACRB,Bateman Lake,Lake,55.9000750,-104.6504473,
HACRD,Bates Lake,Lake,59.4670832,-106.8844105,
HAUOK,Batka Lake,Lake,51.6166590,-101.5754606,"13,24-30-30-W"
HACRF,Batoche,Locality,52.7333720,-106.1005610,8-43-1-W3
HAXTE,Batoche National Historic Site of Canada,National Historic Site,52.7528161,-106.1172269,
HAYOZ,Batsch Lake,Lake,59.1307284,-102.9310523,
HACRH,Batter Lake,Lake,55.8834087,-104.5504428,
HAURM,Battle Creek,Creek,49.0000088,-109.4173942,4-1-26-W3
HAQOH,Battle Creek,Locality,49.4333568,-109.8507577,33-5-29-W3
HACRO,Battle Heights,Locality,53.3667042,-103.3837928,2-51-10-W2
HACRJ,Battle Lake,Lake,53.8833867,-106.4171916,32-56-3-W3
HACRI,Battle Lake,Lake,49.6833612,-106.0505815,8-1-W3
HACRK,Battle River,River,52.7167322,-108.2506817,21-43-16-W3
HASZL,Battle River No. 438,Rural Municipality,52.7013137,-108.3334637,
HAXTG,Battle of Fish Creek National Historic Site of Canada,National Historic Site,52.5500392,-106.1808529,
HACRM,Battleford,Town,52.7384556,-108.3152528,30-43-17-W3
HACRN,Battleford Junction,Railway Point,52.8334030,-108.3506800,35-44-17-W3
HARLK,Battleford Lake,Lake,59.6501917,-103.3672209,
HAKEQ,Battrum,Hamlet,50.5500437,-108.3340289,30-18-17-W3
HAKER,Batty Lake,Lake,54.8000659,-102.2337377,67-2-W2
HAPPN,Batyski Lake,Lake,55.7167570,-107.4506701,77-9-W3
HAKES,Bauman Lake,Lake,53.5833826,-105.9671672,19-53-27-W2
HAKET,Baxter Lake,Lake,54.1667256,-106.8838875,7-60-6-W3
HARZO,Baxter Lake,Lake,57.7667855,-104.7838323,
HACNS,Bay Island,Island,55.1334012,-104.5670989,
HAKEX,Bay Lake,Lake,54.7000618,-102.7670909,"66-5,6-W2"
HAKFE,Bay Trail,Locality,52.1166940,-105.1505565,24-36-23-W2
HAKEU,Bayard,Organized Hamlet,50.0205861,-105.2881306,25-12-25-W2
HAQAL,Bayard Islands,Islands,55.1334005,-104.8504438,
HAKEZ,Bayley Lake,Lake,59.0670211,-108.6177371,
HAKFA,Bayliss Lake,Lake,59.8001963,-108.0675396,
HATAX,Bayne No. 371,Rural Municipality,52.2810386,-105.6524713,
HAWKQ,Bayview Heights,Organized Hamlet,53.1336403,-108.3981000,15-48-17-W3
HAKFF,Bazentin,Locality,53.3167403,-107.9006425,50-13-W3
HAKFG,Bazill Bay,Bay,54.7167546,-107.5340144,
HAXDB,Bazill Wildlife Refuge,Wildlife Refuge,54.7167546,-107.5340144,
HAKFH,Beacon Hill,Hamlet,54.3500904,-109.6508129,62-25-W3
HAKFJ,Beacon Lake,Lake,54.3334236,-109.6841485,62-25-W3
HAKFK,Beaconsfield Island,Island,54.8834080,-109.9175015,
HAPNB,Bead Lake,Lake,49.4000316,-104.8505388,24-5-22-W2
HAQDG,Beadle,Hamlet,51.4667227,-109.0007348,11-29-22-W3
HAKFL,Beale Lake,Lake,59.3668819,-108.9507685,
HAKFM,Bean Lake,Lake,54.2500558,-104.7004367,"61-18,19-W2"
HAKFN,Bear Bay,Bay,55.0833994,-104.7671066,
HAOQW,Bear Creek,Creek,49.9833696,-109.1340707,18-12-23-W3
HAKFR,Bear Creek,Creek,54.4667583,-109.3841290,22-63-23-W3
HAKFQ,Bear Creek,Creek,52.2833274,-102.1837971,23-38-2-W2
HAQQM,Bear Creek,Railway Point,50.4666696,-101.8171393,22-17-32-W
HAWRQ,Bear Creek,Northern Settlement,56.2988194,-108.9408167,
HAOZO,Bear Creek,Creek,56.1334224,-108.9173998,
HAKGA,Bear Head Creek,Creek,51.9666617,-101.5837886,36-34-30-W
HAKGB,Bear Head Lake,Lake,51.7333275,-101.6004636,32-30-W
HAYJW,Bear Island,Island,59.9190884,-103.9339317,
HAKFT,Bear Island,Island,55.2500690,-104.9504486,
HAKFU,Bear Lake,Lake,52.2333259,-102.2671319,"37,38-2-W2"
HASUZ,Bear Lake,Lake,53.4333825,-106.3505342,27-51-3-W3
HAYPA,Bear Lake,Lake,59.1251728,-102.7893803,
HAKFW,Bear Lake,Lake,55.6834059,-104.6337776,
HAKGD,Bear Point,Point,54.4334248,-109.5174715,11-63-23-W3
HAKGE,Bear Point,Point,54.7000664,-103.7004058,66-12-W2
HAKFX,Bear Rapids,Rapids,56.1667591,-107.6006728,
HARON,Bear River,River,54.5500646,-103.9504143,64-13-W2
HAKFY,Bearcat Lake,Lake,59.5169204,-108.3508432,
HAKFZ,Beardall Lake,Lake,57.0334324,-106.4005983,
HZAAB,Beardy's & Okemasis 96 & 97-A,Indian Reserve,51.6342713,-104.3619563,
HZAAF,Beardy's & Okemasis 96 & 97-B,Indian Reserve,52.8037306,-106.4530321,
HZADX,Beardy's & Okemasis 96 & 97-C,Indian Reserve,52.9695265,-106.4515610,
HAXUQ,Beardy's 97 and Okemasis 96,Indian Reserve,52.8253125,-106.3376672,"44,45-2,3,4-W3"
HAQTQ,Bearnese Lake,Lake,56.2667538,-106.9839514,
HAKGC,Bearpaw Bend,Bend,50.6333680,-107.5339953,
HAUAR,Beartooth Island,Island,59.2169555,-109.7010416,
HARQU,Beartrack Lake,Lake,53.8667198,-106.4338594,30-56-3-W3
HAKGJ,Beartrap Creek,Creek,53.9000514,-106.1505049,1-57-2-W3
HARQV,Beartrap Lake,Lake,53.8500511,-106.1505060,18-56-1-W3
HAKGK,Beaton Island,Island,52.5667272,-107.9506592,
HAKGM,Beaton Lake,Lake,53.8000443,-102.1837753,"55,56-2-W2"
HAKGN,Beatrice Lake,Lake,52.4667386,-109.5507494,20-40-25-W3
HAKGO,Beatty,Village,52.9000281,-104.8043000,23-45-20-W2
HAKGP,Beatty Bay,Bay,55.8667410,-104.6837817,
HAKGQ,Beatty Creek,Creek,54.5167526,-107.8840303,3-64-13-W3
HAKGS,Beatty Island,Island,57.4167935,-102.2503641,
HAKGR,Beatty Island,Island,55.8667411,-104.6504471,
HAUGB,Beatty Island,Island,59.7500953,-109.0339967,
HAKGT,Beatty Lake,Lake,54.8500696,-102.0503946,68-1-W2
HAWLD,Beatty Lake,Lake,54.5167526,-107.8840303,"3,10-64-13-W3"
HAXAI,Beatty Lake Recreation Site,Recreation Site,54.5129157,-107.8813595,
HAKGU,Beatty Point,Point,58.4168122,-103.3504564,
HARZB,Beatty River,River,58.2084655,-110.0064325,106-1-W4
HAKGV,Beau Bay,Bay,55.9167546,-108.4673893,
HAUQR,Beaubier,Organized Hamlet,49.1266278,-104.0794361,16-2-16-W2
HARAB,Beaudreau Lake,Lake,56.6334229,-105.6672056,
HAKGW,Beaudry Lake,Lake,55.5834041,-105.0004547,
HAKGX,Beaufield,Hamlet,51.7500590,-109.1007400,18-32-22-W3
HAKGY,Beaufield Lake,Lake,51.7833923,-109.0840732,32-22-W3
HAKGZ,Beaulieu Lake,Lake,58.3502427,-106.8841678,
HAKHA,Beaupré Creek,Creek,54.4667453,-107.3839675,
HAXAJ,Beaupré Creek Recreation Site,Recreation Site,54.5307921,-107.2702109,
HAKHB,Beaupré Lake,Lake,54.5334104,-107.1672836,64-9-W3
HAKHC,Beauval,Northern Village,55.1407611,-107.6297056,71-11-W3
HBAEU,Beauval Forks 1920,Indian Reserve,55.1010730,-107.7078930,
HAWLE,Beaver Creek,Organized Hamlet,51.9763028,-106.6646944,
HAPCU,Beaver Dale,Locality,51.2499979,-102.9004890,15-26-7-W2
HAUZO,Beaver Flat,Resort Village,50.6617611,-107.6629611,
HAKHG,Beaver Hills,Hills,51.3000138,-103.4338441,
HAKHI,Beaver Island,Island,57.4334618,-102.1670259,
HAKHK,Beaver Lake,Lake,51.7666565,-102.1004661,
HAPCW,Beaver Lake,Lake,49.8333475,-102.3004942,24-10-3-W2
HAAXZ,Beaver Point,Point,59.3337317,-107.3344193,
HAAVK,Beaver Point,Point,59.1337322,-108.9344126,
HAAYD,Beaver River,River,59.4170027,-107.7510236,
HAQNA,Beaver River,River,55.4334207,-107.7506892,74-12-W3
HASXZ,Beaver River No. 622,Rural Municipality,54.2470380,-109.5078834,
HAWDE,Beaver River Recreation Site,Recreation Site,54.2965376,-108.6051945,61-8-W3
HAKHO,Beaver Valley,Locality,49.4666910,-107.7506601,18-6-13-W3
HAXAK,Beaver/Cowan Rivers Recreation Site,Recreation Site,54.4242529,-107.8567671,
HAKHM,Beaverdam Lake,Lake,49.7833511,-102.1838207,
HAKHF,Beaverdam Lake,Lake,54.8000693,-101.9170558,67-30-W
HAKHN,Beaverlodge Island,Island,59.4335740,-108.5674398,
HARMZ,Beaverlodge Lake,Lake,59.5168813,-108.5841188,
HAKHQ,Beaverlodge Mountain,Mountain,59.4669035,-108.5507844,
HAYRG,Beblow Lake,Lake,56.4125946,-107.4381628,
HAKHR,Bechard,Hamlet,50.0500334,-104.2172181,2-13-17-W2
HAKHS,Beck Island,Island,55.7334057,-104.8837879,
HAKHT,Beck Lake,Lake,54.3333960,-104.0837544,62-14-W2
HAKHV,Becker Bay,Bay,54.7167329,-101.9503888,66-30-W
HAKHW,Beckett Brook,Brook,51.6833395,-103.6005068,14-31-12-W2
HASFD,Beckett Lake,Lake,57.3667767,-104.4004695,
HAKHX,Beckwall Lake,Lake,59.6835543,-108.4841544,
HAKHY,Becvar Brook,Brook,51.6833390,-103.5838396,13-31-12-W2
HAKHZ,Bedard Creek,Creek,53.4833797,-104.5838026,9-52-18-W2
HAKIA,Bedard Island,Island,56.9501148,-102.4503688,
HAKIB,Bedford Creek,Creek,49.1000073,-109.2173915,7-2-24-W3
HAQMZ,Bedford Island,Island,57.4667902,-102.7337281,
HAJYQ,Beech Lake,Lake,59.4501722,-105.5006702,
HAJYR,Beeching Lake,Lake,57.5667900,-103.4670978,
HAJYS,Beechinor Lake,Lake,59.5169272,-108.2675414,
HAJYT,Beechy,Village,50.8793278,-107.3838575,18-22-10-W3
HAJYU,Beed Lakes,Lakes,59.5668437,-105.3339981,
HAJYV,Beeds Lake,Lake,55.5167340,-106.1338386,75-1-W3
HARBX,Beet Lake,Lake,57.6501167,-109.1341274,
HAJYW,Beetle Creek,Creek,54.0000534,-106.3671845,10-58-3-W3
HAJYX,Beetle Lake,Lake,53.9500537,-106.4171892,20-57-3-W3
HAJYY,Begon Lake,Lake,53.5667144,-105.7838256,9-53-26-W2
HASHI,Begrand Lake,Lake,56.3667477,-104.6337860,
HAJYZ,Beise Lake,Lake,59.4001920,-108.7674437,
HAJZA,Bekevar,Locality,50.0333512,-102.6171654,27-12-5-W2
HAOOB,Belanger,Locality,49.5666926,-109.3174048,16-7-25-W3
HAJZC,Belanger Creek,Creek,49.5000237,-109.3674048,30-6-25-W3
HAJZD,Belanger Island,Island,56.9000999,-103.3837500,
HASWA,Belanger Lake,Lake,53.9167138,-102.0004162,57-31-W
HAOIF,Belanger Point,Point,55.4834204,-107.8006907,
HAJZF,Belbeck,Railway Point,50.4666934,-105.5672411,31-17-26-W2
HAJZH,Belbutte,Hamlet,53.3667390,-107.8173043,51-13-W3
HAJZG,Belcher Lake,Lake,55.2667427,-102.5503988,
HAJZJ,Belhumeur Bay,Bay,50.8500311,-106.9839698,
HAJZK,Belhumeur Creek,Creek,50.8333645,-107.0006370,2-22-8-W3
HAQJL,Bell Bay,Bay,59.2335126,-102.4838210,
HAOFC,Bell Bay,Bay,55.2667333,-105.3837999,
HAJZL,Bell Bay,Bay,59.4503090,-106.0508771,
HAJZM,Bell Butte,Butte,50.6833675,-107.4173240,11-20-11-W3
HAJZN,Bell Coulee,Coulee,53.0334132,-109.8007666,47-26-W3
HARTE,Bell Creek,Creek,58.9668344,-102.5838033,
HAJZO,Bell Creek,Creek,53.5667171,-106.0505046,
HAJZP,Bell Falls,Falls,56.5167541,-104.1337696,
HAJZR,Bell Island,Island,55.4500829,-102.1337233,
HAJZQ,Bell Island,Island,53.9167129,-102.3337763,
HAQJS,Bell Lake,Lake,59.2001776,-102.5838226,
HARSU,Bell Lake,Lake,58.6334802,-104.4172071,
HAJZW,Bell Lake,Lake,55.4500714,-104.6171045,
HAJZT,Bell Lake,Lake,53.2000293,-102.6004713,49-5-W2
HAJZU,Bell Lake,Lake,53.5500505,-106.1005091,
HAJZX,Bell Peninsula,Peninsula,56.7001117,-102.4670337,
HAJZZ,Bell Rapids,Rapids,57.3667744,-106.1505978,
HAJZY,Bell Rapids,Rapids,56.9000991,-103.9837734,
HAKAG,Bell's Lake,Lake,52.7166759,-104.3671582,23-43-17-W2
HAPWH,Bella Lake,Lake,55.2500891,-107.4506770,72-10-W3
HAKAA,Bellamy Bay,Bay,54.8167347,-102.1170638,
HAQDF,Belle Plaine,Village,50.3931417,-105.1566722,31-16-23-W2
HAPCY,Belleau Brook,Brook,51.9499899,-101.9504600,33-34-32-W
HAKAC,Bellegarde,Organized Hamlet,49.5309889,-101.5478833,36-6-31W
HAYJS,Bellegarde Bay,Bay,59.7201932,-103.8522495,
HAKAD,Bellegarde Lake,Lake,59.6001818,-108.6507907,
HAJZS,Belliveau Lake,Lake,53.5000903,-109.2674060,"23,24,25,26-52-23-W3"
HAKAE,Bellows Lake,Lake,55.7334057,-104.8837879,
HAKAF,Bells Island,Island,59.3836769,-107.7676864,
HAKAH,Belous Island,Island,59.4502905,-108.0676064,
HAPPO,Belton Lake,Lake,55.5334230,-107.2506595,"75-8,9-W3"
HAQJX,Belyea Lake,Lake,59.5168441,-110.0009660,
HAKAJ,Bemersyde,Locality,50.0500184,-102.9838442,36-12-8-W2
HAKAK,Ben Butte,Butte,51.1167131,-107.9506817,"25-14,15-W3"
HARYF,Ben Lake,Lake,53.9500511,-103.0171136,57-7-W2
HAKAL,Bender,Locality,50.0666832,-102.5338312,7-13-4-W2
HAKAM,Bender Lake,Lake,50.0666832,-102.5338312,13-4-W2
HAKAN,Bengough,Town,49.3963611,-105.1283028,23-5-24-W2
HATLR,Bengough No. 40,Rural Municipality,49.4005157,-105.1595578,
HAWHI,Bengough Regional Park,Regional Park,49.3916959,-105.1380429,14-5-24-W2
HAQWZ,Benito Beach,Beach,51.6666595,-101.6004630,11-31-30-W
HAKAO,Benjamin Lake,Lake,55.7334061,-104.7671172,
HAKAP,Bennett Bay,Bay,55.0834203,-108.4507271,
HATFV,Bennett Bay,Bay,57.0334312,-105.4172115,
HAKAQ,Bennett Island,Island,55.5834056,-104.6337752,
HAPDB,Bennett Lake,Lake,53.2333784,-106.0671904,15-49-1-W3
HAKAR,Bennett Lake,Lake,49.7666793,-102.4504938,"34,35-9-4-W2"
HAKAS,Bennett Lake,Lake,56.3001037,-102.2836942,
HAQGO,Bensham,Locality,52.7000040,-103.8171490,43-13-W3
HAPML,Benson,Hamlet,49.4500277,-103.0171469,10-6-8-W2
HAKAT,Benson Creek,Creek,49.6167016,-109.9674334,1-8-30-W3
HAKAU,Benson Lake,Lake,55.3417345,-105.3893559,
HAKAV,Benson Lake,Lake,57.5334447,-105.9005924,
HATLW,Benson No. 35,Rural Municipality,49.3916310,-103.0157095,
HAKAW,Bentley Bay,Bay,55.8167503,-106.8839461,
HAKAX,Bentley Lake,Lake,58.8501628,-103.3671591,
HAKAY,Bentley Peninsula,Peninsula,56.4000948,-108.2340420,
HAKAZ,Bents,Locality,51.8167150,-107.7339969,13-33-13-W3
HAQBY,Bentz Bay,Bay,55.1000723,-102.4170738,
HAKBA,Beranek Lake,Lake,55.5500714,-104.9337850,
HAKBB,Berdahl Creek,Creek,53.1000270,-102.0004682,47-1-W2
HAKBC,Beresina,Locality,51.0166623,-101.7671307,29-23-31-W
HAKBD,Bereskin Island,Island,55.2500701,-104.7337737,
HASWK,Berezowsky Bay,Bay,53.7917163,-105.3254690,35-55-23-W2
HAKBE,Berg Lake,Lake,55.5500712,-104.8671163,
HAYGT,Bergen Lake,Lake,59.1200000,-102.2941667,
HAKBF,Berger Lake,Lake,59.4835242,-102.2671692,
HAKBG,Bergheim,Locality,52.2000420,-106.4172683,37-3-W3
HAKBH,Bergland Lake,Lake,55.5167379,-104.7337770,
HAKBI,Berglund Island,Island,59.8835406,-102.5171984,
HABCP,Bergot Lake,Lake,52.6333491,-104.8838463,"13,24-42-21-W2"
HAKBK,Bernard,Locality,50.8166983,-107.0673069,28-21-8-W3
HAKBL,Bernard Lake,Lake,56.3501049,-102.3003600,
HARRX,Bernard Lake,Lake,58.1835135,-107.4174466,
HAKBM,Bernaski Bay,Bay,55.7000719,-104.9837908,
HAKBN,Bernett Lake,Lake,55.5334053,-104.6171068,
HAKBO,Berney Lake,Lake,55.8667448,-103.7337441,
HAKBP,Bernhardt Lake,Lake,56.8334501,-102.1336817,
HARZU,Bernick Lake,Lake,57.9334583,-104.4671552,
HAKBQ,Bernier Island,Island,52.9167389,-108.5340239,
HAYJX,Berry Lake,Lake,59.9132554,-103.8422615,
HAKBS,Berston Island,Island,57.8501380,-102.0837043,
HAKBT,Berth Lake,Lake,59.5668835,-108.5174743,
HAKBU,Bertha Lake,Lake,59.5501951,-108.7007610,
HAKBV,Bertrand Bay,Bay,59.6836848,-106.5509660,
HAKBW,Bertrum Bay,Bay,54.7000623,-102.8504217,
HAKBX,Bertwell,Hamlet,52.5833370,-102.5671369,6-42-4-W2
HAVZS,Berube Lake Game Preserve,Game Preserve,53.4833846,-106.9672407,
HAKBY,Berven Lake,Lake,55.7834071,-104.5504422,
HAKCA,Besana Spring,Spring,52.0833909,-108.6007126,14-36-19-W3
HAWDF,Besant Recreation Site,Recreation Site,50.4635889,-105.9616761,29-17-29-W2
HAKCB,Besnard Creek,Creek,55.5667365,-105.6671471,
HAKCC,Besnard Lake,Lake,55.4167327,-106.0004971,
HAWDH,Besnard Lake Recreation Site,Recreation Site,55.4072576,-106.0682466,74-1-W3
HARAI,Besse Lakes,Lakes,56.6834213,-105.2838364,
HAKCD,Bessette Lake,Lake,59.7002214,-108.4508375,
HAKCF,Best Lake,Lake,55.7334056,-106.2338583,78-2-W3
HAKCE,Best Lake,Lake,51.8583300,-101.5810166,24-33-30-W
HAKCG,Betalock,Railway Point,51.5000389,-107.1006416,20-29-8-W3
HAKCH,Betbeder Coulee,Coulee,49.8000289,-108.9507274,10-22-W3
HAKCI,Bethune,Village,50.7108111,-105.2052667,24-20-24-W2
HAWDG,Bethune Recreation Site,Recreation Site,50.7386838,-105.2711955,33-20-24-W2
HAKCJ,Bettin Island,Island,55.3834050,-104.3170923,
HAKCK,Betts Island,Island,53.2167090,-105.8005095,
HARHX,Betts Lake,Lake,59.9668246,-108.7675117,
HAKCL,Betty Lake,Lake,59.5501974,-108.7340781,
HARYJ,Between Lake,Lake,53.8000446,-102.0504356,"55,56-1-W2"
HAKCM,Beverley,Hamlet,50.2667010,-107.9673482,15-15-W3
HADWQ,Bewley Lake,Lake,53.8167112,-102.2004416,56-2-W2
HADWR,Bexhill,Railway Point,49.5666945,-106.0339130,14-7-1-W3
HADWS,Beyers Coulee,Coulee,50.9667142,-108.5673789,22-23-19-W3
HADWU,Bib Lake,Lake,54.6834266,-109.1341217,"5,8-66-21-W3"
HADWV,Bickerton Lake,Lake,59.1168393,-103.1005033,
HADWW,Bickleigh,Locality,51.2833831,-108.4007051,12-27-18-W3
HADWX,Bickler Lake,Lake,59.8168651,-103.5172427,
HADWY,Biden Island,Island,55.6334056,-104.7171125,
HARUE,Biden Lake,Lake,54.9833955,-105.3837977,13-69-23-W2
HADWZ,Bielby Lake,Lake,55.5500713,-104.8004473,
HADXA,Bielby Rapids,Rapids,56.9501017,-108.5673985,
HAUQL,Bienfait,Town,49.1391556,-102.8014869,19-2-6-W2
HADXB,Big Arm Bay,Bay,51.1667043,-105.3505745,
HATDS,Big Arm No. 251,Rural Municipality,51.2605279,-105.2604369,
HADXC,Big Baldy Hill,Hill,58.5001529,-102.0004129,
HADXD,Big Beaver,Organized Hamlet,49.0992611,-105.1709500,5-2-24-W2
HAWHJ,Big Beaver Regional Park,Regional Park,49.0883599,-105.1685960,"5,6-2-24-W2"
HADXE,Big Boggy Creek,Creek,51.4666570,-101.5671265,19-26-29-W
HADXF,Big Boulder Lake,Lake,59.7168884,-105.7340733,
HAXAL,Big Buffalo Beach Recreation Site,Recreation Site,55.8834200,-108.6007276,
HADXG,Big Chain Lake,Lake,49.7500173,-102.2004865,
HADXH,Big Corner Lake,Lake,54.2667256,-106.7838818,61-6-W3
HADXJ,Big Fish Lake,Lake,57.3167783,-109.0841119,
HADXK,Big Fort Lake,Lake,51.2833714,-104.2172117,
HADXN,Big Gully Creek,Creek,53.2000836,-109.0507242,7-49-21-W3
HADXP,Big Gully Lakes,Lakes,53.2834159,-109.7674402,"49,50-26-W3"
HADXS,Big Head Bay,Bay,54.4167583,-109.5008030,
HADXW,Big Island,Island,54.8167534,-107.3839993,
HADXX,Big Island,Island,55.1334001,-105.0004500,
HADXY,Big Island,Island,55.4334197,-107.8506921,
HADXZ,Big Island,Island,56.3000878,-103.2170620,
HBAFW,Big Island Lake Cree Territory,Indian Reserve,54.4250911,-109.5924769,
HADYA,Big Island Point,Point,54.8000870,-107.4173363,
HADYB,Big Lake,Lake,53.8500452,-102.2504420,56-2-W2
HADYD,Big Marsh Lake,Lake,49.7500155,-102.2838220,
HADYE,Big Muddy,Locality,49.0333626,-104.8671948,10-1-22-W2
HADYF,Big Muddy Creek,Creek,49.1000295,-104.8671965,10-2-22-W2
HADYG,Big Muddy Lake,Lake,49.1500300,-104.8505307,
HADYH,Big Muddy Valley,Valley,49.0500295,-104.8505280,1-22-W2
HASPT,Big Narrows,Narrows,58.0167999,-103.4004413,
HADYI,Big Quill Lake,Lake,51.9166832,-104.3671995,
HATCJ,Big Quill No. 308,Rural Municipality,51.6778914,-104.3416933,
HADYK,Big River,River,53.8333882,-107.0338975,56-7-W2
HADYJ,Big River,Town,53.8350981,-107.0330556,
HAXVL,Big River 118,Indian Reserve,53.5536046,-107.1203541,"16,17,20,21-52,53,54-7,8,9-W3"
HAXVK,Big River 118A,Indian Reserve,53.4636732,-107.0475929,"1-52-7,8-W3"
HASYB,Big River No. 555,Rural Municipality,53.8229931,-107.2515287,
HAWHL,Big River Regional Park,Regional Park,53.8417218,-107.0172294,17-56-7-W3
HATFU,Big Sandy Lake,Lake,57.1334340,-105.0338490,
HADYL,Big Sandy Lake,Lake,54.4500632,-104.1004200,
HAXAM,Big Sandy Lake Recreation Site,Recreation Site,54.4834060,-104.1742842,
HAOJO,Big Shell,Resort Village,53.1971556,-107.1354828,
HAXAN,Big Shell Lake Recreation Site,Recreation Site,53.2180055,-107.1500723,
HATJD,Big Stick No. 141,Rural Municipality,50.1847205,-109.5269389,
HADYS,Big Sucker Lake,Lake,53.4333824,-106.4005383,51-3-W3
HADYT,Big Valley Creek,Creek,52.4833304,-103.0504736,35-40-8-W2
HADYU,Big Valley Lake,Lake,52.3999956,-103.0171395,"39-7,8-W2"
HADYV,Big Whitemoose Lake,Lake,55.2500708,-104.2004202,
HAAWR,Bigfowl Island,Island,59.4835831,-108.4508155,
HATVI,Biggar,Town,52.0634611,-107.9790750,
HATBG,Biggar No. 347,Rural Municipality,52.0873596,-108.1497732,
HAWHK,Biggar and District Regional Park,Regional Park,52.0792191,-107.9756710,36-14-W3
HADXT,Bighorn Brook,Brook,52.1333252,-102.1337954,30-36-1-W2
HADXU,Bighorn Lake,Lake,52.1833284,-101.9171219,37-32-W
HADYN,Bigstick Lake,Lake,50.2667120,-109.3340833,"15-24,25-W3"
HADYO,Bigstone Cutoff,Channel,53.9333798,-102.3671103,57-3-W2
HAXAO,Bigstone Cutoff Recreation Site,Recreation Site,53.9334486,-102.3433989,
HADYP,Bigstone Lake,Lake,54.6333960,-103.0837493,"64,65-7,8-W2"
HAPYF,Bigstone Lake,Lake,55.0667300,-105.4004659,
HADYQ,Bigstone Rapids,Rapids,58.8168285,-102.7504643,
HADYR,Bigstone River,River,53.9167128,-102.3504437,57-3-W2
HATRB,Bill Lake,Lake,52.6666844,-105.0171813,"42,43-21-W2"
HADYW,Billesberger Lake,Lake,56.7834356,-103.8670984,
HAPMQ,Billimun,Locality,49.4500271,-107.2172976,1-6-10-W3
HADYX,Billings Island,Island,53.7500766,-107.8173059,
HASMJ,Billings Lake,Lake,57.1000993,-107.5673327,
HADYY,Billo Lake,Lake,59.5669152,-108.3341908,
HADYZ,Bing Lake,Lake,55.5334047,-104.9171172,
HADZA,Bingham Lake,Lake,55.2167325,-105.3838001,
HASDU,Binkley Bay,Bay,57.3834419,-106.2506040,
HADZB,Binnie Bay,Bay,57.5334449,-106.0506002,
HADZC,Binnie Lake,Lake,55.6334212,-107.0839747,"76,77-7-W3"
HADZD,Binns Creek,Creek,52.3166626,-102.0004591,4-39-32-W
HADZE,Binns Lakes,Lakes,53.5833752,-102.5504591,53-4-W2
HADZF,Biology Bay,Bay,55.1667347,-104.6504359,
HAOQX,Birch Creek,Creek,49.8833716,-109.3674161,4-11-25-W3
HADZG,Birch Creek,Creek,51.7833399,-103.8171816,32-32-13-W2
HAUTS,Birch Hills,Town,52.9840353,-105.4325194,21-46-24-W2
HADZI,Birch Hills,Hills,52.8500338,-105.5838628,"44,45-25,26-W2"
HASZD,Birch Hills No. 460,Rural Municipality,53.0592880,-105.4857876,
HADZT,Birch Island Lake,Lake,49.7666827,-102.5338234,"30,31-9-4-W2"
HADZU,Birch Island Lakes,Lakes,51.3666595,-102.0671342,"27,28-1-W2"
HADZL,Birch Lake,Lake,53.4500828,-108.1673305,51-15-W3
HADZK,Birch Lake,Lake,49.8166842,-102.2171565,16-10-2-W2
HADZJ,Birch Lake,Railway Point,53.4667463,-108.0339884,5-51-14-W3
HADZM,Birch Point,Point,56.5000915,-103.0837267,
HAQCJ,Birch Point,Point,55.9500873,-108.6340608,80-17-W3
HAOMC,Birch Portage,Portage,55.5834050,-105.4004700,
HAXUL,Birch Portage 184A,Indian Reserve,54.8825354,-102.6008644,"68-5, 4-W2"
HAOMB,Birch Rapids,Locality,55.5667383,-105.3838025,
HADZN,Birch Rapids,Rapids,54.8667316,-102.6337528,
HADZO,Birch River,River,53.8417135,-101.7670876,
HADZQ,Birchbark Creek,Creek,53.7000486,-105.2504709,25-54-23-W2
HADZR,Birchbark Lake,Lake,53.5500461,-105.1171445,"52,53-21,22-W2"
HADZS,Birchbark Lake,Lake,53.6333749,-102.3171181,54-3-W2
HAXAP,Birchbark Lake Recreation Site,Recreation Site,53.5290406,-105.0909669,
HASQY,Bird Island,Island,58.4334802,-102.9337687,
HADZV,Bird Island,Island,54.9500665,-104.4670939,
HATPG,Bird Island,Island,51.3667026,-105.2339133,
HASQX,Bird Lake,Lake,58.4834822,-102.8504360,
HADZW,Bird Lake,Lake,57.8667907,-104.3504795,
HAUZQ,Bird's Point,Resort Village,50.5441167,-102.3496472,"22,27,28,29-18-3-W2"
HAWDJ,Bird's Point Recreation Site,Recreation Site,50.5461793,-102.3701629,28-18-3-W2
HADZZ,Birkbeck Lake,Lake,58.6670320,-106.6843224,
HAPZV,Birkett Lake,Lake,55.1334051,-103.6670703,
HAEAB,Birling,Railway Point,53.0500796,-109.1507292,15-47-22-W3
HAEAC,Birling Creek,Creek,53.1000811,-108.9340497,47-21-W3
HAEAD,Birling Lake,Lake,53.0334124,-109.0840581,47-21-W3
HAEAE,Birmingham,Hamlet,50.9666725,-102.9338326,9-23-7-W2
HAEAF,Birmingham Junction,Railway Point,50.9333371,-102.8338294,31-22-6-W2
HAEAG,Birney Lake,Lake,58.7503464,-107.5843485,
HAOHM,Birnie Lake,Lake,55.4833998,-106.2338446,75-2-W3
HAQDD,Birsay,Hamlet,51.1000331,-106.9839714,6-25-7-W3
HASTJ,Birson,Locality,53.1833693,-105.4005012,13-48-24-W2
HAEAH,Bish Lake,Lake,58.4669642,-107.8176232,
HAEAI,Bishopric,Locality,50.0000291,-105.7839084,21-12-28-W2
HAEAJ,Bisschop Lake,Lake,59.4668618,-108.7507513,
HAEAK,Bisset Creek,Creek,53.4167108,-104.5338035,24-51-18-W2
HAEAL,Bisson Island,Island,59.3168494,-103.2338461,
HAEAM,Bitschy Lake,Lake,57.7501165,-108.4340918,
HATSJ,Bitter Creek,Creek,53.7333837,-105.9671631,9-55-27-W2
HAEAN,Bitter Lake,Lake,50.1167185,-109.8007795,"13-28,29-W3"
HAEAO,Bitter Lake,Lake,51.6333332,-103.2838288,"30-9,10-W2"
HAEAQ,Bittern Creek,Creek,53.9500505,-105.7671498,57-26-W2
HAEAR,Bittern Lake,Lake,53.9333836,-105.7504828,"57,58-26-W2"
HATOV,Bittern Lake,Lake,51.3000375,-104.1505422,27-16-W2
HAXUH,Bittern Lake 218,Indian Reserve,53.8910721,-105.8248585,"33-56,57-26-W2"
HAEAT,Bittern River,River,54.0500509,-105.7671476,
HAEAU,Bjork Lake,Lake,52.7166699,-103.5004806,43-11-W2
HAEAV,Bjorkdale,Village,52.7090750,-103.6448083,43-12-W2
HASZV,Bjorkdale No. 426,Rural Municipality,52.6784220,-103.5144456,
HAEAW,Bjornson Island,Island,56.8667817,-102.2336887,
HAPQZ,Blachford Lake,Lake,55.7667460,-103.2837258,
HAEAX,Black Bay,Bay,55.6334211,-107.8840275,
HAUBL,Black Bay,Bay,59.4668506,-108.9173601,
HAEAY,Black Bear Island Lake,Lake,55.6334043,-105.6671490,
HAQVV,Black Birch Lake,Lake,56.9000961,-107.7506706,
HAEAZ,Black Birch River,River,56.9500987,-108.0173605,
HAEBA,Black Creek,Creek,59.7002420,-108.0175846,
HAEBG,Black Horse Lake,Lake,49.2500196,-107.9339967,3-15-W3
HAEBH,Black Island,Island,55.1000663,-104.8004414,
HARZD,Black Island,Island,58.1501336,-103.6004562,
HAEBI,Black Jack Lake,Lake,49.7833613,-108.6673796,32-9-20-W3
HAQLF,Black Lake,Lake,59.2001703,-105.2506515,
HAEBJ,Black Lake,Hamlet,59.1336098,-105.6008124,
HAEBK,Black Lake,Lake,49.6833565,-102.8338185,8-7-W2
HAEBL,Black Lake,Lake,54.8167358,-102.0170595,"24,25-67-1-W2"
HAWRP,Black Point,Northern Settlement,56.3666953,-109.4458917,
HAAZH,Black Rapids,Falls,59.4001749,-103.7338904,
HAUZR,Blackbird Creek,Creek,51.0166598,-101.5337919,30-23-29-W1
HAEBB,Blackduck Lake,Lake,54.6500606,-102.7337594,65-5-W2
HARRR,Blackduck Lake,Lake,53.9167230,-107.0838962,57-8-W3
HAOOE,Blacker Lake,Lake,49.6500298,-109.4174106,8-26-W3
HAEBC,Blackfeet Bay,Bay,50.6833670,-107.3506546,
HAEBD,Blackfeet Creek,Creek,50.6833670,-107.3506546,8-20-10-W3
HAEBE,Blackfoot Creek,Creek,52.8834117,-109.9674395,14-45-28-W3
HAEBN,Blackman Island,Island,56.4667545,-103.8004217,
HAEBO,Blackman Lake,Lake,56.4667545,-103.8004217,
HAEBP,Blackmore Lake,Lake,55.2334045,-104.1004165,
HAQTF,Blackstone Lake,Lake,56.4000933,-107.1673096,
HAEBR,Blackstrap Coulee,Coulee,51.7167040,-106.4672809,"31,32-3,4-W3"
HAWDK,Blackstrap Provincial Park,Provincial Park,51.7565684,-106.4507679,32-3-W3
HAVID,Blackstrap Reservoir,Reservoir,51.7833716,-106.4506123,"32,33-3,4-W3"
HAUWK,Blacktail Creek,Creek,49.5000215,-109.0840614,19-6-23-W3
HAEBU,Blackwater Lake,Lake,51.4333643,-106.1339365,30-28-1-W3
HAEBV,Blackwood,Locality,50.6000251,-103.4171879,1-19-11-W2
HAEBW,Blackwood Coulee,Coulee,50.6000257,-103.4338543,19-11-W2
HARTU,Blackwood Islands,Islands,54.8834019,-103.4670676,
HAEBX,Bladebone Lake,Lake,54.1500563,-106.6338693,
HAEBY,Bladon Island,Island,57.3167871,-102.6503851,
HAEBZ,Bladworth,Village,51.3674199,-106.1391693,6-28-1-W3
HBAAK,Blahoslovenie Creek,Creek,51.8833300,-103.6505060,
HAECA,Blaine Lake,Town,52.8283000,-106.8814306,
HAVZT,Blaine Lake Game Preserve,Game Preserve,52.6833841,-106.8505944,
HASZP,Blaine Lake No. 434,Rural Municipality,52.8274155,-106.7802799,
HAECB,Blaine Lakes,Lakes,52.8333848,-106.9839231,"44-7,8-W3"
HAECC,Blair Channel,Channel,59.3668819,-108.9174345,
HBAGE,Blair Lake,Lake,59.7672222,-102.2894444,
HAECD,Blair Lake,Lake,56.1334121,-104.4337743,
HAECF,Blais Island,Island,52.9500746,-108.6006946,
HAECG,Blais Lake,Lake,56.4500869,-103.9004251,
HAECH,Blais Lake,Lake,56.8667613,-107.5173202,
HAECI,Blake Lake,Lake,57.7667846,-108.4674302,
HAEEP,Blake Lake,Lake,59.4001940,-108.7841054,
HAREB,Blakely Lake,Lake,59.9835258,-105.6506877,
HAECJ,Blakiston Bay,Bay,50.6333676,-107.4673258,
HAECK,Blanchard Island,Island,55.2500700,-104.7837755,
HAECL,Blanchard Lake,Lake,57.3001072,-106.4006094,
HAECM,Blanche Lake,Lake,53.6500498,-105.9671649,"7,18-54-27-W2"
HASVY,Bland Lake,Lake,53.5000573,-107.2839302,"16,21-52-9-W3"
HASNK,Blazeiko Lake,Lake,57.1834335,-107.3339856,
HAECN,Bleasdell Lake,Lake,56.5834430,-102.3336931,
HAECO,Blewett,Railway Point,49.3833619,-103.2338216,12-5-10-W2
HAQBX,Blight Lake,Lake,55.0500734,-102.1337327,
HAECQ,Blind Creek,Creek,54.9833975,-104.9337798,69-20-W2
HAECR,Blind River,River,54.3167569,-108.4340405,26-61-17-W3
HASKE,Bliss Bay,Bay,55.4500717,-104.4504318,
HAECS,Bliss Lake,Lake,49.7833637,-105.5005621,"9,10-26-W2"
HAECT,Blixrud Lake,Lake,58.1334627,-104.8171900,
HAECU,Blondeau Creek,Creek,54.5667262,-102.3670786,64-3-W2
HAECV,Blondeau Island,Island,55.1167336,-104.7337721,
HAECW,Blondeau Lake,Lake,54.9667514,-107.2839877,15-69-9-W3
HAECX,Blondeau River,River,57.5667923,-103.0337449,
HAECY,Bloodsucker Creek,Creek,53.7667099,-102.5671237,55-4-W2
HAECZ,Bloodsucker Lake,Lake,53.8500446,-102.5671218,56-4-W2
HAEDA,Blooming,Railway Point,49.1500317,-104.3505142,33-2-18-W2
HAEDB,Bloudoff Lake,Lake,56.6500953,-107.9340188,
HAEDC,Blow Lake,Lake,59.5835045,-108.8673648,
HATVW,Blucher,Hamlet,52.0167038,-106.2005986,15-35-2-W3
HATBJ,Blucher No. 343,Rural Municipality,52.0119248,-106.1682678,
HASXQ,Blue Bell,Locality,54.2167641,-109.0007530,60-21-W3
HAPDE,Blue Heron,Locality,53.5000501,-106.5172109,52-4-W3
HAEDD,Blue Island,Island,58.2834740,-103.4171210,
HAEDG,Blue Jay,Locality,53.3667044,-103.5504564,"50,51-11-W2"
HAEDE,Blue Lake,Lake,53.1500483,-106.8672405,19-48-6-W3
HAEDF,Bluebird Island,Island,54.7000623,-102.8670881,
HAPDH,Bluff Creek,Creek,49.0000239,-107.0839553,1-1-9-W3
HAQDE,Blumenheim,Hamlet,52.4000427,-106.4172599,31-39-3-W3
HAEDH,Blumenhof,Hamlet,50.0166987,-107.7006702,27-12-13-W3
HAEEQ,Blumenort,Locality,50.0000324,-107.7506724,17-12-13-W3
HAQHH,Blumenthal,Organized Hamlet,52.4821333,-106.3818639,33-40-3-W3
HAQJM,Blyth Island,Island,59.0335014,-102.2837968,
HAEDI,Boa Lake,Lake,54.0167652,-109.4840965,15-58-24-W3
HAEDK,Bob Lake,Lake,55.4334040,-105.1671258,
HAEDJ,Bob Lake,Lake,59.6834359,-109.2006562,
HAEDL,Bocskay Lake,Lake,53.1167151,-106.9172430,48-7-W3
HAEDM,Boddy Lake,Lake,56.2167474,-104.2671023,
HAEDN,Boddy Point,Point,59.4336258,-108.0842673,
HAEDO,Bodmin,Hamlet,53.7500538,-107.0005649,16-55-7-W3
HAEDP,Boe Lake,Lake,55.4834062,-104.2504256,
HAEDQ,Boehler Bay,Bay,56.2500803,-104.4337764,
HAPZU,Boehm Lake,Lake,55.1834048,-103.9170773,
HASIP,Boettcher Lake,Lake,56.2334173,-103.6504113,
HAQZW,Boffa Lake,Lake,56.6167591,-106.9339544,
HAEDT,Bog Lake,Lake,53.7667102,-102.2004444,55-2-W2
HAEDU,Bog Lake,Lake,53.8833878,-106.7172094,32-56-5-W3
HAEDV,Bogdan Lake,Lake,55.6000731,-104.3170971,
HAEDS,Boggy Creek,Creek,50.6667111,-104.8338958,3-20-21-W2
HAEDR,Boggy Creek,Creek,49.0333558,-106.7339256,15-1-6-W3
HAVZU,Boggy Creek Game Preserve,Game Preserve,50.5167068,-104.4838776,
HAEDW,Boggy Lake,Lake,50.5667126,-108.4840344,"18,19-18-W3"
HAEDX,Bogue Lake,Lake,59.8168514,-108.1008632,
HAEDY,Boharm,Hamlet,50.4000274,-105.7172465,6-17-27-W2
HAEDZ,Boiler Creek,Creek,49.6500298,-109.4174106,13-8-26-W3
HAEEA,Boire Lake,Lake,54.4500867,-108.1506963,"13,14-63-15-W3"
HAEEB,Boissiere Lake,Lake,55.7500726,-105.7838240,
HAEEC,Bokitch Island,Island,59.2168444,-103.2838527,
HAEED,Bolan Lake,Lake,55.5667350,-106.0338334,
HAOFS,Boland Lake,Lake,55.4167392,-104.1670886,
HAEEE,Boland Lake,Lake,57.8668035,-103.8337976,
HAEEF,Bolding River,River,57.8834647,-107.0006857,
HARAC,Bole Bay,Bay,56.5334193,-105.7171973,
HAEEG,Bolingbroke Coulee,Coulee,49.5500226,-108.8340512,"7,18-7-21-W3"
HAEEI,Boll Lake,Lake,58.6836013,-109.3343115,
HAEEJ,Bolney,Locality,53.5334242,-109.3007424,34-52-23-W3
HARLT,Bolstad Lake,Lake,59.6835321,-102.8005321,
HAEEK,Bolster Creek,Creek,49.0666952,-105.9839085,29-1-30-W2
HAAXP,Bolster Peninsula,Peninsula,59.4004062,-106.6010393,
HAKCN,Bolton Lake,Lake,57.5667783,-108.6840949,
HAKCO,Bomber Lake,Lake,54.7334004,-101.9170549,66-30-W
HABFA,Bompas Lake,Lake,59.6501833,-104.9506487,
HAKCX,Bon Seigneur Lake,Lake,55.3167373,-104.5170987,
HAKCP,Bonanza Point,Point,55.3000704,-104.6171027,
HAKCQ,Bonazew Lake,Lake,57.6501079,-107.7340243,
HAKCS,Bond Island,Island,59.2670866,-106.4843781,
HAKCT,Bone Coulee,Coulee,51.1333687,-107.1006428,25-8-W3
HAORF,Bone Creek,Creek,49.8166961,-108.5507077,17-10-19-W3
HATKA,Bone Creek No. 108,Rural Municipality,49.8295641,-108.2463653,
HATRH,Bonne Madone,Railway Point,52.6666941,-105.4838687,36-42-25-W2
HAKCV,Bonne Madone Lake,Lake,52.6666949,-105.5172039,"42,43-25-W2"
HAKCU,Bonneau Lake,Lake,49.3666953,-105.5505578,5-27-W2
HAKCW,Bonneville Lake,Lake,56.0834304,-102.0170312,
HAWQQ,Bonnycastle Island,Island,55.2167348,-105.0004504,
HARLL,Bonokoski Lake,Lake,59.7335291,-103.3838936,
HAQZY,Bonville Lake,Lake,56.6834235,-105.5671991,
HAKCY,Boom Lake,Lake,59.5668548,-108.6841104,
HAQQU,Boomerang Lake,Lake,51.5166573,-101.6337937,29-30-W
HAKDA,Boot Lake,Lake,54.6833987,-101.9170539,66-30-W
HAKCZ,Boot Lake,Lake,52.5833746,-106.2672445,5-42-2-W3
HATPB,Booth,Railway Point,51.4167004,-104.6338902,21-28-19-W2
HAKDC,Booth Bay,Bay,55.1000862,-108.2840492,
HAKDD,Booth Bay,Bay,55.6167540,-102.0503800,
HAKDE,Booth Lake,Lake,55.8667430,-104.2337634,
HAKDF,Bootleg Lake,Lake,54.7167332,-101.9170545,66-30-W
HAKDG,Booy Lake,Lake,53.5500426,-102.8004673,53-6-W2
HATVF,Borden,Village,52.4049833,-107.2367083,33-39-9-W3
HAWDM,Borden Bridge Recreation Site,Recreation Site,52.3778994,-107.1419444,39-8-W3
HAKDI,Border Creek,Creek,49.2500148,-108.8173773,30-3-21-W3
HAKDH,Border Creek,Creek,49.0000262,-106.3672526,5-1-3-W3
HAKDJ,Borderland,Locality,49.0166948,-106.1005796,8-1-1-W3
HAKDK,Borderland Creek,Creek,49.0666950,-106.0505779,26-1-1-W3
HAKDL,Borys Lake,Lake,55.7167386,-104.9837911,
HAKDN,Bosshill Creek,Creek,50.0111113,-101.4476998,13-12-30-W
HAKDO,Botham Bay,Bay,54.7167288,-102.7670903,
HAKDP,Botham Lake,Lake,57.2501069,-106.5006142,
HAKDQ,Bothwell Lake,Lake,57.0500998,-103.6004292,
HARLO,Bouchard Lake,Lake,59.7335304,-103.2672207,
HAKDR,Boucher Island,Island,56.9167812,-102.2836916,
HAYQX,Boucher Lake,Lake,59.8029792,-102.9463809,
HATTO,Boucher Lake,Lake,52.4500316,-105.6672247,40-26-W2
HAKDS,Boughner Lake,Lake,59.6002603,-105.8341336,
HAQFY,Boulanoff Lake,Lake,52.6833860,-106.9339309,10-43-7-W3
HATNX,Boulder Lake,Lake,51.6000338,-105.2505779,"30,31-23-W2"
HAKDT,Boulding Lake,Lake,58.2001310,-105.2338972,
HAKDU,Boulton Lake,Lake,52.5000718,-109.4507442,31-40-24-W3
HAKDV,Boundary Creek,Creek,52.7833483,-102.4338078,7-44-3-W2
HAKDZ,Boundary Dam Reservoir,Reservoir,49.0500376,-103.0337912,"1,2-8-W2"
HAWDN,Boundary Dam Reservoir Recreation Site,Recreation Site,49.0763434,-103.0296818,33-1-8-W2
HAKDW,Boundary Island,Island,57.6668009,-102.0003632,
HAKDX,Boundary Lake,Lake,53.0333746,-106.0672059,46-1-W3
HAKDY,Boundary Plateau,Plateau,49.0500103,-108.8507083,
HAKEA,Bounty,Locality,51.5167069,-107.3673181,33-29-10-W3
HAKEB,Bourassa Creek,Creek,57.7167804,-109.9674938,
HAKEC,Bourassa Lake,Lake,53.6167100,-102.9004649,"53-6,7-W2"
HAKED,Bourgeau Peninsula,Peninsula,50.7667000,-107.2006484,21-9-W3
HAQOV,Bourgeault Lake,Lake,52.0999997,-103.9671775,36-14-W2
HAKEE,Bourgeault Rapids,Rapids,57.7834504,-107.9507275,
HAPRC,Bourget Lake,Lake,55.9834228,-102.5337045,
HAKEF,Bourne Bay,Bay,57.3334413,-106.4172779,
HARLI,Bourne Lake,Lake,59.6668576,-103.4672281,
HAVGZ,Bournemouth,Locality,53.1667373,-107.9006408,32-48-13-W3
HAKEG,Bousfield Lake,Lake,55.5500716,-104.7171108,
HAKEH,Bousquet Lake,Lake,54.3834256,-109.3507900,62-23-W3
HAKEI,Bouvier Creek,Creek,55.0667556,-109.6508346,70-24-W3
HAKEJ,Bouvier Lake,Lake,55.2833966,-106.1338345,"72,73-1-W3"
HAKEK,Bovair Lake,Lake,57.9501262,-108.7841328,
HAKEL,Bow Bay,Bay,59.7335231,-105.5673543,
HAKEM,Bow Lake,Lake,55.3667376,-104.5337666,
HAKEN,Bow River,River,54.9333957,-105.2171242,68-22-W2
HAUQF,Bow Valley Regional Park,Regional Park,49.2172455,-102.1685031,3-2-W2
HAKEO,Bowden Lake,Lake,49.3333647,-104.2838596,31-4-17-W2
HAKEP,Bowering Island,Island,55.4500725,-104.2837595,
HAKIC,Bowerman Lake,Lake,53.6667229,-107.1672474,54-8-W3
HAKID,Bowlby Lake,Lake,52.5334063,-109.6007512,24-41-26-W3
HAKIE,Bowman Creek,Creek,52.6500044,-102.8338061,32-42-6-W2
HASAD,Bowman Lake,Lake,57.9334677,-103.0170866,
HABDU,Box Lake,Lake,59.6337065,-106.6676706,
HAKIF,Box Point,Point,59.4502404,-108.5507819,
HAKIG,Boxall Lake,Lake,55.8834067,-105.9171752,
HAORP,Boxelder Creek,Creek,50.0500538,-110.0007917,
HAKIH,Boyce Island,Island,59.9168569,-105.0673260,
HAKII,Boyce Lake,Lake,55.6667407,-104.1837598,
HAXSM,Boyce Lake,Lake,59.5629863,-108.5396952,
HAKIJ,Boyd Island,Island,55.2667357,-104.9837834,
HAKIK,Boyd Lake,Lake,56.4000803,-105.1671438,
HAKIL,Boyer Lake,Lake,59.2668472,-102.6004954,
HAKIM,Boyes Island,Island,55.6834050,-104.9837903,
HBAGB,Boyes Lake,Lake,59.0797218,-102.1994438,Northeast of Burnet Lake
HAKIN,Boyle Island,Island,55.6834050,-104.9671230,
HARJM,Boyle Lake,Lake,59.8668029,-109.5841864,
HAKIO,Braaten Island,Island,55.3000706,-104.8337783,
HAKIP,Braba Lake,Lake,54.3000855,-108.0840223,19-61-14-W3
HAAHO,Brabant,Northern Settlement,56.1173514,-103.7520789,
HAKIQ,Brabant Bay,Bay,56.1000811,-103.7337463,
HAKIR,Brabant Lake,Lake,56.0000799,-103.7170784,
HAKIS,Bracey Lake,Lake,55.8167411,-104.5171071,
HAQOJ,Bracken,Village,49.1782972,-108.0960556,3-3-16-W3
HAKIU,Bracken Lake,Lake,55.9334093,-104.5671109,
HAOKK,Brackenridge Island,Island,55.5667447,-103.0503877,
HAKIV,Brada,Hamlet,52.7167328,-108.1840072,24-43-16-W3
HAKIW,Braddock,Locality,50.1000311,-107.3839884,24-13-11-W3
HAKIX,Braddock Reservoir,Reservoir,50.0833645,-107.3673210,19-13-10-W3
HAUOS,Bradford Lake,Lake,60.0002050,-103.1505673,
HAKIZ,Bradley Bay,Bay,55.6500737,-104.2837635,
HAKJA,Bradley Island,Island,57.4001270,-102.2170282,
HAKJB,Bradley Lake,Lake,59.4669615,-106.0841922,
HAKJC,Bradley Rapids,Rapids,57.9334697,-107.0173607,
HAKJD,Bradshaw Bay,Bay,55.4167380,-104.6171035,
HAKJE,Bradshaw Island,Island,55.2334009,-105.1671241,
HAKJF,Bradshaw Lake,Lake,55.4167380,-104.6171035,
HAKJG,Bradwell,Village,51.9467556,-106.2315361,28-34-2-W3
HAXEO,Bradwell National Wildlife Area,National Wildlife Area,51.9083711,-106.2506031,
HAKJH,Bradwell Reservoir,Reservoir,51.9333706,-106.1839338,"22,23-34-2-W3"
HAKJI,Brager Lake,Lake,59.3504186,-106.9344185,
HASIN,Brain Lake,Lake,54.6667307,-102.0337236,"65,66-1-W2"
HAKJJ,Braithwaite Lake,Lake,56.9001059,-103.1837384,
HATHF,Brakewell Lake,Lake,57.5001212,-103.7171067,
HAKJK,Bramble Lakes,Lakes,52.6833903,-107.2839491,"7,8-43-9-W3"
HAKJL,Brancepeth,Organized Hamlet,53.0024489,-105.2606750,34-46-23-W2
HARWB,Branch Lake,Lake,54.0834323,-109.5507684,"8,9-59-24-W3"
HAKJM,Brandser Island,Island,57.9334664,-103.3504352,
HASTA,Branta Lake,Lake,53.1833809,-106.6172272,48-5-W3
HAKJN,Brass,Railway Point,52.3333966,-108.7340455,6-39-19-W3
HAKJO,Brassy Rapids,Rapids,59.0334888,-104.7505996,
HAVII,Bratt's Lake,Lake,50.1667038,-104.5172171,"10,15-14-19-2"
HATJO,Bratt's Lake No. 129,Rural Municipality,50.1623204,-104.6789668,
HAPMC,Bratton,Locality,51.4167046,-107.1673099,2-28-9-W3
HAYRI,Braun Lake,Lake,56.1389729,-106.7811557,
HAKJQ,Bray Island,Island,57.1834523,-102.5170432,
HAKJR,Bray Lake,Lake,57.4501139,-109.3674634,
HAKJS,Brazier Lake,Lake,57.3834468,-109.4841341,
HASFN,Brazier Lake,Lake,57.3667811,-103.8171084,
HAKJT,Brebber Island,Island,55.0167312,-104.8171082,
HAKJU,Bredenbury,Town,50.9412528,-102.0440444,35-22-1-W2
HAPDL,Breed Creek,Creek,49.1000222,-107.4006198,10-2-11-W3
HAKJW,Breeze,Railway Point,49.3333623,-102.6837930,36-4-6-W2
HAKJX,Breland Lake,Lake,54.9334072,-107.0839419,
HAPDM,Bremen,Hamlet,52.3666993,-105.7005643,20-39-26-W2
HAKJY,Bremner Lake,Lake,59.7668963,-107.9675671,
HAKKA,Brennand Bay,Bay,56.4834217,-103.7504200,
HAKKB,Brennand Creek,Creek,50.2083328,-101.4338053,18-15-27-W
HARAY,Brenton Island,Island,56.5334327,-102.7837141,
HASMS,Brenton Lake,Lake,57.0667646,-107.5173262,
HAVQL,Bresaylor,Hamlet,52.9667440,-108.7673724,13-46-20-W3
HAKKD,Brett Creek,Creek,55.0167531,-109.6675008,69-25-W3
HAKKE,Brettell Lake,Lake,59.2835107,-103.4171965,
HAVEO,Brevoort Park,Urban Community,52.1100426,-106.6103322,
HAKKF,Brewer,Locality,50.9833358,-102.7004906,19-23-5-W2
HAOHS,Brewer Lake,Lake,55.4167541,-107.2173198,74-8-W3
HAQSC,Breynat Lake,Lake,59.8168526,-105.3840071,
HAKKG,Brian Lake,Lake,55.8167397,-104.8837894,
HAPQI,Briant Creek,Creek,55.7167710,-109.9675113,78-26-W3
HASUY,Briarlea,Locality,53.3000463,-106.0838560,50-1-W3
HATPV,Brice Lake,Lake,51.1500404,-104.2172120,25-16-W2
HAKKH,Bridge Creek,Creek,50.2500400,-108.4006981,15-18-W3
HAKKJ,Bridge Lake,Lake,52.7000655,-108.5006919,11-43-18-W3
HAKKI,Bridgeford,Hamlet,50.9333642,-106.4172842,7-23-3-W3
HAKKK,Bridgeman Lake,Lake,55.5500716,-104.7671128,
HAKKL,Briercrest,Village,50.1670378,-105.2655277,18-14-24-W2
HAPPF,Briere Lake,Lake,55.5834110,-106.7005810,76-5-W3
HAKKM,Briese Lake,Lake,55.8334045,-105.6671560,
HAAPQ,Brigadier-General Ross Lake,Lake,56.2667521,-103.5504075,
HAUPY,Briggs Lake,Lake,60.0001557,-109.9177202,
HAKKN,Briggs Lake,Lake,57.8834556,-104.6338281,
HAKKO,Brigham Bay,Bay,55.6834055,-105.6171485,
HAREY,Bright Lake,Lake,59.7669368,-106.1008263,
HAKKQ,Bright Sand,Locality,53.6834263,-108.9340541,20-54-20-W3
HAPDO,Brightholme,Locality,53.0333765,-106.4505571,47-4-W3
HAKKP,Brightmore,Railway Point,49.7666963,-104.0838848,26-9-16-W2
HAKKR,Brightsand Creek,Creek,53.5834249,-108.9340517,17-53-20-W3
HAKKS,Brightsand Lake,Lake,53.6000915,-108.8840489,53-20-W3
HAXDH,Brightsand Lake Regional Park,Regional Park,53.6542589,-108.8798830,54-20-W3
HAKKT,Brightwater Creek,Creek,51.9833758,-106.7339500,1-35-6-W3
HAKKU,Brightwater Lake,Lake,51.7833720,-106.5339484,32-4-W3
HAKKV,Brightwater Marsh,Marsh,51.7667051,-106.5339490,"32,33-4-W3"
HAKKW,Brightwater Reservoir,Reservoir,51.6000365,-106.5339517,30-4-W3
HAKKY,Brightwell Bay,Bay,59.6336993,-106.5843213,
HAKKZ,Brink Island,Island,57.6167980,-102.2503740,
HAQKY,Brink Lake,Lake,59.0501559,-104.7005979,
HAKLA,Brink Rapids,Rapids,59.0334891,-104.6839292,
HASIR,Brinsdon Lake,Lake,56.1334133,-104.1337627,
HAKLB,Brinson Point,Point,59.4169595,-108.1342530,
HAKRW,Brisbin,Railway Point,51.6667138,-107.6673291,31-12-W3
HAKLC,Brisbin Lake,Lake,55.9667406,-105.9005110,
HAKLD,Bristow Lake,Lake,56.8001173,-102.0836783,
HASYF,Britannia No. 502,Rural Municipality,53.5048628,-109.6975859,
HAWLF,Britannia Park,Industrial Park,50.3833607,-105.6172436,
HAPXE,Britnell Lake,Lake,55.0500612,-105.7004781,
HAKLE,Brittin Bay,Bay,56.1834128,-104.4337750,
HAKLF,Britts Lake,Lake,57.3834466,-109.5174690,
HARBW,Broach Lake,Lake,57.7167830,-109.3674732,
HAKLI,Broad Creek,Creek,54.8667540,-108.1840459,2-68-15-W3
HAKLG,Broadacres,Hamlet,52.0500619,-108.9840673,32-35-21-W3
HAKLH,Broadbent Lake,Lake,56.6500967,-108.3340468,
HAKLJ,Broadview,Town,50.3749722,-102.5772583,25-16-5-W2
HAWDO,Broadview Recreation Site,Recreation Site,50.3777252,-102.5300521,29-16-4-W2
HAKLK,Brochet Bay,Bay,59.3170094,-107.5843469,
HAKLL,Brochu Lake,Lake,55.9334090,-104.6171127,
HAKLM,Brock,Village,51.4415528,-108.7168692,35-28-20-W3
HAKLN,Brock Bay,Bay,54.8667328,-103.0170819,
HATLH,Brock No. 64,Rural Municipality,49.6822570,-102.6559440,
HAKLP,Brockbank Lake,Lake,57.9668071,-102.2003776,
HAKLQ,Brockelbank Hill,Hill,52.6166796,-101.7671269,"42-30,31-W"
HAWZD,Brockelbank Hill Protected Area,Protected Area,52.6382364,-101.7875552,
HAKLO,Brockington,Locality,53.1000179,-104.7004833,3-48-19-W2
HAPMD,Broderick,Village,51.4881083,-106.9178314,16-29-7-W3
HAKLR,Broderick Reservoir,Reservoir,51.4667059,-106.9339683,29-7-W3
HAUXN,Broders Annex,Urban Community,50.4436510,-104.5866587,
HAKLS,Broeder Lake,Lake,55.9500773,-104.2504312,
HAKLT,Broken Lake,Lake,54.2167242,-106.7005414,32-60-5-W3
HAKLU,Brokenshell Creek,Creek,49.7666980,-104.2005511,26-9-17-W2
HATLD,Brokenshell No. 68,Rural Municipality,49.6536338,-104.2422337,
HAWBR,Brokenshell Wildlife Management Unit No. 1,Wildlife Management Unit,49.7333662,-104.3505493,
HAWBS,Brokenshell Wildlife Management Unit No. 2,Wildlife Management Unit,49.3666979,-104.2171935,
HAKLV,Brokenshire Lake,Lake,58.2501444,-102.4337336,
HAKLW,Brome Coulee,Coulee,49.8166958,-108.5673751,18-10-19-W3
HAUQO,Bromhead,Hamlet,49.1833645,-103.6671592,3-3-13-W2
HAKLX,Broncho,Locality,49.4000256,-107.4173035,21-5-11-W3
HAWDP,Bronson Forest Recreation Site,Recreation Site,53.9263143,-109.5769266,"55-24,25-W3"
HAKLY,Bronson Lake,Lake,53.8667618,-109.7007706,56-25-W3
HAKMA,Brooking,Locality,49.5000331,-104.4172055,31-6-18-W2
HAKMB,Brooking Spring,Spring,50.3833662,-106.7006226,36-16-6-W3
HAKMC,Brooks Bay,Bay,55.6000723,-104.6004412,
HAKMD,Brooks Island,Island,55.1333998,-105.0504520,
HAKME,Brooks Lake,Lake,59.3836646,-105.9675719,
HAKMF,Brooksby,Hamlet,53.0000175,-104.3171423,30-46-16-W2
HAKMG,Brora,Locality,50.5833837,-104.6838940,3-19-20-W2
HAKMI,Brother Lakes,Lakes,54.3834040,-107.1005950,62-8-W3
HAKMJ,Brough,Railway Point,49.7166895,-103.5505305,10-9-12-W2
HAKMK,Brougham Creek,Creek,54.1500539,-103.0337735,60-7-W2
HAKML,Broughton Bay,Bay,58.4334803,-102.8837657,
HAKMM,Broughton Lake,Lake,53.4000806,-108.1006584,13-51-15-W3
HAKMO,Brown Bay,Bay,55.4167386,-104.3004259,
HAKMP,Brown Bay,Bay,55.6000797,-102.8670508,
HAPRS,Brown Bay,Bay,55.7667395,-106.0338451,
HASPF,Brown Bay,Bay,58.0501282,-104.4504928,
HAKMN,Brown Bay,Bay,53.7667099,-102.5671237,
HAYGQ,Brown Bay,Bay,59.1571184,-102.0546308,
HAKMQ,Brown Channel,Channel,57.6834636,-102.6170614,
HAOMK,Brown Channel,Channel,55.6167353,-106.4338609,
HAKMR,Brown Coulee,Coulee,53.0500805,-109.6674256,47-26-W3
HASBO,Brown Creek,Creek,56.2501113,-109.8008267,
HAQEK,Brown Creek,Creek,56.1834128,-104.4337750,
HAKMS,Brown Creek,Creek,56.7834418,-102.8503868,
HASSD,Brown Creek,Creek,58.6335921,-105.7341240,
HAKMU,Brown Falls,Falls,59.6169978,-106.4175948,
HAKMT,Brown Falls,Falls,56.3500849,-103.9004234,
HAKNN,Brown Hill Reservoir,Reservoir,50.3833520,-102.9505101,16-7-W2
HAOHJ,Brown Island,Island,55.3834066,-106.6672358,
HAKMW,Brown Island,Island,59.6836769,-106.4842841,
HASPG,Brown Islands,Islands,58.0834627,-104.4171587,
HAKMX,Brown Islands,Islands,57.3667870,-102.8503954,
HAKNA,Brown Lake,Lake,56.8167768,-102.8503866,
HAQEJ,Brown Lake,Lake,56.1834131,-104.3671056,
HARGK,Brown Lake,Lake,59.9502010,-103.7505931,
HAOZU,Brown Lake,Lake,56.0667753,-109.7508260,
HAYKD,Brown Lake,Lake,59.8215898,-103.0749994,
HAYGY,Brown Lake,Lake,59.1048940,-102.9254951,
HAKNB,Brown Lake,Lake,59.3335741,-108.9841447,
HAYKK,Brown Lake,Lake,59.0687804,-103.2718979,
HAKMY,Brown Lake,Lake,53.7500431,-102.5671241,55-4-W2
HARJZ,Brown Lake,Lake,59.5667923,-109.8342235,
HAYLT,Brown Lake,Lake,58.7837143,-107.1843695,
HASED,Brown Lake,Lake,57.2667710,-105.8839127,
HAKNC,Brown Narrows,Narrows,56.9334313,-103.6837637,
HAOHL,Brown Peninsula,Peninsula,55.4167432,-106.7172499,74-5-W3
HAKND,Brown Peninsula,Peninsula,55.5334124,-102.7837157,
HAYIQ,Brown Peninsula,Peninsula,59.3660079,-103.6441608,
HAKNH,Brown Point,Point,59.7500859,-109.1173319,
HAKNG,Brown Point,Point,57.4834583,-102.6170563,
HAKNE,Brown Point,Point,49.0667036,-103.0337917,33-1-8-W2
HAKNI,Brown Rapids,Rapids,55.5334068,-104.1004208,
HAKNJ,Brown River,River,57.8667947,-106.9673458,
HAKNK,Brownell Creek,Creek,54.9334024,-103.8670735,68-13-W2
HAKNL,Brownell Lake,Lake,55.0000701,-103.7504054,
HAKNM,Brownfield Lake,Lake,57.2834406,-106.6172868,
HAPNM,Browning,Hamlet,49.4500260,-102.6337988,4-6-5-W2
HATLX,Browning No. 34,Rural Municipality,49.3890716,-102.6503956,
HAKNO,Brownlee,Village,50.7394361,-106.0162139,36-20-1-W3
HAAPT,Brownlee Lake,Lake,49.8333510,-102.2171573,"20,21-10-4-W2"
HAKNP,Brownrigg Lake,Lake,56.5500879,-105.8505459,
HAKNQ,Browns Lake,Lake,51.4833640,-104.1338702,1-29-16-W2
HASRH,Bruce Lake,Lake,58.3001829,-106.7507487,
HAKNR,Bruce Lakes,Lakes,53.4000834,-108.2173338,51-15-W3
HAKNS,Bruck Lake,Lake,59.9668242,-109.6509673,
HARRW,Brudell Lake,Lake,58.1335004,-107.7841179,
HAKNT,Brunelle Lake,Lake,59.6836696,-107.3843398,
HAKNU,Brunning Lake,Lake,55.7667395,-105.9838410,
HAKRV,Bruno,Town,52.2654556,-105.5248083,16-38-25-W2
HATRL,Bruno Lake,Lake,52.6000255,-105.3505351,42-24-W2
HAVEP,Brunskill,Urban Community,52.1250434,-106.6428333,
HAKNV,Brunyee Coulee,Coulee,50.6333733,-108.0006829,19-15-W3
HAKNW,Brush Hill Lake,Lake,52.6167417,-109.9341020,22-42-28-W3
HASCS,Brustad Lake,Lake,57.4001031,-107.5506705,
HATUJ,Brustad River,River,57.2167679,-107.0673047,
HAKNX,Brutus Lake,Lake,54.6000616,-102.0170546,65-1-W2
HAKNY,Bryan Lake,Lake,55.8500758,-104.3337674,
HAYKE,Bryan Lake,Lake,59.8146452,-103.0472200,
HAKNZ,Bryans Lake,Lake,53.0167465,-109.3840768,47-23-W3
HAKOA,Bryans Lake,Lake,54.8333981,-102.9337529,67-7-W2
HAPNI,Bryant,Locality,49.3833620,-103.1004807,12-5-9-W2
HAKOB,Bryant Lake,Lake,56.5001107,-102.0336768,
HAUOP,Bryde Lake,Lake,59.9988222,-102.4171918,
HAQZS,Bryden Bay,Bay,56.6000948,-107.8673480,
HAKOC,Bryden Lake,Lake,58.7334912,-103.2671452,
HAKOD,Bryenton Lake,Lake,56.0500784,-104.1837634,
HAKOE,Bryer Island,Island,59.4336215,-108.1509168,
HAKOF,Bryksa Lake,Lake,59.4503082,-106.1008782,
HARAA,Brûlé Lake,Lake,56.6667578,-105.9338924,
HAKOH,Bubbling Creek,Creek,52.7666800,-102.5004745,10-44-4-W2
HAPME,Buccleugh,Railway Point,52.5000711,-109.3507392,2-41-24-W3
HAPAC,Buchan Lake,Lake,56.1834214,-107.1673008,
HAKOI,Buchanan,Village,51.7013511,-102.7539806,23-31-6-W2
HAKOK,Buchanan Lake,Lake,59.8335529,-107.9008865,
HAKOJ,Buchanan Lake,Lake,55.9667442,-104.0337570,
HAYRJ,Buchanan Mill Pond,Pond,51.6972139,-102.7574233,
HATCM,Buchanan No. 304,Rural Municipality,51.7372116,-102.6120362,
HAPWZ,Buchanan Peninsula,Peninsula,55.1000889,-107.3840065,"70,71-9,10-W3"
HAKOL,Buchner Lake,Lake,55.7167413,-104.2337622,
HAOMJ,Buck Island,Island,55.6834037,-106.3505259,
HAKOO,Buck Lake,Lake,53.3667149,-106.4338765,6-51-3-W3
HAKOP,Buck Lake,Lake,56.2334166,-103.8170846,
HAKON,Buck Lake,Lake,52.2833242,-102.7004773,38-5-W2
HAKOQ,Buckhorn Bay,Bay,51.8499959,-103.5171678,
HAPMF,Buckland,Locality,53.1833787,-105.9338494,32-48-27-W2
HASYN,Buckland No. 491,Rural Municipality,53.3031487,-105.8498591,
HAWBT,Buckland Wildlife Management Unit,Wildlife Management Unit,53.2333743,-105.7671738,
HAKOR,Buckmayer Lake,Lake,53.0666902,-102.9338072,47-7-W2
HAKOS,Budd Island,Island,53.8500478,-102.9504537,
HAOYU,Budd Lake,Lake,56.4334328,-102.6337070,
HAKOU,Budd Lake,Lake,55.0667330,-104.6504353,
HAKOT,Budd Lake,Lake,54.9667304,-106.7838900,69-6-W3
HAXVT,Budd's Point 20D,Indian Reserve,53.9873129,-102.1232131,5-58-1-W2
HAROH,Budds Bay,Bay,54.0000474,-102.1504199,
HAKOV,Budds Point,Point,53.9667136,-102.1837579,57-2-W2
HAOJN,Buena Vista,Village,50.7791500,-104.9437861,"13,14-21-22-2"
HAVEQ,Buena Vista,Urban Community,52.1111545,-106.6658899,
HAKOY,Buffalo Coulée,Coulée,51.9000623,-109.3840886,34-24-W3
HAKOZ,Buffalo Gap,Hamlet,49.1166940,-105.2672104,10-2-25-W2
HAPMG,Buffalo Horn,Locality,49.4833589,-107.5506501,21-6-12-W3
HAKPE,Buffalo Lake,Lake,51.7667013,-105.8672634,32-28-W2
HASIZ,Buffalo Narrows,Northern Village,55.8769833,-108.5243083,
HASZY,Buffalo No. 409,Rural Municipality,52.4971562,-108.4509126,
HAKPF,Buffalo Point,Point,53.6167158,-105.8671598,"35,36-53-27-W2"
HAKPG,Buffalo Pound Lake,Lake,50.6500331,-105.5005768,"19,20-25,26-W2"
HAWDQ,Buffalo Pound Lake Recreation Site,Recreation Site,50.7192538,-105.5957596,"19-25,26"
HAWCL,Buffalo Pound Provincial Park,Provincial Park,50.5871073,-105.3958437,19-25-W3
HAXEE,Buffalo Rubbing Stone Historic Site,Provincial Historic Site,51.4743866,-109.6228230,
HAKPB,Buffalohead Lake,Lake,53.5000419,-102.7338005,52-5-W2
HAKPI,Buffer Lake,Lake,52.3833688,-106.0005777,
HAKPJ,Bug Lake,Lake,54.3333886,-104.7004353,62-18-W2
HASOX,Bug Lake,Lake,53.9000755,-107.7339631,57-12-W3
HAXAQ,Bug Lake Recreation Site,Recreation Site,53.9098727,-107.7284359,
HAKPK,Bugg Lake,Lake,55.7334208,-108.0840363,10-78-14-W3
HAKPL,Buggs Lakes,Lakes,52.9500770,-108.7673725,46-20-W3
HAKPM,Buhl Creek,Creek,54.4333895,-106.7505378,
HAKPN,Buhl Lake,Lake,54.4333862,-106.5505201,63-4-W3
HAKPO,Bulbick Lake,Lake,55.3167375,-104.8671131,
HAKPP,Bull Creek,Creek,50.9833771,-108.0173538,22-23-15-W3
HAKPQ,Bull Creek,Creek,54.7334214,-108.2840511,25-66-16-W3
HAPDR,Bull Creek,Creek,49.7166948,-107.7006649,9-9-13-W3
HAKPR,Bull Lake,Lake,59.6501122,-109.1673219,
HAKPS,Buller Lake,Lake,56.5500942,-107.7673417,
HAQPV,Bullkin Lake,Lake,49.2500291,-105.0672060,3-23-W2
HAKPT,Bullrun Coulee,Coulee,49.3000282,-107.0172860,4-8-W3
HAQNE,Bulls Forehead,Hill,50.9167297,-109.8674676,31-22-28-W3
HAKPV,Bulmer Lake,Lake,59.9001643,-108.1508425,
HAKPW,Bulrush Lake,Lake,51.3667020,-105.4005868,28-25-W2
HATOB,Bultel Lake,Lake,51.6000350,-105.9005958,30-28-W2
HAKPX,Bulyea,Village,50.9864778,-104.8633250,27-23-21-W2
HABDK,Bulyea Lake,Lake,59.5337373,-107.2344227,
HAUCP,Bulyea River,River,59.3504178,-106.9177497,
HAQAJ,Bunn Island,Island,55.1667347,-104.6337686,
HAKQB,Bunn Lake,Lake,55.6500744,-104.0337537,
HAQUS,Burbidge Lake,Lake,56.7834250,-105.0838369,
HARHW,Burchnall Lake,Lake,59.8834803,-108.7341208,
HAKQC,Burdick,Railway Point,50.4000269,-105.4005687,4-17-25-W2
HAWUL,Burdick Range,Canadian Forces Range and/or Training Area (C.F.T.A.),50.4069716,-105.3833459,3-17-25-W2
HAKQD,Bures,Locality,49.6833669,-104.8672157,36-8-22-W2
HAKQF,Burgess Bay,Bay,55.6834055,-104.8171173,
HAKQG,Burgess Coulee,Coulee,49.8333633,-108.9673951,"19,20-10-22-W3"
HAKQH,Burgess Lake,Lake,49.8500163,-102.5504942,"10-4,5-W2"
HAOEW,Burgess Lakes,Lakes,55.3667359,-105.1671250,
HAKQI,Burgett Lake,Lake,59.5335084,-105.4340025,
HAKQJ,Burgis,Locality,51.5499926,-102.4504753,36-29-4-W2
HAXRJ,Burgis Beach,Organized Hamlet,51.5446583,-102.6229306,"26,26,34-29-5-W2"
HAKQK,Burke Creek,Creek,55.6834056,-104.7337808,
HAKQL,Burke Lake,Lake,55.9667392,-105.6838273,
HATVS,Burke Lake,Lake,52.1667079,-106.3005974,37-3-W3
HAKQM,Burkosky Lake,Lake,57.2001031,-106.2505966,
HARZZ,Burman Island,Island,57.9834635,-103.6337848,
HAKQN,Burn Bay,Bay,54.6833954,-102.8504223,
HARLJ,Burn Lake,Lake,59.7168648,-103.0338758,
HAKQP,Burn Lake,Lake,49.7166971,-105.4672268,9-26-W2
HAQUT,Burnard Island,Island,56.8500935,-105.3005309,
HARAE,Burnard Lake,Lake,56.6667538,-105.3005008,
HAVGY,Burness Lake,Lake,53.5167466,-108.0173217,52-14-W3
HAQJN,Burnett Lake,Lake,59.0335015,-102.3004644,
HAKQO,Burnett Lake,Lake,52.5666731,-104.3171638,36-41-17-W2
HASJB,Burnham,Locality,50.2500310,-107.4673250,16-15-11-W3
HAKRX,Burns Bay,Bay,58.8003473,-108.3676658,
HAKQQ,Burns Coulee,Coulee,49.9000296,-108.8340551,"8,17,20-11-21-W3"
HAKQR,Burns Island,Island,55.1500667,-105.0671195,
HAOGU,Burns Lake,Lake,55.5000686,-105.7338170,
HAKQT,Burns Lake,Lake,59.4168492,-108.7674393,
HAKQS,Burns Lake,Lake,54.2500543,-102.9504374,61-7-W2
HAKQU,Burnt Island,Island,54.8667517,-107.3173241,
HAKQV,Burnt Lake,Lake,56.2000835,-103.6170762,
HAKQW,Burntout Brook,Brook,53.1833635,-103.5838018,30-48-11-W2
HAKQY,Burntwood Bay,Bay,57.3167937,-102.0836836,
HAKQX,Burntwood Bay,Bay,54.1667186,-105.8004846,
HARYL,Burntwood River,River,53.8667169,-103.0837810,56-8-W2
HAKQZ,Burr,Hamlet,52.0500281,-105.1338942,31-35-22-W2
HAKRY,Burr Falls,Falls,59.1668228,-104.9839576,
HARAX,Burr Island,Island,59.1668228,-105.0172918,
HAKRA,Burrell Lake,Lake,55.5167342,-106.1005034,"75,76-1-W3"
HAPTI,Burrill Arm,Arm,55.9667545,-107.2006420,
HAKRB,Burrill Bay,Bay,58.7668256,-102.9504689,
HAKRC,Burrows,Hamlet,50.3166760,-102.1338216,31-15-1-W2
HASJA,Burstall,Town,50.6556306,-109.9093722,35-19-29-W3
HAKRD,Burt,Locality,50.4166942,-105.6672445,8-17-27-W2
HARNW,Burtlein Lake,Lake,54.2500564,-104.6337675,4-61-18-W2
HAKRE,Burton Island,Island,57.2667870,-102.5337123,
HAKRG,Burton Lake,Lake,54.5833933,-102.3504104,65-3-W2
HASHX,Burton Lake,Lake,52.2666923,-105.1172141,"17,18-38-22-W2"
HAWKI,Burton Lake,Locality,52.2666923,-105.1172141,
HAKRH,Burton Peninsula,Peninsula,55.2834033,-104.9171146,
HAKRI,Bush,Railway Point,52.4167315,-108.7340427,6-40-19-W3
HAKRJ,Bush Coulee,Coulee,49.7166934,-108.6673788,"5,9-9-20-W3"
HAKRN,Bush Lake,Lake,59.5835126,-108.6674630,
HAKRL,Bushell,Locality,59.5168696,-108.7507340,
HAKRM,Bushell Inlet,Inlet,59.5168696,-108.7507340,
HAPDT,Bushell Park,Locality,50.3333599,-105.5505745,"7,8-16-26-W2"
HAKRO,Bushy Lake,Lake,52.8500732,-108.8173751,3-45-20-W3
HAPRY,Buss Lake,Lake,55.8834064,-105.8838388,
HAKRP,Buss Lakes,Lakes,56.6667593,-103.9004310,
HAKRQ,Busteed Island,Island,54.9500673,-102.9170821,
HAKRR,Butler Bay,Bay,55.5167386,-104.5504373,
HAKRS,Butler Bay,Bay,56.8334474,-102.3170269,
HAKRT,Butler Creek,Creek,55.6500855,-106.9339562,77-6-W3
HAKRU,Butler Island,Island,56.6501060,-102.7170451,
HAQLM,Butler Lake,Lake,59.2170366,-106.0842992,
HAKRZ,Butte Creek,Creek,49.0166887,-106.7005918,12-1-6-W3
HAKSC,Butte-St-Pierre,Locality,53.4500887,-109.3674121,36-51-23-W3
HAKSA,Buttermilk Lakes,Lakes,49.7500314,-104.2005506,9-17-W2
HAKSB,Butterton,Locality,51.0333725,-104.7005631,15-24-20-W2
HAKSD,Buttress,Railway Point,50.2000279,-105.6339079,28-14-27-W2
HAKSE,Butula Lake,Lake,59.4836278,-106.0341902,
HAKSF,Buzik Lake,Lake,58.1168032,-108.4674673,
HAKSG,Buzzard,Locality,53.0167463,-109.8174336,1-47-27-W3
HAKSH,Buzzard Coulee,Coulee,52.9834127,-109.8507676,46-27-W3
HAKSI,Byers Bay,Bay,59.7335467,-108.4008584,
HAOLZ,Byers Bay,Bay,55.6334048,-105.2171308,
HAKSJ,Byklum Lake,Lake,54.6000625,-101.8837185,65-30-W
HAJZB,Bélanger,Locality,55.7834067,-106.2171942,78-2-W3
HAJZE,Bélanger River,River,55.7834067,-106.1838581,78-2-W3
HASUR,Bérubé Lake,Lake,53.4833845,-106.9505729,52-7-W3
HAWLK,CPR,Urban Community,50.4000265,-105.5505742,
HARXA,Cabana,Locality,54.0834215,-108.2506865,59-16-W3
HAQVS,Cabanel Bay,Bay,56.9167627,-107.7173359,
HAUHK,Cabin Bay,Bay,59.5168451,-108.9340101,
HAUHL,Cabin Creek,Creek,53.9333884,-106.7505429,57-6-W3
HAUHM,Cabin Lake,Lake,53.9167218,-106.7505436,57-5-W3
HAUHN,Cabin Point,Point,55.2000695,-104.4670956,
HAUHO,Cable Bay,Bay,57.3501040,-107.1173115,
HAUHP,Cable Lake,Lake,54.5833939,-102.0837235,"64,65-1-W2"
HAROD,Cable Point,Point,54.0000636,-107.2505796,58-9-W3
HAUHQ,Cabri,Town,50.6218778,-108.4633056,20-19-18-W3
HAUHR,Cabri Lake,Lake,51.1000589,-109.7341186,"24,25-27-W3"
HAWHN,Cabri Regional Park,Regional Park,50.6689302,-108.2659721,2-20-17-W3
HAUHS,Cache Lake,Lake,53.8334289,-109.5007591,"15,16-56-24-W3"
HAUHU,Cactus Bay,Bay,50.9666981,-106.9173016,
HAQMM,Cactus Lake,Locality,52.1140581,-109.8150693,29-36-27-W3
HAUHW,Cactus Lake,Lake,52.1334009,-109.8674387,"36,37-27,28-W3"
HAAPU,Cadillac,Village,49.7257056,-107.7385444,8-9-13-W3
HATSU,Cadot Lake,Lake,52.3000102,-104.4171833,29-38-17-W2
HAUHX,Cadotte Channel,Channel,53.9833831,-102.9004503,57-7-W2
HAUHY,Cadotte Rapids,Rapids,53.3167017,-104.1338021,50-15-W2
HAUHZ,Cairns Bay,Bay,56.7667613,-103.7337602,
HAUIA,Cairns Island,Island,59.5001838,-109.0006718,
HAUIB,Cairns Lake,Lake,55.4834043,-104.7837779,
HAUIC,Cairns Lake,Lake,57.6501262,-103.3170945,
HAPDU,Calder,Village,51.1575444,-101.7494111,"15,16-25-31-W"
HAUID,Calder Island,Island,56.4500839,-104.4837816,
HAPSL,Calder Lake,Lake,55.9500772,-104.1170929,
HAUIE,Calder Lake,Lake,56.9667838,-102.1336836,
HATEA,Calder No. 241,Rural Municipality,51.2573514,-101.7282745,
HAPWO,Calder River,River,55.0167525,-109.7508375,69-25-W3
HAUIF,Calder Springs,Springs,51.7000337,-105.3672471,5-32-24-W2
HAQMN,Calderbank,Hamlet,50.6166982,-106.8506305,23-19-7-W3
HAUIG,Caldron Lake,Lake,52.6667418,-109.6174184,36-42-26-W3
HAARN,Caldwell Bay,Bay,59.4502643,-108.3508342,
HATGK,Caldwell Lake,Lake,57.1001024,-103.5337595,
HAARQ,Caldwell Lake,Lake,54.8667233,-106.0171580,68-1-W3
HAPPJ,Caldwell Peninsula,Peninsula,55.7167468,-106.7172540,"77,78-5-W3"
HAARO,Caledon Lake,Lake,55.2334119,-101.9837248,
HATKJ,Caledonia No. 99,Rural Municipality,49.8901636,-104.7267857,
HATSI,Callaghan Island,Island,53.7333837,-105.9671631,
HAARP,Callaghan Lake,Lake,53.1667111,-106.3172113,48-3-W3
HAARR,Callaghan Lake,Lake,54.9000658,-102.7837514,68-6-W2
HAARS,Calley,Locality,51.2000004,-102.4004761,32-25-3-W2
HAART,Callin Lake,Lake,56.7667578,-104.5671298,
HAARU,Calvert Lake,Lake,59.0502246,-105.4340646,
HAARV,Cam Lake,Lake,54.0833903,-106.8005457,14-59-6-W3
HATMK,Cambria No. 6,Rural Municipality,49.1285278,-103.4269298,
HAARW,Camel Lake,Lake,59.6667948,-109.0006653,
HATUA,Cameo,Locality,53.2500473,-106.5338868,49-4-W3
HAYKL,Cameron Bay,Bay,59.1946207,-103.3110767,
HAARX,Cameron Bay,Bay,59.1335063,-102.0337946,
HAARY,Cameron Creek,Creek,52.4499981,-102.8004718,15-40-6-W2
HAASA,Cameron Falls,Falls,56.6834254,-103.5670845,
HAARZ,Cameron Falls,Falls,55.5500802,-102.6837146,
HAASB,Cameron Island,Island,56.8334468,-102.4337002,
HAASC,Cameron Island,Island,59.4502688,-108.2508701,
HBAFG,Cameron Lake,Lake,53.3202778,-106.8669444,
HAYJZ,Cameron Lake,Lake,59.8902005,-103.5150255,
HAASE,Cameron Lake,Lake,59.9168082,-108.8008053,
HAYGZ,Cameron Lake,Lake,59.0382253,-102.7338155,
HAYRM,Cameron Lake,Lake,56.1500926,-107.7840162,
HAASD,Cameron Lake,Lake,56.9501132,-102.6170440,
HAOJV,Camerons Slough,Slough,49.7166818,-102.3338205,
HAAXM,Camille Bay,Bay,59.2837458,-106.4677023,
HAXAR,Camp 10 Lake Recreation Site,Recreation Site,54.2574451,-105.9496865,
HATSB,Camp 5 Lake,Lake,53.5667168,-106.3505301,15-53-3-W3
HAASF,Camp Dundurn,Locality,51.8500401,-106.5672811,33-4-W3
HAVVZ,Camp Island,Island,55.1333994,-105.1337888,
HAASI,Camp Lake,Lake,51.5333676,-105.1339087,35-29-23-W2
HAASJ,Camp Lake,Lake,53.4333848,-107.0839155,27-51-8-W3
HAQLV,Camp Lake,Lake,53.4000486,-106.3672034,51-3-W3
HAASL,Camp Lake,Lake,53.7667201,-106.7005459,55-5-W3
HAASK,Camp Lake,Lake,53.6833837,-106.2338501,54-2-W3
HAASH,Camp Lake,Lake,49.8000155,-102.5338258,6-10-4-W2
HAASN,Campbell Bay,Bay,55.2500698,-104.6004348,
HAYJT,Campbell Bay,Bay,59.5390728,-103.5783353,
HAYGU,Campbell Bay,Bay,59.0805556,-102.2941667,
HASQD,Campbell Bay,Bay,58.2834670,-105.4339219,
HAASO,Campbell Bay,Bay,56.9834313,-103.6504304,
HAPXR,Campbell Channel,Channel,55.1667333,-105.1337892,
HASNU,Campbell Creek,Creek,57.1167666,-105.6172259,
HASLT,Campbell Island,Island,57.9001301,-107.2006960,
HAOGK,Campbell Island,Island,55.4500810,-102.4337227,
HAASQ,Campbell Island,Island,53.5833821,-105.8338249,
HAASP,Campbell Island,Island,53.0167046,-105.6838556,
HAASR,Campbell Islands,Islands,56.9834316,-103.6670977,
HAYKM,Campbell Lake,Lake,59.8626973,-103.9694862,
HAYKA,Campbell Lake,Lake,59.8626973,-103.9694862,
HAAUY,Campbell Lake,Lake,59.1170080,-108.1677215,
HAASS,Campbell Lake,Lake,55.7667381,-105.5004794,
HASXP,Campbell Lake,Lake,58.8668277,-103.9005208,
HASVE,Campbell Lake,Lake,53.3667080,-104.3004665,4-51-16-W2
HASTH,Campbell Marsh,Marsh,53.1333762,-105.8505182,"24,25-47-27-W2"
HAASU,Campbell Narrows,Narrows,56.9834316,-103.6670977,
HAASV,Campbell Peninsula,Peninsula,55.8500845,-106.9506194,
HAASW,Campbell Point,Point,59.3004355,-106.6677402,
HAASX,Campbell Rapids,Rapids,55.8500725,-105.1004650,
HAASY,Campbell River,River,57.2667764,-103.2837505,
HAASZ,Camsell Point,Point,59.5667929,-109.2339879,
HABXE,Camsell Portage,Northern Settlement,59.6108278,-109.2707972,
HAATA,Camsell Portage,Portage,59.6167847,-109.2173178,
HABQC,Cana,Hamlet,50.8833365,-102.6504902,9-22-5-W2
HABQE,Cana Junction,Railway Point,50.9166693,-102.7838272,28-22-6-W2
HATES,Cana No. 214,Rural Municipality,50.9509646,-102.6159566,
HATEH,Canaan No. 225,Rural Municipality,50.8576408,-107.0565258,
HAAAN,Canadian Forces Base Moose Jaw,Canadian Forces Base,50.3461377,-105.5547417,"5,7,8,17,18-16-26-W2"
HAWRA,Canadian Forces Station Flin Flon,Canadian Forces Station,54.7236775,-101.9795566,66-30-W1; 66-1-W2
HABXF,Candiac,Organized Hamlet,50.2114833,-103.2591000,35-14-10-W2
HAUSN,Candle Lake,Resort Village,53.7853011,-105.2570583,18-55-22-W2
HABQF,Candle Lake,Lake,53.8333835,-105.3004665,
HAXDQ,Candle Lake Provincial Park,Provincial Park,53.8267726,-105.2593480,
HABQG,Cando,Hamlet,52.3833920,-108.2340170,22-39-16-W3
HABQI,Cann Lake,Lake,55.3834092,-103.0337239,
HABQH,Cann Lake,Lake,49.8000119,-102.4171623,12-10-4-W2
HAWJO,Cannington Lake,Organized Hamlet,49.7827167,-102.1603722,36-9-2-W2
HAOQF,Cannington Lake,Lake,49.7666845,-102.1671533,
HAXDR,Cannington Manor Provincial Park,Provincial Park,49.7307777,-102.0584046,
HABQJ,Canoe Creek,Creek,55.2667521,-108.3507170,72-16-W3
HAPWS,Canoe Lake,Lake,55.1667525,-108.2507130,
HAXVJ,Canoe Lake 165,Indian Reserve,55.1236220,-108.1960802,"70,71-14,15-W3"
HAXVH,Canoe Lake 165A,Indian Reserve,55.1562398,-108.3959757,"15,21-71-16-W3"
HAXVI,Canoe Lake 165B,Indian Reserve,55.1807274,-108.1113772,29-71-14-W3
HAXAS,Canoe Lake Recreation Site,Recreation Site,55.1680107,-108.3569848,
HABQK,Canoe Narrows,Locality,55.1667527,-108.1507082,71-14-W3
HAPWU,Canoe River,Locality,55.2334186,-108.1673743,72-14-W3
HABQL,Canoe River,River,55.3834187,-107.9340285,74-13-W3
HAPEA,Canopus,Hamlet,49.2000280,-106.2005845,9-3-2-W3
HABQM,Canora,Town,51.6363750,-102.4310056,
HABQN,Cantal,Hamlet,49.4333510,-101.9337908,36-5-34-W
HAAVJ,Cantara Bay,Bay,59.1170366,-108.8510460,
HAUAH,Cantara Lake,Lake,59.1170683,-108.9510793,
HAPEB,Cantuar,Hamlet,50.3833689,-108.0006815,28-16-15-W3
HASVO,Cantyre,Locality,53.3667015,-101.8504503,36-50-31-W
HAPMO,Canuck,Hamlet,49.2000165,-108.2173444,10-3-17-W3
HABQO,Canwood,Village,53.3585583,-106.6007156,36-50-5-W3
HASYL,Canwood No. 494,Rural Municipality,53.4571564,-106.8297611,
HAWCS,Canwood Provincial Forest,Provincial Forest,53.3167146,-106.5172166,
HASUP,Canwood Regional Park,Regional Park,53.3611597,-106.5422167,50-4-W3
HABQP,Canyon Lakes,Lakes,54.3000550,-104.7504378,61-19-W2
HATIK,Capasin,Locality,53.6000604,-107.3839336,53-10-W3
HABQQ,Caplette Islands,Islands,52.9667429,-108.6340304,
HAPED,Capraru Lake,Lake,59.9001652,-108.4341817,
HARFA,Carcoux Lake,Lake,59.9169214,-107.1675558,
HAOQS,Cardell,Railway Point,49.9333720,-109.3174137,23-11-25-W3
HABQR,Cardinal Lake,Lake,54.8667233,-106.0338252,
HABQT,Cardross,Hamlet,49.8166960,-105.6172330,16-10-27-W2
HATGV,Careen Lake,Lake,57.0001033,-108.1840463,
HABQU,Carefoot Lakes,Lakes,57.7834623,-103.4171021,
HABQV,Carey Island,Island,54.8834011,-103.2337405,
HABQW,Carey Lake,Lake,55.0334003,-104.5504309,
HARNF,Caribou Creek,Creek,54.0500573,-104.6337692,29-58-18-W2
HAWLG,Caribou Heights,Urban Community,50.4000271,-105.5839086,
HABQY,Caribou Lake,Lake,55.3834051,-104.8337788,
HABQZ,Caribou Rapids,Rapids,58.9501648,-102.0837839,
HABRA,Carievale,Village,49.1734721,-101.6255777,31-2-31-W
HABRB,Carl Creek,Creek,54.5334264,-108.6340748,15-64-18-W3
HABRC,Carlea,Hamlet,53.1500281,-103.9004632,19-48-13-W2
HABRD,Carleton Island,Island,58.0501448,-102.0170347,
HAUPT,Carley Lake,Lake,60.0001427,-109.1341579,
HABRE,Carlisle Coulee,Coulee,49.0166963,-104.8005250,"1-21,22-W2"
HAQQF,Carlisle Lake,Lake,54.7334008,-101.8503867,66-29-W
HARZN,Carlson Creek,Creek,57.7834525,-104.7838329,
HABWJ,Carlson Lake,Lake,57.0334390,-108.5674050,
HAQMO,Carlton,Hamlet,52.8333741,-106.5005692,27-44-4-W3
HABRG,Carlton Lake,Lake,55.0167573,-109.1174690,69-21-W3
HAWHO,Carlton Trail Regional Park,Regional Park,50.6791655,-101.7004657,34-19-31-W1
HABRI,Carlyle,Town,49.6353911,-102.2663556,7-8-2-W2
HABRM,Carlyle Lake,Lake,55.8334073,-104.6671142,
HABRK,Carlyle Lake Resort,Hamlet,49.7500160,-102.2671547,
HAQMP,Carmel,Hamlet,52.2333623,-105.3505581,34-37-24-W2
HABRP,Carmen Lake,Lake,52.6667141,-106.6672560,4-43-5-W3
HABRQ,Carmichael,Village,50.0441611,-108.6499306,34-12-20-W3
HATJZ,Carmichael No. 109,Rural Municipality,49.9373921,-108.6535834,
HABWK,Carmody Island,Island,53.4167540,-109.5507568,
HAOSI,Carnagh,Locality,49.7833617,-108.9340595,33-9-22-W3
HABWL,Carnduff,Town,49.1749250,-101.7973306,35-2-33-W
HABWM,Carney Lake,Lake,59.5335329,-108.6674348,
HABWO,Carol Lake,Lake,56.5500945,-107.8006775,
HABXC,Caron,Organized Hamlet,50.4586778,-105.8731111,25-17-29-W2
HABWP,Caron Ditch,Ditch,50.6333662,-106.1672689,
HATFP,Caron No. 162,Rural Municipality,50.4550080,-105.8807262,
HABXD,Caronport,Village,50.4588306,-105.8167342,29-17-28-W2
HAUCC,Carp River,River,59.2669640,-105.7341820,
HABWQ,Carpenter,Locality,52.5833676,-105.9172307,1-42-28-W2
HABWR,Carpenter Island,Island,54.6833972,-102.1003938,
HASNA,Carpenter Lake,Lake,57.2334340,-107.3506539,
HAQHN,Carps Lake,Lake,52.4666682,-103.8838255,40-14-W2
HABWS,Carr Island,Island,55.4167398,-104.0670860,
HABWT,Carr Lake,Lake,54.9334045,-102.0670632,69-1-w2
HABWU,Carragana,Hamlet,52.5833330,-103.1004730,33-41-8-W2
HABWV,Carragher Lake,Lake,55.0167329,-106.8005642,69-6-W3
HABWW,Carriere Lake,Lake,56.8001087,-102.8837217,
HABWX,Carroll Lake,Lake,55.1167373,-103.9337443,
HAYPB,Carroll Lake,Lake,59.1473970,-102.6282645,
HABWY,Carrot Lake,Lake,53.7000436,-101.9171015,54-31-W
HABWZ,Carrot River,Town,53.2817028,-103.5856397,5-50-11-W2
HASVT,Carrot River,River,53.7542121,-101.7712609,56-26-W
HAXUM,Carrot River 29A,Indian Reserve,53.4949613,-102.8758999,"52-6,7-W2"
HAQMS,Carruthers,Hamlet,52.8667435,-109.2674007,10-45-23-W3
HABXB,Carruthers Lake,Lake,53.5667157,-105.9671681,7-53-27-W2
