CGNDB ID,Geographical Name,Language,Syllabic Form,Generic Term,Generic Category,Concise Code,Toponymic Feature ID,Latitude,Longitude,Location,Province - Territory,Relevance at Scale,Decision Date,Source
HAWAI,106-Narrow Lake-120 Road Corridor Game Preserve,Undetermined,,Game Preserve,Administrative Area,PARK,0c329ac2849c20c3036479d6684c7340,54.2833894,-104.6337670,,Saskatchewan,1000000,1985-05-29,"Saskatchewan-Ministry of Parks, Culture and Sport"
HABPD,56 Trail,Undetermined,,Trail,Constructed Feature,ROAD,0c284fd2849c20c3b6a52643f1a4fec0,53.8667198,-106.4338594,"56-3,4-W3",Saskatchewan,250000,1974-05-14,"Saskatchewan-Ministry of Parks, Culture and Sport"
HABJD,Aadland Lake,Undetermined,,Lake,Water Feature,LAKE,0c282f6a849c20c394c3f04fa13e683c,59.4168647,-108.7174374,,Saskatchewan,50000,1950-06-02,"Saskatchewan-Ministry of Parks, Culture and Sport"
HAYKF,Aastrom Lake,Undetermined,,Lake,Water Feature,LAKE,0fdc65dc849c20c3ad25a7134fe22b03,59.8063145,-102.7283178,,Saskatchewan,50000,2002-10-29,"Saskatchewan-Ministry of Parks, Culture and Sport"
HABJF,Abbey,Undetermined,,Village,Populated Place,VILG,0cfe44ba849c20c3fc724fabc8309129,50.7366361,-108.7575833,31-20-20-W3,Saskatchewan,1000000,1947-03-13,"Saskatchewan-Ministry of Parks, Culture and Sport"
HABJE,Abbott,Undetermined,,Railway Point,Populated Place,UNP,0c282f2b849c20c3de37bb1c29ae2456,49.5833668,-104.4005434,21-7-18-W2,Saskatchewan,250000,1950-03-02,"Saskatchewan-Ministry of Parks, Culture and Sport"
HAOSK,Abbott Creek,Undetermined,,Creek,Water Feature,RIV,547a0e4ec6cd11d892e2080020a0f4c9,50.0333867,-109.9674555,31-12-29-W3,Saskatchewan,250000,1967-03-10,"Saskatchewan-Ministry of Parks, Culture and Sport"
HABJG,Abbott Island,Undetermined,,Island,Terrain Feature,ISL,0c282faa849c20c376e5e143d2f553ad,56.7834464,-102.4337001,,Saskatchewan,250000,1960-04-07,"Saskatchewan-Ministry of Parks, Culture and Sport"
HABJH,Abbott Lake,Undetermined,,Lake,Water Feature,LAKE,0c283027849c20c3a2a814fae871ce30,54.7667299,-102.4670833,67-4-W2,Saskatchewan,250000,1952-02-06,"Saskatchewan-Ministry of Parks, Culture and Sport"
HABID,Abel Lake,Undetermined,,Lake,Water Feature,LAKE,0c28297f849c20c3802d95de1f04b2ff,54.4667425,-107.2172826,"63-8,9-W3",Saskatchewan,250000,1957-09-05,"Saskatchewan-Ministry of Parks, Culture and Sport"
HABKQ,Aberdeen,Undetermined,,Town,Populated Place,TOWN,47d2eb50c6cd11d892e2080020a0f4c9,52.3255360,-106.2915110,6-39-2-W3,Saskatchewan,1000000,1988-11-01,"Saskatchewan-Ministry of Parks, Culture and Sport"
HATAV,Aberdeen No. 373,Undetermined,,Rural Municipality,Administrative Area,MUN2,0c318f43849c20c378882f5b36d6cd94,52.4293846,-106.2930613,,Saskatchewan,50000,1980-04-01,"Saskatchewan-Ministry of Parks, Culture and Sport"
HABIF,Aberfeldy,Undetermined,,Railway Point,Populated Place,UNP,0cfe42f8849c20c3eddb4af0fcb0a884,53.2500805,-109.8841140,28-49-27-W3,Saskatchewan,50000,1939-12-12,"Saskatchewan-Ministry of Parks, Culture and Sport"
HABKP,Abernethy,Undetermined,,Village,Populated Place,VILG,0cfe466f849c20c3dfa6a406acf2e316,50.7445278,-103.4181631,25-20-11-W2,Saskatchewan,1000000,1950-05-04,"Saskatchewan-Ministry of Parks, Culture and Sport"
HATFC,Abernethy No. 186,Undetermined,,Rural Municipality,Administrative Area,MUN2,0c31a9a6849c20c383281e5faae4eb65,50.6390735,-103.4851593,,Saskatchewan,50000,1980-04-01,"Saskatchewan-Ministry of Parks, Culture and Sport"
HABIE,Abitau Bay,Undetermined,,Bay,Water Feature,BAY,0c282925849c20c368d129d31b0c1336,55.7000892,-107.7673547,,Saskatchewan,250000,1931-08-04,"Saskatchewan-Ministry of Parks, Culture and Sport"
HABIG,Abitau Bay,Undetermined,,Bay,Water Feature,BAY,0c2829c1849c20c30efb6938871cfc98,59.8500992,-109.0340301,,Saskatchewan,250000,1935-03-05,"Saskatchewan-Ministry of Parks, Culture and Sport"
HATZR,Abitau River,"Cree, Woods",,River,Water Feature,RIV,69b094c4ba3611d892e2080020a0f4c9,59.8834390,-109.0507186,,Saskatchewan,5000000,1944-11-28,"Saskatchewan-Ministry of Parks, Culture and Sport"
HABIH,Abound,Undetermined,,Railway Point,Populated Place,UNP,0cfe4410849c20c32b6eb07f1ca5b53d,50.3166946,-105.7672478,34-15-28-W2,Saskatchewan,250000,1951-10-04,"Saskatchewan-Ministry of Parks, Culture and Sport"
HASDE,Abraham Bay,Undetermined,,Bay,Water Feature,BAY,0cff2568849c20c3fcc7c7fcd3501178,57.4667735,-107.0506458,,Saskatchewan,250000,1938-03-01,"Saskatchewan-Ministry of Parks, Culture and Sport"
HABII,Abram Island,Undetermined,,Island,Terrain Feature,ISL,0c282a1d849c20c3cbe11a11ca88695f,55.3834047,-104.4004284,,Saskatchewan,250000,1950-02-03,"Saskatchewan-Ministry of Parks, Culture and Sport"
HABIJ,Abrams Bay,Undetermined,,Bay,Water Feature,BAY,0c282aaa849c20c379406bd91bb43721,55.0333982,-104.8171082,,Saskatchewan,250000,1952-03-06,"Saskatchewan-Ministry of Parks, Culture and Sport"
HABIK,Abrey Lake,Undetermined,,Lake,Water Feature,LAKE,0c282a68849c20c3adbbf290b9627595,52.5500738,-109.8174282,21-41-27-W3,Saskatchewan,250000,1939-12-12,"Saskatchewan-Ministry of Parks, Culture and Sport"
HABIL,Acaster Lake,Undetermined,,Lake,Water Feature,LAKE,0c282b27849c20c3553fd042d2cf93bf,55.9001059,-109.8508332,80-25-W3,Saskatchewan,250000,1951-09-06,"Saskatchewan-Ministry of Parks, Culture and Sport"
HABIN,Ace Creek,Undetermined,,Creek,Water Feature,RIV,0c282bc4849c20c3b9071eba6e47d334,59.5502342,-108.4674837,,Saskatchewan,50000,1950-06-02,"Saskatchewan-Ministry of Parks, Culture and Sport"
HABIM,Ace Lake,Undetermined,,Lake,Water Feature,LAKE,0c282ae9849c20c3c768051e0c2a94c1,59.5669012,-108.4508239,,Saskatchewan,250000,1955-09-01,"Saskatchewan-Ministry of Parks, Culture and Sport"
HARPC,Acheninni Lake,Undetermined,,Lake,Water Feature,LAKE,0c30cc74849c20c333a60247d7143fb7,54.5000595,-103.0004242,"63,64-7-W2",Saskatchewan,1000000,1933-04-18,"Saskatchewan-Ministry of Parks, Culture and Sport"
HABIO,Achimoo Lake,Undetermined,,Lake,Water Feature,LAKE,0c282b65849c20c354d60c97f20c2b69,59.2503889,-106.2343313,,Saskatchewan,250000,1951-02-07,"Saskatchewan-Ministry of Parks, Culture and Sport"
HABIP,Acorn Lake,Undetermined,,Lake,Water Feature,LAKE,0c282c41849c20c38805e042873d626a,55.7834065,-105.9505057,,Saskatchewan,50000,1961-04-05,"Saskatchewan-Ministry of Parks, Culture and Sport"
HATQD,Acton Lake,Undetermined,,Lake,Water Feature,LAKE,0c31e382849c20c33d1005d30524f233,52.9167331,-107.8673090,45-13-W3,Saskatchewan,250000,1934-12-04,"Saskatchewan-Ministry of Parks, Culture and Sport"
HABIQ,Acton Lake,Undetermined,,Lake,Water Feature,LAKE,0c282c03849c20c36959309f2a2ead6a,59.3001600,-104.9339615,,Saskatchewan,250000,1951-05-03,"Saskatchewan-Ministry of Parks, Culture and Sport"
HABIR,Ada,Undetermined,,Locality,Populated Place,UNP,0c282c94849c20c3c7e5aa17a84c251e,50.0666964,-106.1339257,6-13-1-W3,Saskatchewan,250000,1956-11-02,"Saskatchewan-Ministry of Parks, Culture and Sport"
HABIT,Adair Bay,Undetermined,,Bay,Water Feature,BAY,0c282d52849c20c3e93713640d1cc597,59.4170027,-107.7510236,,Saskatchewan,250000,1951-02-07,"Saskatchewan-Ministry of Parks, Culture and Sport"
HABIU,Adair Creek,Undetermined,,Creek,Water Feature,RIV,0c282cec849c20c3607d542971336a09,50.5333539,-103.2171820,18-18-9-W2,Saskatchewan,250000,1950-05-04,"Saskatchewan-Ministry of Parks, Culture and Sport"
HABIV,Adair Lake,Undetermined,,Lake,Water Feature,LAKE,0c282dea849c20c3517091a3cd73ed4e,59.4002001,-108.8340903,,Saskatchewan,50000,1954-04-01,"Saskatchewan-Ministry of Parks, Culture and Sport"
HABJB,Adam Lake,Undetermined,,Lake,Water Feature,LAKE,0c282eec849c20c3ff41a42290f53e09,56.4334141,-105.3171534,,Saskatchewan,250000,1960-08-04,"Saskatchewan-Ministry of Parks, Culture and Sport"
HBAXE,Adam Wood Memorial Landing,Undetermined,,Landing,Populated Place,UNP,0b1341cc514f4fd5a42157745329d560,56.4850000,-109.3861111,,Saskatchewan,50000,2017-07-04,"Saskatchewan-Ministry of Parks, Culture and Sport"
HAQML,Adams,Undetermined,,Railway Point,Populated Place,UNP,0c305571849c20c3069c1e134aa3f6c5,50.4667067,-104.8672228,30-17-21-W2,Saskatchewan,250000,1951-05-04,"Saskatchewan-Ministry of Parks, Culture and Sport"
HABIW,Adams Bay,Undetermined,,Bay,Water Feature,BAY,0c282d93849c20c3377e22a59cae763b,55.8500902,-107.7840207,,Saskatchewan,250000,1931-08-04,"Saskatchewan-Ministry of Parks, Culture and Sport"
HAUWI,Adams Creek,Undetermined,,Creek,Water Feature,RIV,0fdaca29849c20c3e5b3e0a43bc08969,49.4833597,-109.8340911,21-6-29-W3,Saskatchewan,250000,1954-09-02,"Saskatchewan-Ministry of Parks, Culture and Sport"
HABIX,Adams Creek,Undetermined,,Creek,Water Feature,RIV,0c282e2d849c20c3f7d1655ac34b91c8,53.9000535,-103.2504377,57-9-W2,Saskatchewan,250000,1952-01-17,"Saskatchewan-Ministry of Parks, Culture and Sport"
HABIZ,Adams Island,Undetermined,,Island,Terrain Feature,ISL,0c282ead849c20c3b5dd28255d536a1e,52.6667324,-108.1673408,,Saskatchewan,250000,1963-08-09,"Saskatchewan-Ministry of Parks, Culture and Sport"
HABJA,Adams Island,Undetermined,,Island,Terrain Feature,ISL,0c282e6e849c20c3ee47f1480ff265c7,57.3334551,-102.5503810,,Saskatchewan,250000,1957-06-06,"Saskatchewan-Ministry of Parks, Culture and Sport"
HAONT,Adams Lake,Undetermined,,Lake,Water Feature,LAKE,0c2f9e9d849c20c375c358d61911b39c,49.6500350,-109.8340953,8-29-W3,Saskatchewan,250000,1954-09-02,"Saskatchewan-Ministry of Parks, Culture and Sport"
HABJI,Adams Lake,Undetermined,,Lake,Water Feature,LAKE,0c282fe9849c20c3107a86e49296f030,51.0666655,-102.1671378,11-24-2-W2,Saskatchewan,50000,1950-05-04,"Saskatchewan-Ministry of Parks, Culture and Sport"
HAQED,Adams Lake,Undetermined,,Lake,Water Feature,LAKE,0fdac81f849c20c3926b775cc5a08f95,56.1000780,-104.5671124,,Saskatchewan,250000,1966-01-19,"Saskatchewan-Ministry of Parks, Culture and Sport"
HABJJ,Adams Peninsula,Undetermined,,Peninsula,Terrain Feature,CAPE,0c2830a6849c20c3081ddd7897b1c7c4,57.6334478,-106.1339461,,Saskatchewan,250000,1961-07-26,"Saskatchewan-Ministry of Parks, Culture and Sport"
HABJK,Adams River,Undetermined,,River,Water Feature,RIV,0c283066849c20c3afb8a6ff9a9a5de2,59.6835699,-108.3508674,,Saskatchewan,50000,1957-09-05,"Saskatchewan-Ministry of Parks, Culture and Sport"
HABJL,Adamson Bay,Undetermined,,Bay,Water Feature,BAY,0c283127849c20c3b04cb70355015083,55.0667324,-104.7837739,,Saskatchewan,50000,1952-03-06,"Saskatchewan-Ministry of Parks, Culture and Sport"
HABJM,Adamson Lake,Undetermined,,Lake,Water Feature,LAKE,0c2830e7849c20c3e3f387dec4c87f61,52.9500396,-106.0172086,45-1-W3,Saskatchewan,250000,1935-01-10,"Saskatchewan-Ministry of Parks, Culture and Sport"
HAQMK,Adanac,Undetermined,,Hamlet,Populated Place,UNP,f0bf47fdd05311d892e2080020a0f4c9,52.4528462,-109.0562791,23-40-22-W3,Saskatchewan,250000,2001-02-06,"Saskatchewan-Ministry of Parks, Culture and Sport"
HABJN,Addie Lake,Undetermined,,Lake,Water Feature,LAKE,0c2831a6849c20c3306cce6f68acab4c,59.7003118,-106.3008955,,Saskatchewan,250000,1956-09-06,"Saskatchewan-Ministry of Parks, Culture and Sport"
HAABJ,Adelaide Park,Undetermined,,Urban Community,Populated Place,UNP,0c27c1bc849c20c39e33d742c19d5c92,52.0928207,-106.6417227,,Saskatchewan,50000,1984-08-20,"Saskatchewan-Ministry of Parks, Culture and Sport"
HABJO,Adilman Lake,Undetermined,,Lake,Water Feature,LAKE,0c283167849c20c39de94716ab6b5422,55.3167377,-104.3837602,,Saskatchewan,50000,1950-02-03,"Saskatchewan-Ministry of Parks, Culture and Sport"
HABJQ,Admiral,Undetermined,,Hamlet,Populated Place,HAM,0cfe44fc849c20c3df2f5ac467559151,49.7166946,-108.0173469,5-9-15-W3,Saskatchewan,1000000,1954-09-02,"Saskatchewan-Ministry of Parks, Culture and Sport"
HAOQB,Adolet Lake,Undetermined,,Lake,Water Feature,LAKE,0c2fa666849c20c3531d3ef54020d40d,49.8500316,-105.3005585,23-10-25-W2,Saskatchewan,250000,1952-03-06,"Saskatchewan-Ministry of Parks, Culture and Sport"
HABJR,Adrian Lake,Undetermined,,Lake,Water Feature,LAKE,0c283225849c20c30649d78a4ad0872c,49.7000226,-102.8671555,34-8-7-W2,Saskatchewan,250000,1960-03-03,"Saskatchewan-Ministry of Parks, Culture and Sport"
HASMP,Agar Lake,Undetermined,,Lake,Water Feature,LAKE,0c3145b6849c20c392037982eb58a308,57.3001134,-109.3674609,,Saskatchewan,250000,1944-12-09,"Saskatchewan-Ministry of Parks, Culture and Sport"
HAOQA,Agnellice Lake,Undetermined,,Lake,Water Feature,LAKE,0cfeeaef849c20c3b83cc5d2b2097c17,49.9166975,-105.4672302,22-11-26-W2,Saskatchewan,250000,1952-03-06,"Saskatchewan-Ministry of Parks, Culture and Sport"
HABKA,Agnew Bay,Undetermined,,Bay,Water Feature,BAY,0c283320849c20c302a69a5f4822083c,54.7333963,-102.8337544,,Saskatchewan,250000,1951-01-17,"Saskatchewan-Ministry of Parks, Culture and Sport"
HABKB,Agumik Creek,Undetermined,,Creek,Water Feature,RIV,0c28339c849c20c31aa6a363da2b6afb,55.4000791,-106.8005979,,Saskatchewan,250000,1951-08-02,"Saskatchewan-Ministry of Parks, Culture and Sport"
HABKC,Agumik Lake,Undetermined,,Lake,Water Feature,LAKE,0c28335e849c20c39ef853de56815469,55.4500824,-106.8839476,"74,75-6-W3",Saskatchewan,250000,1931-08-04,"Saskatchewan-Ministry of Parks, Culture and Sport"
HABKD,Ahasew Lake,Undetermined,,Lake,Water Feature,LAKE,0c28341d849c20c3482ee9de64a83881,55.7334082,-104.1670932,,Saskatchewan,250000,1957-10-03,"Saskatchewan-Ministry of Parks, Culture and Sport"
HASPY,Ahenakew Lake,Undetermined,,Lake,Water Feature,LAKE,0c315d77849c20c3dbec9887225ec15d,58.0334615,-103.9171325,,Saskatchewan,250000,1956-08-02,"Saskatchewan-Ministry of Parks, Culture and Sport"
HABJW,Ahrens Lake,Undetermined,,Lake,Water Feature,LAKE,0c2832a1849c20c330b9d34d3cb7665a,52.5334051,-109.3840741,"21,22-41-24-W3",Saskatchewan,250000,1939-12-12,"Saskatchewan-Ministry of Parks, Culture and Sport"
HABKE,Ahrens Lake,Undetermined,,Lake,Water Feature,LAKE,0c2833db849c20c3926664e78b54da00,54.8333996,-102.2837401,57-2-W2,Saskatchewan,250000,1952-02-06,"Saskatchewan-Ministry of Parks, Culture and Sport"
HAXWE,Ahtahkakoop 104,Undetermined,,Indian Reserve,Administrative Area,IR,f13d02e7bbe211d892e2080020a0f4c9,53.3855688,-106.9011993,"50,51-6,7-W3",Saskatchewan,50000,1986-11-07,Indigenous and Northern Affairs Canada
HAOFJ,Aikenhead Lakes,Undetermined,,Lakes,Water Feature,LAKE,0c2f7c24849c20c359bf93d76cf3cf4f,55.3167371,-104.9337824,,Saskatchewan,250000,1968-09-24,"Saskatchewan-Ministry of Parks, Culture and Sport"
HABJV,Aikins,Undetermined,,Railway Point,Populated Place,UNP,0c2832df849c20c3de4186e6d2e0090b,50.3333655,-107.7006678,10-16-13-W3,Saskatchewan,50000,1956-04-05,"Saskatchewan-Ministry of Parks, Culture and Sport"
HABJT,Aiktow Creek,Undetermined,,Creek,Water Feature,RIV,0c283264849c20c38a1b7fc87b0fd213,50.9666975,-106.4672866,22-23-4-W3,Saskatchewan,250000,1956-11-02,"Saskatchewan-Ministry of Parks, Culture and Sport"
HAPYB,Air Ronge,Undetermined,,Northern Village,Populated Place,VILG,55860028c6cd11d892e2080020a0f4c9,55.0897360,-105.3414670,,Saskatchewan,250000,1985-05-29,"Saskatchewan-Ministry of Parks, Culture and Sport"
HABJX,Airriess Lake,Undetermined,,Lake,Water Feature,LAKE,0cfe453e849c20c3a00e044fbcdd7d26,55.6334026,-106.3005198,"76,77-2-W3",Saskatchewan,250000,1951-06-07,"Saskatchewan-Ministry of Parks, Culture and Sport"
HAPAM,Airway Lake,Undetermined,,Lake,Water Feature,LAKE,0c2fc03a849c20c35099827f3d3ab25e,56.0500853,-106.9839524,,Saskatchewan,250000,1938-02-01,"Saskatchewan-Ministry of Parks, Culture and Sport"
HABKF,Aitkenhead Lake,Undetermined,,Lake,Water Feature,LAKE,0c28349c849c20c3aac263e99c3e4897,59.6335802,-105.8007799,,Saskatchewan,250000,1960-07-07,"Saskatchewan-Ministry of Parks, Culture and Sport"
HABKG,Ajawaan Lake,Undetermined,,Lake,Water Feature,LAKE,0c28345b849c20c3513f01b7ca43a66b,54.1500554,-106.4671928,59-4-W3,Saskatchewan,250000,1932-01-05,"Saskatchewan-Ministry of Parks, Culture and Sport"
HABKH,Akerlund Lake,Undetermined,,Lake,Water Feature,LAKE,0c28351c849c20c37546570e77884d32,52.5000710,-109.2840692,"40,41-23-W3",Saskatchewan,250000,1939-12-12,"Saskatchewan-Ministry of Parks, Culture and Sport"
HAQCR,Akimau Creek,Undetermined,,Creek,Water Feature,RIV,0c301e54849c20c3431ad26756367b62,55.9667569,-108.1673728,,Saskatchewan,250000,1932-05-03,"Saskatchewan-Ministry of Parks, Culture and Sport"
HAQCS,Akimau Island,Undetermined,,Island,Terrain Feature,ISL,0c301e13849c20c3bd4511437f1ba2f2,55.9834235,-108.2007074,,Saskatchewan,250000,1932-05-03,"Saskatchewan-Ministry of Parks, Culture and Sport"
HABKI,Akiskoo Lake,Undetermined,,Lake,Water Feature,LAKE,0c2834dc849c20c3c1bf7dffb260062d,59.7335565,-108.0675676,,Saskatchewan,50000,1955-02-02,"Saskatchewan-Ministry of Parks, Culture and Sport"
HABKJ,Akoohum Bay,Undetermined,,Bay,Water Feature,BAY,0c28355b849c20c36e33e69653c687c6,55.6000740,-104.0170858,,Saskatchewan,50000,1957-10-03,"Saskatchewan-Ministry of Parks, Culture and Sport"
HABKK,Akosane,Undetermined,,Railway Point,Populated Place,UNP,0cfe43cf849c20c32c7495205cc13f6d,52.7333452,-102.4838070,26-43-4-W2,Saskatchewan,50000,1940-04-23,"Saskatchewan-Ministry of Parks, Culture and Sport"
HABKM,Akut Lake,Undetermined,,Lake,Water Feature,LAKE,0c283599849c20c39e48990e00b2968d,59.7335478,-108.2508845,,Saskatchewan,50000,1955-02-02,"Saskatchewan-Ministry of Parks, Culture and Sport"
HAPNP,Alameda,Undetermined,,Town,Populated Place,TOWN,0c2fd78b849c20c3f22927743be390e7,49.2681464,-102.2870583,1-4-3-W2,Saskatchewan,1000000,1952-02-06,"Saskatchewan-Ministry of Parks, Culture and Sport"
HABKO,Albatross,Undetermined,,Locality,Populated Place,UNP,0cfe45b2849c20c36d802d51afcfc382,50.5333904,-104.6672297,23-18-20-W2,Saskatchewan,250000,1952-10-02,"Saskatchewan-Ministry of Parks, Culture and Sport"
HAVEM,Albert,Undetermined,,Urban Community,Populated Place,UNP,0c326b8f849c20c38431dad7bb94cf6e,52.1178212,-106.6447780,,Saskatchewan,50000,1984-08-20,"Saskatchewan-Ministry of Parks, Culture and Sport"
HABKR,Albert Lake,Undetermined,,Lake,Water Feature,LAKE,0c2835d7849c20c3785b8d259dc58f7b,52.4667386,-109.5507494,29-40-25-W3,Saskatchewan,50000,1965-05-31,"Saskatchewan-Ministry of Parks, Culture and Sport"
HAOXN,Albert Lake,Undetermined,,Lake,Water Feature,LAKE,0c2fb09b849c20c37c3e818dfb8b0698,56.4167482,-104.7504571,,Saskatchewan,250000,1937-01-28,"Saskatchewan-Ministry of Parks, Culture and Sport"
HAUXI,Albert Park,Undetermined,,Urban Community,Populated Place,UNP,0c325a7d849c20c37ff4005887ffd8a1,50.4072618,-104.6311052,,Saskatchewan,50000,1984-02-20,"Saskatchewan-Ministry of Parks, Culture and Sport"
HAUXJ,Albert Park South,Undetermined,,Urban Community,Populated Place,UNP,0c325b7a849c20c3c3df4ff1e3b50f8c,50.4014285,-104.6311055,,Saskatchewan,50000,1984-02-20,"Saskatchewan-Ministry of Parks, Culture and Sport"
HABKT,Alberts Lake,Undetermined,,Lake,Water Feature,LAKE,0c283615849c20c38f531bbe3aee25c4,54.9000847,-109.4841546,68-23-W3,Saskatchewan,1000000,1952-07-03,"Saskatchewan-Ministry of Parks, Culture and Sport"
HABKU,Albertville,Undetermined,,Village,Populated Place,VILG,ee396034d05311d892e2080020a0f4c9,53.3944528,-105.5382639,"12,13-51-25-W2; 7,18-51-24-W2",Saskatchewan,1000000,1986-01-13,"Saskatchewan-Ministry of Parks, Culture and Sport"
HABKW,Albrecht Lake,Undetermined,,Lake,Water Feature,LAKE,0c283655849c20c309203f92408e30ce,59.6168543,-103.6338984,,Saskatchewan,250000,1958-06-05,"Saskatchewan-Ministry of Parks, Culture and Sport"
HABKX,Alces Lake,Undetermined,,Lake,Water Feature,LAKE,0c283692849c20c35ae5364cf55d830d,59.6835751,-108.0342530,,Saskatchewan,250000,1940-04-23,"Saskatchewan-Ministry of Parks, Culture and Sport"
HABJS,Alcott Creek,Undetermined,,Creek,Water Feature,RIV,0c2831e5849c20c3a350e7acb9e9b658,54.0334162,-107.9506547,,Saskatchewan,250000,1932-01-05,"Saskatchewan-Ministry of Parks, Culture and Sport"
HABKZ,Alder Lake,Undetermined,,Lake,Water Feature,LAKE,0c2836d2849c20c3199f0e2d64f3a64f,54.8000665,-102.1837345,67-2-W2,Saskatchewan,250000,1952-02-06,"Saskatchewan-Ministry of Parks, Culture and Sport"
HABLB,Aldina,Undetermined,,Locality,Populated Place,UNP,0c28374f849c20c3ead904fddeca9414,53.0000479,-106.8839098,,Saskatchewan,1000000,1967-02-06,"Saskatchewan-Ministry of Parks, Culture and Sport"
HABLC,Aldridge Lake,Undetermined,,Lake,Water Feature,LAKE,0c283712849c20c3c159b1fe2c671d9b,59.5835095,-105.5173406,,Saskatchewan,50000,1960-03-03,"Saskatchewan-Ministry of Parks, Culture and Sport"
HABLD,Aletter Lake,Undetermined,,Lake,Water Feature,LAKE,0c2837cc849c20c30209305c63109f60,52.5834072,-109.6340862,35-41-26-W3,Saskatchewan,250000,1939-12-12,"Saskatchewan-Ministry of Parks, Culture and Sport"
HABLE,Alexander Bay,Undetermined,,Bay,Water Feature,BAY,0c28378d849c20c34a16bf1d5297d24f,55.4667398,-104.1170872,,Saskatchewan,50000,1954-06-03,"Saskatchewan-Ministry of Parks, Culture and Sport"
HABLF,Alexander Island,Undetermined,,Island,Terrain Feature,ISL,0d0aeb8b849c20c31036cc9e3ddff63d,55.4167330,-105.9838294,,Saskatchewan,250000,1958-06-05,"Saskatchewan-Ministry of Parks, Culture and Sport"
HATFZ,Alexander Lake,Undetermined,,Lake,Water Feature,LAKE,0c31ae7c849c20c331615127db18ff2d,57.1834365,-104.6338117,,Saskatchewan,250000,1964-02-27,"Saskatchewan-Ministry of Parks, Culture and Sport"
HABLH,Alexandra Lake,Undetermined,,Lake,Water Feature,LAKE,0c283849849c20c323b8887c9b55f1dc,50.9166976,-105.7005853,"22,23-27-W2",Saskatchewan,250000,1954-07-08,"Saskatchewan-Ministry of Parks, Culture and Sport"
HABLG,Alexandra Lake,Undetermined,,Lake,Water Feature,LAKE,0c28380a849c20c3663d428fb12e9fd7,52.4667382,-109.4840795,26-40-25-W3,Saskatchewan,250000,1939-12-12,"Saskatchewan-Ministry of Parks, Culture and Sport"
HABLJ,Alfred Bay,Undetermined,,Bay,Water Feature,BAY,0c2838c8849c20c3f8a6c884cb75d2ad,55.7500897,-107.7506866,,Saskatchewan,250000,1931-08-04,"Saskatchewan-Ministry of Parks, Culture and Sport"
HABLK,Algae Lake,Undetermined,,Lake,Water Feature,LAKE,0c283889849c20c3913ca4ab2460b692,56.1000826,-103.5337387,,Saskatchewan,250000,1967-07-10,"Saskatchewan-Ministry of Parks, Culture and Sport"
HABLL,Algol Lake,Undetermined,,Lake,Water Feature,LAKE,0c283947849c20c33b73187f6502c704,52.4834052,-109.5007467,2-41-25-W3,Saskatchewan,250000,1939-12-12,"Saskatchewan-Ministry of Parks, Culture and Sport"
HABLM,Algold Bay,Undetermined,,Bay,Water Feature,BAY,0c283907849c20c3e681a515799adbc8,59.2837746,-106.6177437,,Saskatchewan,250000,1951-02-07,"Saskatchewan-Ministry of Parks, Culture and Sport"
HAQHL,Algrove,Undetermined,,Hamlet,Populated Place,UNP,0c3039a1849c20c36d05c088ea5d1e75,52.4833347,-103.8838244,40-14-W2,Saskatchewan,250000,1963-05-14,"Saskatchewan-Ministry of Parks, Culture and Sport"
HAVHG,Alice Beach,Undetermined,,Resort Village,Populated Place,VILG,0c327997849c20c33e20e5e371a4d7ce,50.9276306,-105.1659306,"22,23-23-W2",Saskatchewan,250000,1983-07-01,"Saskatchewan-Ministry of Parks, Culture and Sport"
HABLN,Alida,Undetermined,,Village,Populated Place,VILG,0cfe46f4849c20c36c5e6042a373c133,49.3890056,-101.8742889,16-5-33-W,Saskatchewan,1000000,1955-01-20,"Saskatchewan-Ministry of Parks, Culture and Sport"
HABLO,Alida Lake,Undetermined,,Lake,Water Feature,LAKE,0c283985849c20c350e46a385e2091fc,52.8000756,-109.2674002,"21,22-44-23-W3",Saskatchewan,250000,1939-12-12,"Saskatchewan-Ministry of Parks, Culture and Sport"
HABLP,Alioth Lake,Undetermined,,Lake,Water Feature,LAKE,0c283a03849c20c3524586eb713ca0e3,52.5167392,-109.5507489,5-41-25-W3,Saskatchewan,250000,1939-12-12,"Saskatchewan-Ministry of Parks, Culture and Sport"
HABMH,Alkali Creek,Undetermined,,Creek,Water Feature,RIV,0c283db0849c20c361ef9bd2624d0a3c,50.9833926,-109.6841166,27-23-27-W3,Saskatchewan,1000000,1967-01-19,"Saskatchewan-Ministry of Parks, Culture and Sport"
HABLQ,Alkali Lake,Undetermined,,Lake,Water Feature,LAKE,0c2839c4849c20c35a52ef284c93ca20,49.8166785,-102.4004960,"7,18-10-3-W2",Saskatchewan,50000,1960-03-03,"Saskatchewan-Ministry of Parks, Culture and Sport"
HAUQP,Alkali Lake,Undetermined,,Lake,Water Feature,LAKE,0c3236b3849c20c396695441228799f3,49.0000310,-104.3005042,2-1-18-W2,Saskatchewan,250000,1952-03-06,"Saskatchewan-Ministry of Parks, Culture and Sport"
HABLR,Alkali Lakes,Undetermined,,Lakes,Water Feature,LAKE,0c283a81849c20c3f77cf4a25ea595fc,50.5666993,-107.0339718,18-8-W3,Saskatchewan,250000,1963-08-27,"Saskatchewan-Ministry of Parks, Culture and Sport"
HABLS,Allan,Undetermined,,Town,Populated Place,TOWN,0c283a43849c20c3ef407f09ca5f32b9,51.8958806,-106.0603667,34-1-W3,Saskatchewan,1000000,1956-09-06,"Saskatchewan-Ministry of Parks, Culture and Sport"
HAQMI,Allan Hills,Undetermined,,Locality,Populated Place,UNP,0c305530849c20c3a5efc91bfc30fc77,51.6500344,-106.0839343,16-31-1-W3,Saskatchewan,250000,1956-11-02,"Saskatchewan-Ministry of Parks, Culture and Sport"
HABLT,Allan Hills,Undetermined,,Hills,Terrain Feature,MTN,0c283afe849c20c32d32ecf5c3723c35,51.6667014,-106.2506067,,Saskatchewan,250000,1962-10-01,"Saskatchewan-Ministry of Parks, Culture and Sport"
HAQCO,Allan Island,Undetermined,,Island,Terrain Feature,ISL,0c301d43849c20c33d7b295c24806a3c,55.8500876,-108.3340505,,Saskatchewan,250000,1949-12-01,"Saskatchewan-Ministry of Parks, Culture and Sport"
HABLU,Allan Island,Undetermined,,Island,Terrain Feature,ISL,0c283abf849c20c31c71f9864a2e8f42,50.9500628,-109.8674676,,Saskatchewan,250000,1964-02-12,"Saskatchewan-Ministry of Parks, Culture and Sport"
HABLV,Allan Lake,Undetermined,,Lake,Water Feature,LAKE,0c283b3d849c20c37c3876e3f37f96bb,55.9500728,-105.3671443,,Saskatchewan,250000,1947-11-04,"Saskatchewan-Ministry of Parks, Culture and Sport"
HABLW,Allan Rapids,Undetermined,,Rapids,Water Feature,RAP,0cfe47c3849c20c35abba3dda286c6cf,57.8834524,-107.7840541,,Saskatchewan,50000,1958-04-03,"Saskatchewan-Ministry of Parks, Culture and Sport"
HABLX,Allansmith River,Undetermined,,River,Water Feature,RIV,0c283bb9849c20c3da27573760508bf2,59.8835002,-108.4841736,,Saskatchewan,250000,1950-06-02,"Saskatchewan-Ministry of Parks, Culture and Sport"
HAPRK,Allcock Lake,Undetermined,,Lake,Water Feature,LAKE,0c2fe711849c20c34a9eb4ba918f7749,55.8334126,-106.6505806,79-5-W3,Saskatchewan,250000,1963-02-07,"Saskatchewan-Ministry of Parks, Culture and Sport"
HAYKG,Allen Bay,Undetermined,,Bay,Water Feature,BAY,0fdc661e849c20c37845440ac1cbbcc5,59.8535361,-102.9311066,,Saskatchewan,50000,2002-10-29,"Saskatchewan-Ministry of Parks, Culture and Sport"
HABLY,Allen Bay,Undetermined,,Bay,Water Feature,BAY,0c283b7b849c20c32c85a1b41291e7a6,55.6167390,-104.6337760,,Saskatchewan,50000,1957-10-03,"Saskatchewan-Ministry of Parks, Culture and Sport"
HABLZ,Allen Island,Undetermined,,Island,Terrain Feature,ISL,0c283c35849c20c36b30315b40e3ee17,57.0667821,-102.5170400,,Saskatchewan,250000,1936-07-15,"Saskatchewan-Ministry of Parks, Culture and Sport"
HASFV,Allen Lake,Undetermined,,Lake,Water Feature,LAKE,0c311bf7849c20c36fe4a2f8003457ba,57.3834480,-103.4837622,,Saskatchewan,250000,1967-06-22,"Saskatchewan-Ministry of Parks, Culture and Sport"
HAYKH,Allen Lake,Undetermined,,Lake,Water Feature,LAKE,0fdc665f849c20c36ac86b10ecf73b18,59.9140992,-102.2263463,,Saskatchewan,50000,2002-10-29,"Saskatchewan-Ministry of Parks, Culture and Sport"
HAQGS,Allen Lake,Undetermined,,Lake,Water Feature,LAKE,0c30367b849c20c3acc9754803632bc6,52.5333410,-102.0337974,41-1-W2,Saskatchewan,250000,1952-01-17,"Saskatchewan-Ministry of Parks, Culture and Sport"
HAROP,Allen Peninsula,Undetermined,,Peninsula,Terrain Feature,CAPE,0c30c9cf849c20c358c7662592f31fc8,54.7333963,-102.8337544,,Saskatchewan,50000,1968-03-06,"Saskatchewan-Ministry of Parks, Culture and Sport"
HABMA,Allen Rapids,Undetermined,,Rapids,Water Feature,RAP,0c283bf7849c20c3df8bf73c037b2f9f,59.6670247,-106.5843104,,Saskatchewan,50000,1958-08-07,"Saskatchewan-Ministry of Parks, Culture and Sport"
HARDG,Alley Lake,Undetermined,,Lake,Water Feature,LAKE,0c3094cf849c20c3667cf3abfae42763,59.9001926,-104.7506417,,Saskatchewan,250000,1935-01-10,"Saskatchewan-Ministry of Parks, Culture and Sport"
HABMI,Allin Creek,Undetermined,,Creek,Water Feature,RIV,0c283d71849c20c36428c91cb81ca1f1,50.7500296,-106.7339604,2-21-6-W3,Saskatchewan,50000,1966-12-01,"Saskatchewan-Ministry of Parks, Culture and Sport"
HAXSI,Allnutt Lake,Undetermined,,Lake,Water Feature,LAKE,52ce58a1ba3411d892e2080020a0f4c9,58.9709988,-102.0310048,,Saskatchewan,250000,2000-11-30,"Saskatchewan-Ministry of Parks, Culture and Sport"
HATTY,Alloa Lake,Undetermined,,Lake,Water Feature,LAKE,0c31f800849c20c3fe4a69447672a761,53.2500490,-107.0172460,30-49-7-W3,Saskatchewan,250000,1956-10-04,"Saskatchewan-Ministry of Parks, Culture and Sport"
HAUQQ,Alma Lake,Undetermined,,Lake,Water Feature,LAKE,0cff4b05849c20c30c06894facc58fd4,49.2000315,-104.2671819,8-3-17-W2,Saskatchewan,250000,1956-08-02,"Saskatchewan-Ministry of Parks, Culture and Sport"
HABMB,Alpat Lake,Undetermined,,Lake,Water Feature,LAKE,0c283c76849c20c382b4943559fa23b2,56.0000776,-104.3337686,,Saskatchewan,250000,1949-11-03,"Saskatchewan-Ministry of Parks, Culture and Sport"
HASNL,Alpine Bay,Undetermined,,Bay,Water Feature,BAY,0c314c4c849c20c388af88d39ca7ac63,57.2167670,-107.4839957,,Saskatchewan,50000,1964-08-26,"Saskatchewan-Ministry of Parks, Culture and Sport"
HABMD,Alpine Lake,Undetermined,,Lake,Water Feature,LAKE,0c283cb5849c20c334bbc8952484bc87,52.5667397,-109.4840790,35-41-25-W3,Saskatchewan,250000,1939-12-12,"Saskatchewan-Ministry of Parks, Culture and Sport"
HABME,Alsask,Undetermined,,Hamlet,Populated Place,UNP,0cfe485c849c20c3293a39de4e28f5d6,51.3797220,-109.9970110,10-28-29-W3,Saskatchewan,1000000,2009-06-29,"Saskatchewan-Ministry of Parks, Culture and Sport"
HABMF,Alsask Lake,Undetermined,,Lake,Water Feature,LAKE,0c283d33849c20c3cbd123cce3dacb8f,51.3333940,-109.8674546,27-28-W3,Saskatchewan,250000,1968-10-28,"Saskatchewan-Ministry of Parks, Culture and Sport"
HABMG,Alsmith Lake,Undetermined,,Lake,Water Feature,LAKE,0c283cf4849c20c34f731e1293be35bf,54.9500691,-103.8504067,"69-12,13-W2",Saskatchewan,250000,1933-04-18,"Saskatchewan-Ministry of Parks, Culture and Sport"
HABMJ,Alstead Lake,Undetermined,,Lake,Water Feature,LAKE,0c283e3a849c20c3a26adadc51d8a799,55.6334233,-107.3840004,"76,77-9,10-W3",Saskatchewan,1000000,1931-08-04,"Saskatchewan-Ministry of Parks, Culture and Sport"
HABMK,Alstead River,Undetermined,,River,Water Feature,RIV,0c283dfb849c20c3bc3f2f02a608bb5a,55.8334242,-107.4340014,79-10-W3,Saskatchewan,1000000,1931-08-04,"Saskatchewan-Ministry of Parks, Culture and Sport"
HAWJL,Alta Vista,Undetermined,,Organized Hamlet,Populated Place,HAM,0c32b09f849c20c345f2903b8a22fd29,50.8031750,-104.9675939,22-21-22-W2,Saskatchewan,250000,1985-05-29,"Saskatchewan-Ministry of Parks, Culture and Sport"
HABML,Altair Lake,Undetermined,,Lake,Water Feature,LAKE,0c283eb6849c20c39764f45b3c2a9b7a,52.6334073,-109.4840786,24-42-25-W3,Saskatchewan,250000,1939-12-12,"Saskatchewan-Ministry of Parks, Culture and Sport"
HAURW,Altawan,Undetermined,,Railway Point,Populated Place,UNP,0c323c21849c20c3cc799bb0b3c58410,49.2333470,-109.9340919,23-3-30-W3,Saskatchewan,50000,1954-09-02,"Saskatchewan-Ministry of Parks, Culture and Sport"
HAQHW,Alterson Lake,Undetermined,,Lake,Water Feature,LAKE,0c303c55849c20c300902ab62f5cce9d,52.3499945,-102.9671440,39-7-W2,Saskatchewan,250000,1952-01-17,"Saskatchewan-Ministry of Parks, Culture and Sport"
HABMM,Althouse Lake,Undetermined,,Lake,Water Feature,LAKE,0c283e78849c20c3873060b4aa2fbcab,55.5167373,-104.8337807,,Saskatchewan,50000,1964-08-26,"Saskatchewan-Ministry of Parks, Culture and Sport"
HABMN,Alticane,Undetermined,,Hamlet,Populated Place,UNP,0c283ef9849c20c3a2dabb97a7779d67,52.9000604,-107.4839507,26-45-11-W3,Saskatchewan,250000,1964-11-10,"Saskatchewan-Ministry of Parks, Culture and Sport"
HASUN,Alton Lake,Undetermined,,Lake,Water Feature,LAKE,0c317479849c20c3b2031f4c7b12855f,53.2667157,-106.9505759,33-49-7-W3,Saskatchewan,250000,1956-10-04,"Saskatchewan-Ministry of Parks, Culture and Sport"
HABMO,Alvena,Undetermined,,Village,Populated Place,VILG,0cfe493e849c20c3085203e0569cb4a0,52.5184058,-106.0192642,12-41-1-W3,Saskatchewan,250000,1948-10-07,"Saskatchewan-Ministry of Parks, Culture and Sport"
HABMP,Amak Lake,Undetermined,,Lake,Water Feature,LAKE,0c283f78849c20c353b576b5814ee95b,55.6500743,-104.0670883,,Saskatchewan,50000,1957-10-03,"Saskatchewan-Ministry of Parks, Culture and Sport"
HATNT,Amazon,Undetermined,,Hamlet,Populated Place,UNP,26be0723c6ce11d892e2080020a0f4c9,51.5500350,-105.4505900,9-30-25-W2,Saskatchewan,250000,1985-05-29,"Saskatchewan-Ministry of Parks, Culture and Sport"
HATNV,Ambassador,Undetermined,,Railway Point,Populated Place,UNP,0c31d715849c20c3a60fcb38e60f9143,51.5667006,-105.0172366,15-30-22-W2,Saskatchewan,50000,1956-08-02,"Saskatchewan-Ministry of Parks, Culture and Sport"
HASNP,American Lake,Undetermined,,Lake,Water Feature,LAKE,0c314d49849c20c3d8a13a278223363a,57.2001043,-106.7006206,,Saskatchewan,250000,1938-03-01,"Saskatchewan-Ministry of Parks, Culture and Sport"
HASDL,American River,Undetermined,,River,Water Feature,RIV,0c3108be849c20c3bc539847a01bfe8a,57.3167744,-106.5672849,,Saskatchewan,250000,1938-03-01,"Saskatchewan-Ministry of Parks, Culture and Sport"
HASUF,Amiens,Undetermined,,Locality,Populated Place,UNP,0c3172f1849c20c3c7261faec2b8e1ae,53.3167232,-107.2505963,50-9-W3,Saskatchewan,250000,1956-10-04,"Saskatchewan-Ministry of Parks, Culture and Sport"
HABMQ,Amisk Lake,Cree,,Lake,Water Feature,LAKE,0c283f39849c20c3d36dc371cf6dc00d,54.5833938,-102.2504017,,Saskatchewan,5000000,1933-04-18,"Saskatchewan-Ministry of Parks, Culture and Sport"
HAXVN,Amisk Lake 184,Undetermined,,Indian Reserve,Administrative Area,IR,f0c1df66bbe211d892e2080020a0f4c9,54.5817685,-102.4150064,"33,34,35-64,65-3-W2",Saskatchewan,50000,1972-06-01,Indigenous and Northern Affairs Canada
HAXDC,Amisk Lake Recreation Site,Undetermined,,Recreation Site,Administrative Area,PARK,0cf4f1f0849c20c348bf6896e2736f83,54.6230810,-102.1001283,,Saskatchewan,1000000,,"Saskatchewan-Ministry of Parks, Culture and Sport"
HABMR,Amiskit Island,Undetermined,,Island,Terrain Feature,ISL,0c283fb7849c20c348473e115a2d9876,56.8667805,-102.4503680,,Saskatchewan,250000,1932-07-06,"Saskatchewan-Ministry of Parks, Culture and Sport"
HBADX,Amiskosakahikan 210,Undetermined,,Indian Reserve,Administrative Area,IR,223685568de7479e90e2adee733a6ab6,54.4449040,-102.1446770,,Saskatchewan,50000,2010-07-07,Indigenous and Northern Affairs Canada
HASOK,Amiskowan Lake,Undetermined,,Lake,Water Feature,LAKE,0c31528f849c20c39cce59a0bea18b63,53.9000514,-106.1338370,57-1-W3,Saskatchewan,250000,1929-03-05,"Saskatchewan-Ministry of Parks, Culture and Sport"
HABMS,Amsterdam,Undetermined,,Organized Hamlet,Populated Place,HAM,1e097b80c6ce11d892e2080020a0f4c9,51.7478050,-102.4589830,14-32-4-W2,Saskatchewan,250000,1985-05-29,"Saskatchewan-Ministry of Parks, Culture and Sport"
HABMT,Amuchewaspimewin Cliff,Undetermined,,Cliff,Terrain Feature,CLF,0c284038849c20c3d04f36dc6c40d953,55.4334047,-104.5504350,,Saskatchewan,50000,1961-06-07,"Saskatchewan-Ministry of Parks, Culture and Sport"
HAQMH,Amulet,Undetermined,,Hamlet,Populated Place,UNP,25733783c6ce11d892e2080020a0f4c9,49.6167010,-104.7505460,2-8-21-W2,Saskatchewan,250000,1985-05-29,"Saskatchewan-Ministry of Parks, Culture and Sport"
HABMU,Amundson Lake,Undetermined,,Lake,Water Feature,LAKE,0c283ff4849c20c35948e3f486e93cce,55.2000652,-105.4171346,,Saskatchewan,50000,1958-06-05,"Saskatchewan-Ministry of Parks, Culture and Sport"
HABMV,Amy Lake,Undetermined,,Lake,Water Feature,LAKE,0c2840b8849c20c37c26b5ce85872b0e,54.8167332,-102.2170699,67-2-W2,Saskatchewan,50000,1952-02-06,"Saskatchewan-Ministry of Parks, Culture and Sport"
HABMW,Amyot Lake,Undetermined,,Lake,Water Feature,LAKE,0c284078849c20c3a7c16cad14befd8c,55.2667525,-107.8673608,"72,73-13-W3",Saskatchewan,250000,1931-11-03,"Saskatchewan-Ministry of Parks, Culture and Sport"
HAEEM,Amyot Lake,Undetermined,,Lake,Water Feature,LAKE,0c29d380849c20c38a7a58882977535a,53.7000524,-106.6338771,54-5-W3,Saskatchewan,1000000,1929-03-05,"Saskatchewan-Ministry of Parks, Culture and Sport"
HAYOX,Anaka Lake,Undetermined,,Lake,Water Feature,LAKE,bba94e1938d311d99af1080020a0f4c9,59.2071208,-102.9143897,,Saskatchewan,50000,2004-11-02,"Saskatchewan-Ministry of Parks, Culture and Sport"
HABMX,Anaka Lake,Undetermined,,Lake,Water Feature,LAKE,0c2841c6849c20c309f2bc4d3b5e912d,55.8167397,-104.9171238,,Saskatchewan,50000,1959-03-05,"Saskatchewan-Ministry of Parks, Culture and Sport"
HATNQ,Ancrum,Undetermined,,Locality,Populated Place,UNP,0cff3eb0849c20c3991a3807099745c4,51.8667007,-105.7839277,33-27-W2,Saskatchewan,50000,1956-08-02,"Saskatchewan-Ministry of Parks, Culture and Sport"
HAYKJ,Anderson Bay,Undetermined,,Bay,Water Feature,BAY,0fdc66e1849c20c38fed5dd525a2d3c7,59.0979491,-103.0560557,,Saskatchewan,50000,2002-10-29,"Saskatchewan-Ministry of Parks, Culture and Sport"
HAPWF,Anderson Bay,Undetermined,,Bay,Water Feature,BAY,0c2ff437849c20c3570138d59ce5961d,55.2500854,-108.3007143,,Saskatchewan,250000,1968-03-08,"Saskatchewan-Ministry of Parks, Culture and Sport"
HABNA,Anderson Bay,Undetermined,,Bay,Water Feature,BAY,0c284208849c20c345c3866153eae63a,59.9001450,-108.7674652,,Saskatchewan,250000,1968-01-15,"Saskatchewan-Ministry of Parks, Culture and Sport"
HABMZ,Anderson Bay,Undetermined,,Bay,Water Feature,BAY,0c284266849c20c36f320f8ef163e32e,54.5667290,-103.1670812,,Saskatchewan,250000,1958-08-04,"Saskatchewan-Ministry of Parks, Culture and Sport"
HAWLB,Anderson Channel,Undetermined,,Channel,Water Feature,CHAN,0caa8073849c20c3bb4ce26fc59680de,59.8668744,-102.4171918,,Saskatchewan,250000,1987-12-21,"Saskatchewan-Ministry of Parks, Culture and Sport"
HABND,Anderson Island,Undetermined,,Island,Terrain Feature,ISL,0c28436d849c20c3a09efe9cf629d0c2,59.4169107,-108.5674370,,Saskatchewan,250000,1957-09-05,"Saskatchewan-Ministry of Parks, Culture and Sport"
HABNC,Anderson Island,Undetermined,,Island,Terrain Feature,ISL,0c2842a6849c20c31b356cca57b46e73,53.8000478,-103.0504523,,Saskatchewan,250000,1952-01-17,"Saskatchewan-Ministry of Parks, Culture and Sport"
HAWZC,Anderson Island Protected Area,Undetermined,,Protected Area,Administrative Area,PARK,0cf4e0e6849c20c31796d2a9a1879960,53.7943142,-103.0568334,,Saskatchewan,1000000,1998-06-01,"Saskatchewan-Ministry of Parks, Culture and Sport"
HABNH,Anderson Lake,Undetermined,,Lake,Water Feature,LAKE,0c2844b6849c20c3783d18553e3b7750,59.4335184,-108.7507697,,Saskatchewan,50000,1967-08-22,"Saskatchewan-Ministry of Parks, Culture and Sport"
HAYGX,Anderson Lake,Undetermined,,Lake,Water Feature,LAKE,0fdaed81849c20c3fa35041182f14ad0,59.0335039,-102.5774197,,Saskatchewan,50000,2002-10-29,"Saskatchewan-Ministry of Parks, Culture and Sport"
HABNG,Anderson Lake,Undetermined,,Lake,Water Feature,LAKE,0c2843ac849c20c3f2f335455e3d9dc8,53.6500494,-105.8504917,12-54-27-W2,Saskatchewan,50000,1967-04-05,"Saskatchewan-Ministry of Parks, Culture and Sport"
HAWPG,Anderson Lake,Undetermined,,Lake,Water Feature,LAKE,0cad6a8d849c20c3027d32f7d30d7e6b,55.4972891,-106.1643951,75-2-W3,Saskatchewan,50000,1990-04-02,"Saskatchewan-Ministry of Parks, Culture and Sport"
HABNE,Anderson Lake,Undetermined,,Lake,Water Feature,LAKE,0c28432c849c20c388b242a2826c7a3a,51.0333322,-102.1504721,24-2-W2,Saskatchewan,250000,1950-05-04,"Saskatchewan-Ministry of Parks, Culture and Sport"
HAYIP,Anderson Lake,Undetermined,,Lake,Water Feature,LAKE,0fdc5d5a849c20c319324949c86a458d,59.2237729,-103.9880770,,Saskatchewan,50000,2002-10-23,"Saskatchewan-Ministry of Parks, Culture and Sport"
HASRO,Anderson Lake,Undetermined,,Lake,Water Feature,LAKE,0c316852849c20c31063ac2201750e4c,58.7001574,-102.3671078,,Saskatchewan,250000,1967-08-15,"Saskatchewan-Ministry of Parks, Culture and Sport"
HARAF,Anderson Lake,Undetermined,,Lake,Water Feature,LAKE,0c30861d849c20c37433b3f664693bf9,56.5334163,-105.3671611,,Saskatchewan,250000,1932-05-03,"Saskatchewan-Ministry of Parks, Culture and Sport"
HBAGD,Anderson Lake,Undetermined,,Lake,Water Feature,LAKE,6ead7a7f0a0012043456337e681ab02c,59.1911111,-102.0822222,,Saskatchewan,50000,2015-02-25,"Saskatchewan-Ministry of Parks, Culture and Sport"
HAYJN,Anderson Peninsula,Undetermined,,Peninsula,Terrain Feature,CAPE,0fdc6311849c20c30ee60167a7cc35e6,59.7557600,-102.3657999,,Saskatchewan,50000,2002-10-29,"Saskatchewan-Ministry of Parks, Culture and Sport"
HAYGP,Anderson Peninsula,Undetermined,,Peninsula,Terrain Feature,CAPE,0fdae9cf849c20c3fff2ee516953f4d1,59.0562799,-102.0940680,,Saskatchewan,50000,2002-10-29,"Saskatchewan-Ministry of Parks, Culture and Sport"
HABNI,Anderson Peninsula,Undetermined,,Peninsula,Terrain Feature,CAPE,0c284459849c20c3d1a43e6a9e9b87de,56.3667616,-108.0506998,,Saskatchewan,250000,1959-10-01,"Saskatchewan-Ministry of Parks, Culture and Sport"
HABNJ,Anderson Peninsula,Undetermined,,Peninsula,Terrain Feature,CAPE,0c2845a9849c20c36e4b01847b0d2e4e,59.8168067,-108.8173806,,Saskatchewan,250000,1968-01-15,"Saskatchewan-Ministry of Parks, Culture and Sport"
HABNK,Anderson Point,Undetermined,,Point,Terrain Feature,CAPE,0c284533849c20c35301f1a5300f939e,59.5834307,-109.5507615,,Saskatchewan,250000,1966-06-06,"Saskatchewan-Ministry of Parks, Culture and Sport"
HABNL,Anderson Rapids,Undetermined,,Rapids,Water Feature,RAP,0c28463d849c20c30ac347a3a5fa27bf,57.3501071,-106.1339295,,Saskatchewan,50000,1958-04-03,"Saskatchewan-Ministry of Parks, Culture and Sport"
HAWOR,Andree Lake,Undetermined,,Lake,Water Feature,LAKE,0cac1fa3849c20c3727c6647b0b79c3b,58.2501286,-106.4006606,,Saskatchewan,50000,1988-12-21,"Saskatchewan-Ministry of Parks, Culture and Sport"
HASDF,Andres Lake,Undetermined,,Lake,Water Feature,LAKE,0c310786849c20c38fba119b1b8499ef,57.3334365,-107.2006485,,Saskatchewan,250000,1956-09-06,"Saskatchewan-Ministry of Parks, Culture and Sport"
HAAPK,Andrew Hastings Lake,Undetermined,,Lake,Water Feature,LAKE,0cfe33cb849c20c338f043fdb077ca24,55.9334083,-104.7837863,,Saskatchewan,50000,1981-06-05,"Saskatchewan-Ministry of Parks, Culture and Sport"
HAQND,Andrew Lake,Undetermined,,Lake,Water Feature,LAKE,24a728c6c6be11d892e2080020a0f4c9,55.5667350,-106.2171795,76-2-W3,Saskatchewan,250000,1965-11-11,"Saskatchewan-Ministry of Parks, Culture and Sport"
HABNM,Andrew Lake,Undetermined,,Lake,Water Feature,LAKE,0c2845fe849c20c3fa399610c1cd88ef,58.2001318,-104.6338451,,Saskatchewan,250000,1962-07-11,"Saskatchewan-Ministry of Parks, Culture and Sport"
HABNN,Andrew Lake,Undetermined,,Lake,Water Feature,LAKE,0c2846e8849c20c3a72a8d0529be38bb,59.4669293,-108.3341727,,Saskatchewan,1000000,1967-08-08,"Saskatchewan-Ministry of Parks, Culture and Sport"
HABNO,Andrews Island,Undetermined,,Island,Terrain Feature,ISL,0c2846a8849c20c35eaeacd73879856d,59.4669481,-108.1342570,,Saskatchewan,50000,1967-08-08,"Saskatchewan-Ministry of Parks, Culture and Sport"
HAORQ,Andrews Lake,Undetermined,,Lake,Water Feature,LAKE,0c2fac08849c20c3b198f3451a3b5781,50.0167022,-109.0340652,12-23-W3,Saskatchewan,250000,1963-10-30,"Saskatchewan-Ministry of Parks, Culture and Sport"
HAVZR,Andrews Lake Game Preserve,Undetermined,,Game Preserve,Administrative Area,PARK,0c329624849c20c3d5e5af695e2b3d35,50.0167022,-109.0340652,,Saskatchewan,1000000,1985-05-29,"Saskatchewan-Ministry of Parks, Culture and Sport"
HAAPL,Andy Rankin Marsh,Undetermined,,Marsh,Feature Associated with Vegetation,VEGL,0c27c408849c20c39b3da5ea3b6b9e65,50.7500338,-105.6839180,,Saskatchewan,250000,1979-10-05,"Saskatchewan-Ministry of Parks, Culture and Sport"
HAQZG,Anerley,Undetermined,,Hamlet,Populated Place,UNP,25e644aec6ce11d892e2080020a0f4c9,51.3667068,-107.3173173,28-10-W3,Saskatchewan,250000,1985-05-29,"Saskatchewan-Ministry of Parks, Culture and Sport"
HABNP,Anerley Lakes,Undetermined,,Lakes,Water Feature,LAKE,0c284766849c20c33114cfea59a2132c,51.3667066,-107.3006500,"28-9,10-W3",Saskatchewan,250000,1956-11-02,"Saskatchewan-Ministry of Parks, Culture and Sport"
HAAPM,Aneroid,Undetermined,,Hamlet,Populated Place,HAM,0c27c3c9849c20c33366fc6b314aacf7,49.7164140,-107.3001020,9-9-10-W3,Saskatchewan,250000,2008-12-31,"Saskatchewan-Ministry of Parks, Culture and Sport"
HABNQ,Aney Lake,Undetermined,,Lake,Water Feature,LAKE,0c284727849c20c3ed09d12af5873652,59.4669703,-107.9343121,,Saskatchewan,250000,1953-05-07,"Saskatchewan-Ministry of Parks, Culture and Sport"
HABNR,Angell Island,Undetermined,,Island,Terrain Feature,ISL,0c2847e2849c20c3101849c9455c888f,54.6167280,-102.2504019,,Saskatchewan,50000,1968-03-08,"Saskatchewan-Ministry of Parks, Culture and Sport"
HABNS,Anglia,Undetermined,,Hamlet,Populated Place,UNP,1e156261c6ce11d892e2080020a0f4c9,51.5667160,-108.1673570,30-16-W3,Saskatchewan,250000,1985-05-29,"Saskatchewan-Ministry of Parks, Culture and Sport"
HATSF,Anglin Lake,Undetermined,,Lake,Water Feature,LAKE,250c0420c6be11d892e2080020a0f4c9,53.7333834,-105.9338284,,Saskatchewan,1000000,1968-01-16,"Saskatchewan-Ministry of Parks, Culture and Sport"
HABNT,Anglin Lake,Undetermined,,Locality,Populated Place,UNP,0c28485a849c20c35d213ac0c8b4c046,53.7000501,-105.9504963,54-27-W2,Saskatchewan,250000,1966-06-08,"Saskatchewan-Ministry of Parks, Culture and Sport"
HAPCJ,Anglin Lake Recreation Site,Undetermined,,Recreation Site,Administrative Area,PARK,678ed1a7d05511d892e2080020a0f4c9,53.7020387,-105.9617102,54-55-27-28-W2,Saskatchewan,1000000,1985-05-29,"Saskatchewan-Ministry of Parks, Culture and Sport"
HAVVX,Anglo-Rouyn Mine Site,Undetermined,,Locality,Populated Place,UNP,0c3293d7849c20c3b92d7bb3d205ae8a,55.3000696,-105.0004512,,Saskatchewan,250000,1974-01-30,"Saskatchewan-Ministry of Parks, Culture and Sport"
HAOIK,Angus Creek,Undetermined,,Creek,Water Feature,RIV,0c2f8b90849c20c3b8baa4c1d80b0e63,55.4167539,-108.7174073,74-18-W3,Saskatchewan,250000,1932-05-03,"Saskatchewan-Ministry of Parks, Culture and Sport"
HABNX,Angus Lake,Undetermined,,Lake,Water Feature,LAKE,0c2848fa849c20c3558d8675bb90d7c8,56.4334386,-102.3836962,,Saskatchewan,250000,1932-06-06,"Saskatchewan-Ministry of Parks, Culture and Sport"
HABNY,Angus McKay Bay,Undetermined,,Bay,Water Feature,BAY,0c2848a6849c20c32d80dac3c84b48e4,55.8000729,-104.8671217,,Saskatchewan,50000,1965-09-08,"Saskatchewan-Ministry of Parks, Culture and Sport"
HARLV,Aniska Lake,Undetermined,,Lake,Water Feature,LAKE,4f1436b2ba3411d892e2080020a0f4c9,59.6502008,-102.0338381,,Saskatchewan,250000,1950-04-06,"Saskatchewan-Ministry of Parks, Culture and Sport"
HATQJ,Anita Lake,Undetermined,,Lake,Water Feature,LAKE,0c31e510849c20c306733ae87abc747c,52.6000217,-105.1671954,12-42-23-W2,Saskatchewan,50000,1956-11-02,"Saskatchewan-Ministry of Parks, Culture and Sport"
HATRO,Anna Lake,Undetermined,,Lake,Water Feature,LAKE,0c31ec03849c20c38fb3f8cac561b961,52.5833609,-105.5005432,2-42-25-W2,Saskatchewan,50000,1956-11-02,"Saskatchewan-Ministry of Parks, Culture and Sport"
HABNZ,Annabel Creek,Undetermined,,Creek,Water Feature,RIV,303ee66aba2e11d892e2080020a0f4c9,54.8417376,-101.8864998,67-29-W,Saskatchewan,250000,1949-10-06,"Saskatchewan-Ministry of Parks, Culture and Sport"
HABOA,Annabel Lake,Undetermined,,Lake,Water Feature,LAKE,0c284939849c20c319ff7767000df356,54.8334009,-102.1670666,"67-1,2-W2",Saskatchewan,1000000,1933-04-18,"Saskatchewan-Ministry of Parks, Culture and Sport"
HABOB,Annaheim,Undetermined,,Village,Populated Place,VILG,0c2849b9849c20c3477e4dbbc14b880b,52.3212528,-104.8191564,4-39-20-W2,Saskatchewan,1000000,1977-01-28,"Saskatchewan-Ministry of Parks, Culture and Sport"
HABOC,Anne Lake,Undetermined,,Lake,Water Feature,LAKE,0c28497a849c20c30492a5eae1dcdc74,59.6669081,-108.3841921,,Saskatchewan,250000,1950-06-02,"Saskatchewan-Ministry of Parks, Culture and Sport"
HATTR,Annie Lake,Undetermined,,Lake,Water Feature,LAKE,0c31f73e849c20c3690a470338a2a996,52.2000282,-105.2672231,29-37-23-W2,Saskatchewan,50000,1956-08-02,"Saskatchewan-Ministry of Parks, Culture and Sport"
HABOF,Annie Laurie Lake,Undetermined,,Lake,Water Feature,LAKE,0c284a24849c20c3e54ae9f9582a5f50,51.9666574,-102.6671439,"34,35-5-W2",Saskatchewan,250000,1956-08-02,"Saskatchewan-Ministry of Parks, Culture and Sport"
HAUHJ,Anson Lake,Undetermined,,Lake,Water Feature,LAKE,0cff473c849c20c39d219859840c2b98,59.7501956,-103.6172398,,Saskatchewan,250000,1964-08-26,"Saskatchewan-Ministry of Parks, Culture and Sport"
HAPCK,Antelope,Undetermined,,Locality,Populated Place,UNP,54c01805c6cd11d892e2080020a0f4c9,50.1500372,-108.3340305,1-14-18-W3,Saskatchewan,250000,1985-05-29,"Saskatchewan-Ministry of Parks, Culture and Sport"
HAURV,Antelope Coulee,Undetermined,,Coulee,Terrain Feature,VALL,0c323bdc849c20c36849ce0970c75c29,49.0166717,-109.5840737,"1-27,28-W3",Saskatchewan,250000,1954-09-02,"Saskatchewan-Ministry of Parks, Culture and Sport"
HABOI,Antelope Creek,Undetermined,,Creek,Water Feature,RIV,0c284a65849c20c3e03f1c6c9de9cd8c,50.7000437,-108.3340319,20-17-W3,Saskatchewan,250000,1954-09-02,"Saskatchewan-Ministry of Parks, Culture and Sport"
HAPCL,Antelope Lake,Undetermined,,Lake,Water Feature,LAKE,0c2fc38c849c20c351aba7f5dd2f6ef9,50.2667072,-108.4006981,15-18-W3,Saskatchewan,1000000,1947-03-13,"Saskatchewan-Ministry of Parks, Culture and Sport"
HAXDG,Antelope Lake Regional Park,Undetermined,,Regional Park,Administrative Area,PARK,0cf4f234849c20c3555deef09a8e94a7,50.2778183,-108.4145873,,Saskatchewan,1000000,1998-06-01,"Saskatchewan-Ministry of Parks, Culture and Sport"
HATBW,Antelope Park No. 322,Undetermined,,Rural Municipality,Administrative Area,MUN2,0c319581849c20c36400266fc1336760,51.7507045,-109.8476259,,Saskatchewan,50000,1980-04-01,"Saskatchewan-Ministry of Parks, Culture and Sport"
HAWBQ,Antelope Wildlife Management Unit,Undetermined,,Wildlife Management Unit,Administrative Area,PARK,0c32a309849c20c352a4a450b31d2b37,51.7167283,-109.8174428,,Saskatchewan,1000000,1985-05-29,"Saskatchewan-Ministry of Parks, Culture and Sport"
HABOJ,Antler,Undetermined,,Hamlet,Populated Place,UNP,0cfe49db849c20c39b373cde2049250a,49.5660528,-101.4575194,14-7-30-W,Saskatchewan,1000000,1955-01-20,"Saskatchewan-Ministry of Parks, Culture and Sport"
HATLJ,Antler No. 61,Undetermined,,Rural Municipality,Administrative Area,MUN2,0c31caf3849c20c3892c8477e3861261,49.5773321,-101.7993422,,Saskatchewan,50000,1980-04-01,"Saskatchewan-Ministry of Parks, Culture and Sport"
HABOK,Antler River,Undetermined,,River,Water Feature,RIV,3ba8a72bba2e11d892e2080020a0f4c9,49.0166890,-101.3671070,22-2-27-W,Saskatchewan,1000000,1955-01-20,"Saskatchewan-Ministry of Parks, Culture and Sport"
HABOL,Antoine Lake,Undetermined,,Lake,Water Feature,LAKE,0c284afb849c20c35c873da3317356ea,53.7833858,-106.4338618,7-56-3-W3,Saskatchewan,250000,1929-03-05,"Saskatchewan-Ministry of Parks, Culture and Sport"
HAQCP,Antoine Point,Undetermined,,Point,Terrain Feature,CAPE,0c301dd0849c20c3c96628307c8baf08,55.9834225,-108.3840505,81-16-W3,Saskatchewan,250000,1932-05-03,"Saskatchewan-Ministry of Parks, Culture and Sport"
HABOM,Anton Lake,Undetermined,,Lake,Water Feature,LAKE,0c284aa4849c20c3aca2b2c0c602a5dc,57.1001058,-108.1340479,,Saskatchewan,250000,1958-07-03,"Saskatchewan-Ministry of Parks, Culture and Sport"
HABON,Antony Lake,Undetermined,,Lake,Water Feature,LAKE,0c284b79849c20c33a4f0bee5d3792f7,56.2000843,-103.5170721,,Saskatchewan,250000,1967-07-10,"Saskatchewan-Ministry of Parks, Culture and Sport"
HABOO,Anxiety Butte,Undetermined,,Butte,Terrain Feature,MTN,0c284b3b849c20c31ba67cf47faa4cc7,49.6000241,-108.8007167,7-21-W3,Saskatchewan,250000,1954-09-02,"Saskatchewan-Ministry of Parks, Culture and Sport"
HABOP,Apetow Lake,Undetermined,,Lake,Water Feature,LAKE,0c284c29849c20c3d5ee4922b3c568db,54.8500659,-102.3504104,"67,68-3-W2",Saskatchewan,250000,1949-10-06,"Saskatchewan-Ministry of Parks, Culture and Sport"
HABOQ,Apex Bay,Undetermined,,Bay,Water Feature,BAY,0c284bbd849c20c3e4ff95d950d2801e,56.6334239,-104.1837748,,Saskatchewan,250000,1951-04-05,"Saskatchewan-Ministry of Parks, Culture and Sport"
HABOR,Apex Island,Undetermined,,Island,Terrain Feature,ISL,0c284d17849c20c3abccc0398ed21b69,56.6000893,-104.2171084,,Saskatchewan,250000,1951-04-05,"Saskatchewan-Ministry of Parks, Culture and Sport"
HABOT,Apex Lake,Undetermined,,Lake,Water Feature,LAKE,0c284da4849c20c395155acaefd92956,56.6834264,-104.0671047,,Saskatchewan,250000,1951-04-05,"Saskatchewan-Ministry of Parks, Culture and Sport"
HABOS,Apex Lake,Undetermined,,Lake,Water Feature,LAKE,0c284c98849c20c37ca75c1f445cc2a8,54.4167258,-103.1004247,62-8-W2,Saskatchewan,250000,1949-10-06,"Saskatchewan-Ministry of Parks, Culture and Sport"
HARLU,Apipuyew Lake,Undetermined,,Lake,Water Feature,LAKE,0c30bd7e849c20c3db6cd55a0be450aa,59.6668668,-102.4671906,,Saskatchewan,250000,1950-04-06,"Saskatchewan-Ministry of Parks, Culture and Sport"
HABDN,Apisis Lake,Undetermined,,Lake,Water Feature,LAKE,0c2808fc849c20c3433a48ae52f0f73a,59.7003703,-107.1010306,,Saskatchewan,250000,1947-01-07,"Saskatchewan-Ministry of Parks, Culture and Sport"
HAQSD,Apland Lake,Undetermined,,Lake,Water Feature,LAKE,0cff13b8849c20c3decb315cc986e356,59.9668568,-105.3173388,,Saskatchewan,250000,1954-12-02,"Saskatchewan-Ministry of Parks, Culture and Sport"
HABSP,Appleby Bay,Undetermined,,Bay,Water Feature,BAY,0c2864a2849c20c39a73c7286f016edd,49.1833641,-104.8005302,,Saskatchewan,250000,1964-02-21,"Saskatchewan-Ministry of Parks, Culture and Sport"
HABSQ,Appleby Bay,Undetermined,,Bay,Water Feature,BAY,0c286445849c20c36424e43eb54d04b4,54.4500766,-107.3006228,,Saskatchewan,250000,1932-01-05,"Saskatchewan-Ministry of Parks, Culture and Sport"
HABSR,Appleby Creek,Undetermined,,Creek,Water Feature,RIV,0c28655a849c20c3109b70c48a1e51f5,54.4500766,-107.3006228,,Saskatchewan,250000,1932-01-05,"Saskatchewan-Ministry of Parks, Culture and Sport"
HABSS,Appleby Island,Undetermined,,Island,Terrain Feature,ISL,0c286519849c20c32dbbc27aa32ba333,49.1833641,-104.8005302,,Saskatchewan,250000,1964-02-21,"Saskatchewan-Ministry of Parks, Culture and Sport"
HABST,Appleby Lake,Undetermined,,Lake,Water Feature,LAKE,0c286610849c20c3b9306d8780fa20eb,54.3667368,-107.1005939,62-8-W3,Saskatchewan,250000,1932-01-05,"Saskatchewan-Ministry of Parks, Culture and Sport"
HABSU,Appleby River,Undetermined,,River,Water Feature,RIV,0c286597849c20c3dfeb0d9b3e265f6f,57.9334660,-106.9506855,,Saskatchewan,250000,1956-05-03,"Saskatchewan-Ministry of Parks, Culture and Sport"
HAOIM,Apps Lake,Undetermined,,Lake,Water Feature,LAKE,0c2f8bd3849c20c3372d359598aecee3,55.4167504,-108.3007109,74-15-W3,Saskatchewan,1000000,1932-05-03,"Saskatchewan-Ministry of Parks, Culture and Sport"
HABSV,Apps River,Undetermined,,River,Water Feature,RIV,0c28664e849c20c3c8246f7b864c21f0,55.3834174,-108.0673666,74-14-W3,Saskatchewan,250000,1957-09-05,"Saskatchewan-Ministry of Parks, Culture and Sport"
HAPCM,April Lake,Undetermined,,Lake,Water Feature,LAKE,0c2fc3d9849c20c3723053e52f49e23c,51.8499905,-102.4004724,20-33-3-W2,Saskatchewan,50000,1956-08-02,"Saskatchewan-Ministry of Parks, Culture and Sport"
HABSW,Aquadell,Undetermined,,Locality,Populated Place,UNP,1e34d144c6ce11d892e2080020a0f4c9,50.6333646,-106.7839612,29-19-6-W3,Saskatchewan,250000,1985-05-29,"Saskatchewan-Ministry of Parks, Culture and Sport"
HABSX,Aquadell Creek,Undetermined,,Creek,Water Feature,RIV,0c28668c849c20c38f8d2feae6afb890,50.6833640,-106.7506272,15-20-6-W3,Saskatchewan,50000,1966-12-01,"Saskatchewan-Ministry of Parks, Culture and Sport"
HAWLC,Aquadeo,Undetermined,,Resort Village,Populated Place,VILG,082353dfd05511d892e2080020a0f4c9,53.1372361,-108.4250028,16-48-17-W3,Saskatchewan,250000,1988-01-04,"Saskatchewan-Ministry of Parks, Culture and Sport"
HABTA,Arabella,Undetermined,,Locality,Populated Place,UNP,0c2866ef849c20c3d533ae6a0fad67a4,52.0499904,-102.0504610,35-1-W2,Saskatchewan,250000,1940-04-23,"Saskatchewan-Ministry of Parks, Culture and Sport"
HAQMG,Arborfield,Undetermined,,Town,Populated Place,TOWN,0cff0e74849c20c3e95c9ddc3cc1495c,53.1056694,-103.6607417,3-48-12-W2,Saskatchewan,1000000,1947-09-04,"Saskatchewan-Ministry of Parks, Culture and Sport"
HASZH,Arborfield No. 456,Undetermined,,Rural Municipality,Administrative Area,MUN2,0c318713849c20c333bcb9ab96a389ba,53.0692851,-103.5186429,,Saskatchewan,50000,1980-04-01,"Saskatchewan-Ministry of Parks, Culture and Sport"
HABTD,Arbour Lakes,Undetermined,,Lakes,Water Feature,LAKE,0c28672d849c20c3033ff6f32fc13467,52.9667113,-106.6172332,14-46-5-W3,Saskatchewan,50000,1968-04-03,"Saskatchewan-Ministry of Parks, Culture and Sport"
HATPX,Arbury,Undetermined,,Locality,Populated Place,UNP,576dac18c6cd11d892e2080020a0f4c9,51.1500401,-104.2838811,27-25-17-W2,Saskatchewan,250000,1985-05-29,"Saskatchewan-Ministry of Parks, Culture and Sport"
HAPCN,Arbuthnot,Undetermined,,Hamlet,Populated Place,UNP,2420c6c3c6ce11d892e2080020a0f4c9,49.8166954,-106.9006302,9-10-7-W3,Saskatchewan,250000,1985-05-29,"Saskatchewan-Ministry of Parks, Culture and Sport"
HAPXZ,Arcand Island,Undetermined,,Island,Terrain Feature,ISL,0c300073849c20c34980474494f56264,55.1333990,-105.1837913,,Saskatchewan,50000,1964-02-10,"Saskatchewan-Ministry of Parks, Culture and Sport"
HAPYA,Archer Island,Undetermined,,Island,Terrain Feature,ISL,0c300032849c20c34149fb084889b4b5,55.1167325,-105.1004541,,Saskatchewan,50000,1964-08-26,"Saskatchewan-Ministry of Parks, Culture and Sport"
HABTF,Archer Lake,Undetermined,,Lake,Water Feature,LAKE,0c28680f849c20c3bdf831898957990a,56.4334200,-103.8670901,,Saskatchewan,50000,1948-10-07,"Saskatchewan-Ministry of Parks, Culture and Sport"
HABTG,Archer Ridge,Undetermined,,Ridge,Terrain Feature,MTN,0c28679e849c20c3d70e5f644a3f2d9c,51.1167020,-107.1006429,25-8-W3,Saskatchewan,250000,1964-09-21,"Saskatchewan-Ministry of Parks, Culture and Sport"
HAPCO,Archerwill,Undetermined,,Village,Populated Place,VILG,0cfef0ad849c20c3eb08f1ea9f56a75f,52.4389944,-103.8610139,18-40-13-W2,Saskatchewan,1000000,1949-08-04,"Saskatchewan-Ministry of Parks, Culture and Sport"
HARDF,Archibald Bay,Undetermined,,Bay,Water Feature,BAY,24bb25f8c6be11d892e2080020a0f4c9,59.7502061,-102.0838424,,Saskatchewan,50000,1968-01-30,"Saskatchewan-Ministry of Parks, Culture and Sport"
HABTH,Archibald Island,Undetermined,,Island,Terrain Feature,ISL,0cfe4be6849c20c30e2325df8e43a246,55.3834069,-103.6337384,,Saskatchewan,250000,1956-04-06,"Saskatchewan-Ministry of Parks, Culture and Sport"
HBAGC,Archibald Lake,Undetermined,,Lake,Water Feature,LAKE,7f43c4c30a001204306bba64dff91a0b,59.4125000,-103.6980548,Southwest of Milton Lake,Saskatchewan,50000,2014-04-17,"Saskatchewan-Ministry of Parks, Culture and Sport"
HAYKI,Archibald Lake,Undetermined,,Lake,Water Feature,LAKE,0fdc669f849c20c3ecfbea93794af45b,59.8835421,-102.3102404,,Saskatchewan,50000,2002-10-29,"Saskatchewan-Ministry of Parks, Culture and Sport"
HABTI,Archibald Lake,Undetermined,,Lake,Water Feature,LAKE,0c2868d9849c20c382198f8f54c54c1e,54.1833845,-102.1170811,60-1-W2,Saskatchewan,1000000,1933-04-18,"Saskatchewan-Ministry of Parks, Culture and Sport"
HAAOT,Archibald Lake,Undetermined,,Lake,Water Feature,LAKE,0c27c307849c20c36185be145e2ca722,56.1000748,-105.2671413,,Saskatchewan,250000,1971-07-13,"Saskatchewan-Ministry of Parks, Culture and Sport"
HAAVL,Archibald Lake,Undetermined,,Lake,Water Feature,LAKE,0c27e024849c20c306e24e9045d01e4a,59.0170154,-108.5843744,,Saskatchewan,1000000,1944-11-28,"Saskatchewan-Ministry of Parks, Culture and Sport"
HAQRW,Archibald Lakes,Undetermined,,Lakes,Water Feature,LAKE,0d0938ba849c20c3a77ecdd07894ffaa,59.8002079,-102.1005081,,Saskatchewan,250000,1968-01-19,"Saskatchewan-Ministry of Parks, Culture and Sport"
HAUAB,Archibald River,Undetermined,,River,Water Feature,RIV,0c320617849c20c32474bc269d542fda,59.1336803,-108.4177397,,Saskatchewan,250000,1944-11-28,"Saskatchewan-Ministry of Parks, Culture and Sport"
HABTK,Archie Lake,Undetermined,,Lake,Water Feature,LAKE,0c286918849c20c3d2ec61e179e32943,59.4669880,-107.7510042,,Saskatchewan,250000,1953-05-07,"Saskatchewan-Ministry of Parks, Culture and Sport"
HASCL,Archie Lakes,Undetermined,,Lakes,Water Feature,LAKE,0c31021c849c20c31b5e6144781ada84,57.4167699,-108.0340376,,Saskatchewan,250000,1944-12-09,"Saskatchewan-Ministry of Parks, Culture and Sport"
HABTL,Archive,Undetermined,,Railway Point,Populated Place,UNP,0c286a3b849c20c3974c28149f198eb9,50.2833602,-105.6172430,23-15-27-W2,Saskatchewan,250000,1951-10-04,"Saskatchewan-Ministry of Parks, Culture and Sport"
HAVGP,Archydal,Undetermined,,Locality,Populated Place,UNP,27d1e83dc6ce11d892e2080020a0f4c9,50.4833610,-105.7505820,35-17-28-W2,Saskatchewan,250000,1985-05-29,"Saskatchewan-Ministry of Parks, Culture and Sport"
HABTM,Archydal Coulee,Undetermined,,Coulee,Terrain Feature,VALL,0c2869fc849c20c3be76492c2d0d265a,50.4666943,-105.7505817,17-28-W2,Saskatchewan,250000,1951-10-04,"Saskatchewan-Ministry of Parks, Culture and Sport"
HABTN,Arcola,Undetermined,,Town,Populated Place,TOWN,0cfe4c66849c20c382ad02ff90a6412c,49.6354522,-102.4919222,9-8-4-W2,Saskatchewan,1000000,1952-02-06,"Saskatchewan-Ministry of Parks, Culture and Sport"
HAQRX,Arctic Butte,Undetermined,,Butte,Terrain Feature,MTN,0cff1378849c20c3421659053e4aa059,59.9168762,-102.3838561,,Saskatchewan,250000,1964-08-26,"Saskatchewan-Ministry of Parks, Culture and Sport"
HABTP,Arcturus Lake,Undetermined,,Lake,Water Feature,LAKE,0c286ad5849c20c3b5472091e1c81ffd,52.6167409,-109.6007509,19-42-25-W3,Saskatchewan,50000,1965-05-31,"Saskatchewan-Ministry of Parks, Culture and Sport"
HABTQ,Ardath,Undetermined,,Hamlet,Populated Place,UNP,1e428ce5c6ce11d892e2080020a0f4c9,51.6167073,-107.2339799,33-30-9-W3,Saskatchewan,250000,1985-05-29,"Saskatchewan-Ministry of Parks, Culture and Sport"
HAOPZ,Ardill,Undetermined,,Locality,Populated Place,UNP,546f38ddc6cd11d892e2080020a0f4c9,49.9392331,-105.8419943,25-11-29-W2,Saskatchewan,250000,2011-02-08,"Saskatchewan-Ministry of Parks, Culture and Sport"
HABTS,Ardwick,Undetermined,,Railway Point,Populated Place,UNP,0c286b58849c20c3e803a9ed9ba5b05a,49.6333610,-106.0172461,13-8-1-W3,Saskatchewan,250000,1954-07-08,"Saskatchewan-Ministry of Parks, Culture and Sport"
HABTT,Arelee,Undetermined,,Hamlet,Populated Place,UNP,0c286bbb849c20c3a28065dda7a7bc40,52.2500528,-107.5006459,10-38-11-W3,Saskatchewan,250000,2002-03-21,"Saskatchewan-Ministry of Parks, Culture and Sport"
HAQDK,Argo,Undetermined,,Railway Point,Populated Place,UNP,0c302241849c20c361d55b0c6a79b3d0,52.0167180,-108.1006809,17-35-15-W3,Saskatchewan,250000,1939-12-12,"Saskatchewan-Ministry of Parks, Culture and Sport"
HARJL,Argue Lake,Undetermined,,Lake,Water Feature,LAKE,0c30b0a6849c20c3d8d31a86a3876e8d,59.8668103,-109.6675537,,Saskatchewan,250000,1944-11-28,"Saskatchewan-Ministry of Parks, Culture and Sport"
HABTV,Argue Peninsula,Undetermined,,Peninsula,Terrain Feature,CAPE,0c286c26849c20c3a55d7519bf1d8513,56.8000924,-105.3005250,,Saskatchewan,250000,1956-09-06,"Saskatchewan-Ministry of Parks, Culture and Sport"
HATMP,Argyle No. 1,Undetermined,,Rural Municipality,Administrative Area,MUN2,0c31d267849c20c3b752380f9cdad9cd,49.1540522,-101.4793929,,Saskatchewan,50000,1980-04-01,"Saskatchewan-Ministry of Parks, Culture and Sport"
HAUXK,Argyle Park,Undetermined,,Urban Community,Populated Place,UNP,0c325b3a849c20c3b061e7b5d83e4619,50.4903180,-104.6283265,,Saskatchewan,50000,1984-02-20,"Saskatchewan-Ministry of Parks, Culture and Sport"
HABTX,Arlington Beach,Undetermined,,Organized Hamlet,Populated Place,HAM,4819df67c6cd11d892e2080020a0f4c9,51.2468222,-105.2358856,25-26-24-W2,Saskatchewan,250000,1992-04-01,"Saskatchewan-Ministry of Parks, Culture and Sport"
HATKS,Arlington No. 79,Undetermined,,Rural Municipality,Administrative Area,MUN2,0c31c656849c20c3664e60072524be07,49.6238384,-108.6588933,,Saskatchewan,50000,1980-04-01,"Saskatchewan-Ministry of Parks, Culture and Sport"
HABTY,Arm Lake,Undetermined,,Lake,Water Feature,LAKE,0c286c66849c20c30ad938b03b5ada9e,51.0666980,-105.8005891,"23,26-24-28-W2",Saskatchewan,250000,1963-01-08,"Saskatchewan-Ministry of Parks, Culture and Sport"
HAMJP,Arm River,Undetermined,,River,Water Feature,RIV,0cfed1b8849c20c3045d9ffde9d026dc,50.7833711,-105.0338950,18-21-22-W2,Saskatchewan,1000000,1953-05-07,"Saskatchewan-Ministry of Parks, Culture and Sport"
HATDR,Arm River No. 252,Undetermined,,Rural Municipality,Administrative Area,MUN2,0c319fdd849c20c3922b256b9b742a2b,51.2243875,-105.8235798,,Saskatchewan,50000,1980-04-01,"Saskatchewan-Ministry of Parks, Culture and Sport"
HAWDD,Arm River Recreation Site,Undetermined,,Recreation Site,Administrative Area,PARK,58fc136ec6cd11d892e2080020a0f4c9,50.8366486,-105.4431275,5-22-25-W2,Saskatchewan,1000000,1985-05-29,"Saskatchewan-Ministry of Parks, Culture and Sport"
HAQMF,Arma,Undetermined,,Railway Point,Populated Place,UNP,55eb2aa2c6cd11d892e2080020a0f4c9,52.5833756,-106.3672487,4-42-3-W3,Saskatchewan,50000,1985-05-29,"Saskatchewan-Ministry of Parks, Culture and Sport"
HABTZ,Armatage Bay,Undetermined,,Bay,Water Feature,BAY,0c286d27849c20c3864ec9fd714fdc6c,57.6834490,-106.3172933,,Saskatchewan,250000,1951-05-03,"Saskatchewan-Ministry of Parks, Culture and Sport"
HABUA,Armbruster Lake,Undetermined,,Lake,Water Feature,LAKE,0c286ce8849c20c3fd8d8dfe28dc3072,59.4335483,-108.6840929,,Saskatchewan,50000,1950-06-02,"Saskatchewan-Ministry of Parks, Culture and Sport"
HABUB,Armilla,Undetermined,,Railway Point,Populated Place,UNP,0c286dde849c20c3d4508326c090342a,49.6333558,-102.5838077,11-8-5-W2,Saskatchewan,250000,1952-02-06,"Saskatchewan-Ministry of Parks, Culture and Sport"
HABUC,Armit,Undetermined,,Hamlet,Populated Place,UNP,1e4cc616c6ce11d892e2080020a0f4c9,52.8333599,-101.7838116,32-44-30-W,Saskatchewan,250000,1985-05-29,"Saskatchewan-Ministry of Parks, Culture and Sport"
HAMJJ,Armit Lake,Undetermined,,Lake,Water Feature,LAKE,441fccecba3411d892e2080020a0f4c9,52.5500120,-101.6379559,24-41-30-W,Saskatchewan,1000000,1940-05-21,"Saskatchewan-Ministry of Parks, Culture and Sport"
HAMJK,Armit River,Undetermined,,River,Water Feature,RIV,40ddf74cba2e11d892e2080020a0f4c9,52.8583616,-101.6713093,45-28-W,Saskatchewan,1000000,1940-05-21,"Saskatchewan-Ministry of Parks, Culture and Sport"
HAXAC,Armit River Recreation Site,Undetermined,,Recreation Site,Administrative Area,PARK,0d022c83849c20c329bb4479dffb25af,52.8301581,-101.6776976,,Saskatchewan,1000000,1998-06-01,"Saskatchewan-Ministry of Parks, Culture and Sport"
HAMJL,Armitage Lake,Undetermined,,Lake,Water Feature,LAKE,0c2e9960849c20c320a72afe9a53988b,54.9834223,-109.2174736,69-22-W3,Saskatchewan,250000,1952-07-03,"Saskatchewan-Ministry of Parks, Culture and Sport"
HAMJM,Armley,Undetermined,,Hamlet,Populated Place,UNP,5235ea75c6cd11d892e2080020a0f4c9,53.1166944,-104.0338021,6-48-14-W2,Saskatchewan,250000,1985-05-29,"Saskatchewan-Ministry of Parks, Culture and Sport"
HAMJN,Armour,Undetermined,,Railway Point,Populated Place,UNP,0c2e99a1849c20c3471f42312650dbea,50.5167086,-104.6172163,12-18-20-W2,Saskatchewan,250000,1952-10-02,"Saskatchewan-Ministry of Parks, Culture and Sport"
HAMJO,Armour Lake,Undetermined,,Lake,Water Feature,LAKE,0c2e99e3849c20c339a234ee86291784,54.7500915,-109.0841224,34-66-21-W3,Saskatchewan,250000,1952-07-03,"Saskatchewan-Ministry of Parks, Culture and Sport"
HAMJQ,Armstrong Coulee,Undetermined,,Coulee,Terrain Feature,VALL,0d0940af849c20c3de873db6f94ce77f,49.6333601,-109.2174030,"8,9-8-24-W3",Saskatchewan,50000,1967-04-05,"Saskatchewan-Ministry of Parks, Culture and Sport"
HAMJS,Armstrong Creek,Undetermined,,Creek,Water Feature,RIV,0d094101849c20c3ffb420c38c1f4170,55.6001036,-109.8841780,76-25-W3,Saskatchewan,250000,1951-09-06,"Saskatchewan-Ministry of Parks, Culture and Sport"
HAMJT,Armstrong Island,Undetermined,,Island,Terrain Feature,ISL,0c2e9a24849c20c33682ec0d7ff47c36,57.7001338,-102.1837069,,Saskatchewan,250000,1952-10-02,"Saskatchewan-Ministry of Parks, Culture and Sport"
HAMJU,Armstrong Lake,Undetermined,,Lake,Water Feature,LAKE,0c2e9aa5849c20c37a17071245fd8f97,51.1333326,-102.2838065,"25-2,3-W2",Saskatchewan,250000,1956-08-02,"Saskatchewan-Ministry of Parks, Culture and Sport"
HAMJW,Armstrong Lake,Undetermined,,Lake,Water Feature,LAKE,0c2e9b27849c20c382ed1f6739bc0551,56.4500872,-103.8337559,,Saskatchewan,50000,1932-07-06,"Saskatchewan-Ministry of Parks, Culture and Sport"
HAMJV,Armstrong Lake,Undetermined,,Lake,Water Feature,LAKE,0c2e9a64849c20c362bf43482a7c7981,53.5667394,-107.7506342,17-53-12-W3,Saskatchewan,250000,1969-02-06,"Saskatchewan-Ministry of Parks, Culture and Sport"
HAMJX,Armstrong Point,Undetermined,,Point,Terrain Feature,CAPE,0c2e9ae6849c20c32e2bde23fbfa4d30,59.2837312,-106.7676997,,Saskatchewan,250000,1952-12-11,"Saskatchewan-Ministry of Parks, Culture and Sport"
HAMJY,Arn Lake,Undetermined,,Lake,Water Feature,LAKE,0c2e9ba7849c20c30947465178a0a5c4,52.5000318,-105.7005574,41-26-W2,Saskatchewan,50000,1956-08-02,"Saskatchewan-Ministry of Parks, Culture and Sport"
HAPZT,Arn Lake,Undetermined,,Lake,Water Feature,LAKE,0c300acb849c20c343fb6c5d2501e596,55.0834051,-103.5170667,,Saskatchewan,250000,1953-07-02,"Saskatchewan-Ministry of Parks, Culture and Sport"
HAYPY,Arndt Lake,Undetermined,,Lake,Water Feature,LAKE,daab224438d811d99af1080020a0f4c9,59.3099056,-102.3921573,,Saskatchewan,50000,2004-11-02,"Saskatchewan-Ministry of Parks, Culture and Sport"
HAMJZ,Arner Lake,Undetermined,,Lake,Water Feature,LAKE,0c2e9b67849c20c3faa6dcfee8abc10e,54.8000683,-102.0503940,67-1-W2,Saskatchewan,250000,1952-02-06,"Saskatchewan-Ministry of Parks, Culture and Sport"
HAQHU,Arnfield Lake,Undetermined,,Lake,Water Feature,LAKE,0c303bcc849c20c312c42f58f7ce9ba1,52.3333257,-102.7338100,39-6-W2,Saskatchewan,250000,1952-01-17,"Saskatchewan-Ministry of Parks, Culture and Sport"
HAUXL,Arnheim Place,Undetermined,,Urban Community,Populated Place,UNP,0c325c1e849c20c3a82cdf8cda6fa9ce,50.4364288,-104.5866589,,Saskatchewan,50000,1984-02-20,"Saskatchewan-Ministry of Parks, Culture and Sport"
HAMKA,Arnold Coulee,Undetermined,,Coulee,Terrain Feature,VALL,0c2e9be8849c20c3da072017689e1428,49.7166934,-108.6173761,"10,11-9-20-W3",Saskatchewan,50000,1968-12-18,"Saskatchewan-Ministry of Parks, Culture and Sport"
HAMKC,Arnold Lake,Undetermined,,Lake,Water Feature,LAKE,0c2e9c68849c20c34bcba2277dfc9809,54.7667581,-109.0507879,"67-20,21-W3",Saskatchewan,250000,1952-07-03,"Saskatchewan-Ministry of Parks, Culture and Sport"
HASPM,Arnold River,Undetermined,,River,Water Feature,RIV,0c315a6f849c20c31554efd986d04555,58.1001281,-105.5505917,,Saskatchewan,250000,1964-02-27,"Saskatchewan-Ministry of Parks, Culture and Sport"
HAMKD,Aroma Lake,Undetermined,,Lake,Water Feature,LAKE,0c2e9c28849c20c39afa831494706efe,52.3000603,-108.5507025,,Saskatchewan,1000000,1924-03-31,"Saskatchewan-Ministry of Parks, Culture and Sport"
HAMKE,Aronson Island,Undetermined,,Island,Terrain Feature,ISL,0c2e9ce9849c20c3668bcb4c21672bb4,55.2667368,-104.8004432,,Saskatchewan,50000,1957-10-03,"Saskatchewan-Ministry of Parks, Culture and Sport"
HATNM,Arpiers,Undetermined,,Locality,Populated Place,UNP,0c31d5c8849c20c3d23d059aac072fdc,51.9500344,-105.7839251,34-17-W2,Saskatchewan,50000,1956-08-02,"Saskatchewan-Ministry of Parks, Culture and Sport"
HAQHT,Arps Lake,Undetermined,,Lake,Water Feature,LAKE,0c303aee849c20c3bb19ab528917c2ed,52.3666614,-102.7671413,39-6-W2,Saskatchewan,250000,1952-01-17,"Saskatchewan-Ministry of Parks, Culture and Sport"
HAPCQ,Arran,Undetermined,,Village,Populated Place,VILG,0c2fc419849c20c35a1c7f252159c3d8,51.8844681,-101.7186203,6-34-30-W,Saskatchewan,250000,1956-08-02,"Saskatchewan-Ministry of Parks, Culture and Sport"
HAMKF,Arrowhead Bay,Undetermined,,Bay,Water Feature,BAY,0c2e9ca9849c20c3d65c786a768d7c16,55.3167373,-104.6171026,,Saskatchewan,250000,1948-10-07,"Saskatchewan-Ministry of Parks, Culture and Sport"
HAMKG,Arrowhead Island,Undetermined,,Island,Terrain Feature,ISL,0c2e9d6b849c20c3b08e12a3ede251e9,55.1834012,-104.9671154,,Saskatchewan,250000,1952-03-06,"Saskatchewan-Ministry of Parks, Culture and Sport"
HAMKH,Arrowhead Lake,Undetermined,,Lake,Water Feature,LAKE,0c2e9d2a849c20c372905d8bfb664249,55.5500726,-104.4504343,,Saskatchewan,50000,1949-10-06,"Saskatchewan-Ministry of Parks, Culture and Sport"
HAPWP,Arsenault Lake,Undetermined,,Lake,Water Feature,LAKE,0c2ff6be849c20c3f8fa5b7fa0597ac5,55.1000869,-108.5340657,"70,71-17-W3",Saskatchewan,2000000,1932-05-03,"Saskatchewan-Ministry of Parks, Culture and Sport"
HAMKI,Arsenault River,Undetermined,,River,Water Feature,RIV,0c2e9dab849c20c37f6f12818a7b0803,55.1334197,-108.3673870,71-16-W3,Saskatchewan,250000,1962-09-27,"Saskatchewan-Ministry of Parks, Culture and Sport"
HAMKK,Arthur Lake,Undetermined,,Lake,Water Feature,LAKE,0c2e9deb849c20c3074e5b61829213f1,54.7167334,-101.9003876,66-30-W,Saskatchewan,50000,1958-09-04,"Saskatchewan-Ministry of Parks, Culture and Sport"
HATQI,Arthur Lake,Undetermined,,Lake,Water Feature,LAKE,0c31e449849c20c3f9594909724b3566,52.5666939,-105.4505422,41-24-W2,Saskatchewan,250000,1956-11-02,"Saskatchewan-Ministry of Parks, Culture and Sport"
HAMKJ,Arthur Lake,Undetermined,,Lake,Water Feature,LAKE,0cfed21a849c20c3e32f109fc790b053,52.4166660,-102.4671351,40-4-W2,Saskatchewan,250000,1951-06-07,"Saskatchewan-Ministry of Parks, Culture and Sport"
HAMKM,Artland,Undetermined,,Hamlet,Populated Place,UNP,523ffc96c6cd11d892e2080020a0f4c9,52.7000761,-109.8841001,7-43-27-W3,Saskatchewan,250000,1985-05-29,"Saskatchewan-Ministry of Parks, Culture and Sport"
HAMKO,Asbell Bay,Undetermined,,Bay,Water Feature,BAY,0c2e9e2d849c20c304a0e96803557f1b,55.8500759,-104.4171039,,Saskatchewan,50000,1965-10-21,"Saskatchewan-Ministry of Parks, Culture and Sport"
HAMKP,Ashdown Lake,Undetermined,,Lake,Water Feature,LAKE,0cfed27d849c20c387bd1b53e2055b9b,59.5002820,-106.0508403,,Saskatchewan,50000,1961-04-05,"Saskatchewan-Ministry of Parks, Culture and Sport"
HAMKQ,Ashe Lake,Undetermined,,Lake,Water Feature,LAKE,0c2e9e6d849c20c3ba1eb1f5717d79d6,52.8667157,-106.9005833,"45-6,7-W3",Saskatchewan,250000,1911-01-03,"Saskatchewan-Ministry of Parks, Culture and Sport"
HAMKR,Ashfield Island,Undetermined,,Island,Terrain Feature,ISL,0cfed300849c20c3da3146a6d8dde60f,55.1500677,-104.8337764,,Saskatchewan,50000,1960-03-03,"Saskatchewan-Ministry of Parks, Culture and Sport"
HAYLM,Ashley Lake,Undetermined,,Lake,Water Feature,LAKE,b2df862f849c214a178a6ccec129bb39,55.6431445,-107.1228695,,Saskatchewan,50000,2004-06-17,"Saskatchewan-Ministry of Parks, Culture and Sport"
HAMKU,Ashley Lake,Undetermined,,Lake,Water Feature,LAKE,0c2e9ead849c20c36f8cb24bd1c9c643,49.7833459,-102.3671602,"9,10-3-W2",Saskatchewan,50000,1956-08-02,"Saskatchewan-Ministry of Parks, Culture and Sport"
HASPX,Ashley Peninsula,Undetermined,,Peninsula,Terrain Feature,CAPE,0c315dde849c20c35f1540a9ea9b4960,58.1167998,-103.5504535,,Saskatchewan,250000,1960-01-21,"Saskatchewan-Ministry of Parks, Culture and Sport"
HAMKV,Ashworth Bay,Undetermined,,Bay,Water Feature,BAY,0c2e9f30849c20c314dcba5959095995,59.4335020,-104.8839633,,Saskatchewan,250000,1958-07-03,"Saskatchewan-Ministry of Parks, Culture and Sport"
HAXWF,Asimakaniseekan Askiy 102A,Cree,,Indian Reserve,Administrative Area,IR,f1436b88bbe211d892e2080020a0f4c9,52.1286894,-106.5857044,"22-46,47-6,7-W3",Saskatchewan,50000,,Indigenous and Northern Affairs Canada
HBAEK,Asimakaniseekan Askiy 102B,Undetermined,,Indian Reserve,Administrative Area,IR,1acd5f16361a40b8a5fc83d3839c6aea,52.1289020,-106.7098630,,Saskatchewan,50000,2012-11-29,Indigenous and Northern Affairs Canada
HAMKW,Asimwok Bay,Undetermined,,Bay,Water Feature,BAY,0c2e9eef849c20c35074a156f743abd2,56.7001118,-102.4336988,,Saskatchewan,50000,1958-06-05,"Saskatchewan-Ministry of Parks, Culture and Sport"
HAOXT,Asiski Lake,Undetermined,,Lake,Water Feature,LAKE,0cfeece3849c20c3f47eddff5b8cddc3,56.4500860,-104.0837660,,Saskatchewan,250000,1932-09-08,"Saskatchewan-Ministry of Parks, Culture and Sport"
HAMKY,Askew Lake,Undetermined,,Lake,Water Feature,LAKE,0c2e9f71849c20c3e7003fcec00d7f92,54.7834245,-109.0341212,"7,16-67-20-W3",Saskatchewan,250000,1952-07-03,"Saskatchewan-Ministry of Parks, Culture and Sport"
HAWRU,Aspen Cove,Undetermined,,Hamlet,Populated Place,UNP,0cc542bd849c20c3152f763904c03d34,53.5445350,-108.6895906,2-53-19-W3,Saskatchewan,50000,1994-03-15,"Saskatchewan-Ministry of Parks, Culture and Sport"
HAMKZ,Aspholm Lake,Undetermined,,Lake,Water Feature,LAKE,0c2ea009849c20c3319492bfabb5d604,57.1834378,-107.9006978,,Saskatchewan,250000,1958-12-04,"Saskatchewan-Ministry of Parks, Culture and Sport"
HAMLA,Asquith,Undetermined,,Town,Populated Place,TOWN,0c2e9fc7849c20c3aaef553f8a201357,52.1347731,-107.2266111,33-36-9-W3,Saskatchewan,1000000,1948-10-07,"Saskatchewan-Ministry of Parks, Culture and Sport"
HASXA,Asquith,Undetermined,,Railway Point,Populated Place,UNP,2661b64ac6ce11d892e2080020a0f4c9,52.1167132,-107.2173024,27-36-9-W3,Saskatchewan,250000,1985-05-29,"Saskatchewan-Ministry of Parks, Culture and Sport"
HAMLB,Assaf Islands,Undetermined,,Islands,Terrain Feature,ISL,0c2ea08c849c20c3a4bcf23cb796ae8c,59.3835380,-108.9340836,,Saskatchewan,50000,1954-04-01,"Saskatchewan-Ministry of Parks, Culture and Sport"
HARIU,Assembly Lakes,Undetermined,,Lakes,Water Feature,LAKE,0c30acd1849c20c38a8516563fdbe8dc,59.9501281,-109.3174699,,Saskatchewan,250000,1944-11-28,"Saskatchewan-Ministry of Parks, Culture and Sport"
HAOOY,Assiniboia,Undetermined,,Town,Populated Place,TOWN,0cfee9c2849c20c3516eb1e57a4630b2,49.6291139,-105.9886333,10-8-30-W2,Saskatchewan,7500000,1952-03-06,"Saskatchewan-Ministry of Parks, Culture and Sport"
HAUXM,Assiniboia East,Undetermined,,Urban Community,Populated Place,UNP,0c325bde849c20c30dc9101f9de6f4fe,50.4347618,-104.5783251,,Saskatchewan,50000,1984-02-20,"Saskatchewan-Ministry of Parks, Culture and Sport"
HAWHH,Assiniboia Regional Park,Undetermined,,Regional Park,Administrative Area,PARK,0c32ab0b849c20c368e5f509d714c71e,49.6111389,-105.8394622,10-8-30-W2,Saskatchewan,1000000,1977-12-31,"Saskatchewan-Ministry of Parks, Culture and Sport"
HAXVC,Assiniboine 76,Undetermined,,Indian Reserve,Administrative Area,IR,f06a226bbbe211d892e2080020a0f4c9,50.3459504,-103.5305157,"15,16-16-11-W2",Saskatchewan,50000,1972-06-01,Indigenous and Northern Affairs Canada
HAMLC,Assiniboine Elbow,Undetermined,,Elbow,Water Feature,RIVF,0c2ea04a849c20c358b7aa325dce296c,51.7666563,-102.0171305,32-1-W2,Saskatchewan,250000,1968-09-02,"Saskatchewan-Ministry of Parks, Culture and Sport"
HAQRC,Assiniboine River,Uncoded languages,,River,Water Feature,RIV,3cde58e9ba3411d892e2080020a0f4c9,51.2749909,-101.5337915,,Saskatchewan,5000000,1956-08-02,"Saskatchewan-Ministry of Parks, Culture and Sport"
HAMLD,Astleford Lake,Undetermined,,Lake,Water Feature,LAKE,0c2ea0cd849c20c35ab434b24dc9bf59,56.5667510,-105.1671507,,Saskatchewan,250000,1956-09-06,"Saskatchewan-Ministry of Parks, Culture and Sport"
HABEI,Astrolabe Lake,Undetermined,,Lake,Water Feature,LAKE,0c281024849c20c36ecc6c659a135e02,59.6502596,-105.8341322,,Saskatchewan,1000000,1935-01-10,"Saskatchewan-Ministry of Parks, Culture and Sport"
HAMLG,Atchakoos Lake,Undetermined,,Lake,Water Feature,LAKE,0c2ea10f849c20c31ef01db780176b0d,55.9000867,-102.6670425,,Saskatchewan,250000,1956-09-06,"Saskatchewan-Ministry of Parks, Culture and Sport"
HAMLH,Atchison Island,Undetermined,,Island,Terrain Feature,ISL,0cfed341849c20c3ee3a0b78a483813b,55.4334095,-103.1337250,,Saskatchewan,250000,1965-04-05,"Saskatchewan-Ministry of Parks, Culture and Sport"
HAMLI,Atchison Lake,Undetermined,,Lake,Water Feature,LAKE,0cfed3c4849c20c37bdef20669a41d34,54.8334206,-108.1673786,67-15-W3,Saskatchewan,50000,1969-09-19,"Saskatchewan-Ministry of Parks, Culture and Sport"
HAYOY,Atchison Lake,Undetermined,,Lake,Water Feature,LAKE,e33e358a38d311d99af1080020a0f4c9,59.1457290,-102.9046634,,Saskatchewan,50000,2004-11-02,"Saskatchewan-Ministry of Parks, Culture and Sport"
HAMLJ,Atchison Lake,Undetermined,,Lake,Water Feature,LAKE,0c2ea150849c20c35c0dbb8c907a8701,58.8503725,-108.8510527,,Saskatchewan,250000,1952-04-03,"Saskatchewan-Ministry of Parks, Culture and Sport"
HAWVE,Athabasca Sand Dunes Provincial Park,Undetermined,,Provincial Park,Administrative Area,PARK,1762ae02d05511d892e2080020a0f4c9,59.1580586,-108.6218949,,Saskatchewan,1000000,1998-06-01,"Saskatchewan-Ministry of Parks, Culture and Sport"
HAMLK,Athapapuskow Lake,Undetermined,,Lake,Water Feature,LAKE,444be5fdba3411d892e2080020a0f4c9,54.5500617,-101.8503856,,Saskatchewan,2000000,1924-03-31,"Saskatchewan-Ministry of Parks, Culture and Sport"
HAMLL,Atik Falls,Undetermined,,Falls,Water Feature,FALL,0c2ea191849c20c3f5b825d65c1eb5d9,55.6000778,-103.1837224,,Saskatchewan,50000,1956-09-06,"Saskatchewan-Ministry of Parks, Culture and Sport"
HBBOB,Atim Ka-Mihkosit,Undetermined,,Indian Reserve,Administrative Area,IR,cd191e6162334bb9818fc058e41ce317,50.4190576,-104.5815122,,Saskatchewan,50000,2018-11-22,Indigenous and Northern Affairs Canada
HARVD,Atkinson Bay,Undetermined,,Bay,Water Feature,BAY,0c30e35b849c20c302159094c09faf9d,54.3833874,-105.1671200,,Saskatchewan,250000,1964-01-28,"Saskatchewan-Ministry of Parks, Culture and Sport"
HAQDJ,Attica,Undetermined,,Railway Point,Populated Place,UNP,0cff0952849c20c38cd4e20e60eb15d4,51.9500297,-105.1005651,29-34-22-W2,Saskatchewan,250000,1956-08-02,"Saskatchewan-Ministry of Parks, Culture and Sport"
HAQBV,Attitti Bay,Undetermined,,Bay,Water Feature,BAY,0c301945849c20c3643aba276f0b9e1e,55.0667375,-102.4504091,,Saskatchewan,250000,1953-07-02,"Saskatchewan-Ministry of Parks, Culture and Sport"
HAMLO,Attitti Lake,Undetermined,,Lake,Water Feature,LAKE,0c2ea1d2849c20c351d2472a462dab04,55.1334062,-102.4670733,,Saskatchewan,1000000,1956-09-06,"Saskatchewan-Ministry of Parks, Culture and Sport"
HAMLP,Atton Lake,Undetermined,,Lake,Water Feature,LAKE,0c2ea253849c20c3406719993630a700,52.8500738,-108.8673778,"44,45-20-W3",Saskatchewan,250000,1958-03-06,"Saskatchewan-Ministry of Parks, Culture and Sport"
HAQFE,Atton's Lake Regional Park,Undetermined,,Regional Park,Administrative Area,PARK,0d021bcb849c20c3e1befc46324cc7d0,52.8334065,-108.8632108,44-20-W3,Saskatchewan,1000000,1965-12-31,"Saskatchewan-Ministry of Parks, Culture and Sport"
HAUZJ,Attree Creek,Undetermined,,Creek,Water Feature,RIV,0c326ac8849c20c30e3aeef465cee697,54.6833945,-102.6670912,66-5-W2,Saskatchewan,250000,1983-10-06,"Saskatchewan-Ministry of Parks, Culture and Sport"
HAMLQ,Attree Lake,Undetermined,,Lake,Water Feature,LAKE,0c2ea212849c20c39524a6ca0925a977,54.7167285,-102.6670911,66-5-W2,Saskatchewan,250000,1951-01-17,"Saskatchewan-Ministry of Parks, Culture and Sport"
HAMLR,Atwater,Undetermined,,Village,Populated Place,VILG,0d08dfa7849c20c39a5d194eda33ea65,50.7758139,-102.2269111,4-21-2-W2,Saskatchewan,250000,1950-05-04,"Saskatchewan-Ministry of Parks, Culture and Sport"
HAMLS,Atwater Lake,Undetermined,,Lake,Water Feature,LAKE,0cfed404849c20c314a268c844807a9d,56.8000938,-103.6170901,,Saskatchewan,50000,1963-08-19,"Saskatchewan-Ministry of Parks, Culture and Sport"
HAMLT,Aubichon Arm,Undetermined,,Arm,Water Feature,BAY,0c2ea2d5849c20c3c0bf2aeb70a3a97d,55.5500855,-108.0006975,,Saskatchewan,1000000,1931-08-04,"Saskatchewan-Ministry of Parks, Culture and Sport"
HAMLU,Aubichon Lake,Undetermined,,Lake,Water Feature,LAKE,0c2ea294849c20c3120f8a198dea9a69,54.6000871,-107.8340315,65-13-W3,Saskatchewan,250000,1932-01-05,"Saskatchewan-Ministry of Parks, Culture and Sport"
HAMLW,Auburnton,Undetermined,,Locality,Populated Place,UNP,0cfed44e849c20c3e15e2d08a99faef6,49.4000195,-102.0837914,21-5-1-W2,Saskatchewan,250000,1952-02-06,"Saskatchewan-Ministry of Parks, Culture and Sport"
HAMLX,Auburnton Creek,Undetermined,,Creek,Water Feature,RIV,0c2ea357849c20c3dff032d421a50b7a,49.3000195,-101.9671187,14-4-34-W,Saskatchewan,1000000,1955-01-20,"Saskatchewan-Ministry of Parks, Culture and Sport"
HAMLY,Augen Lake,Undetermined,,Lake,Water Feature,LAKE,0c2ea316849c20c3f9c67f84daf8a83a,59.5502032,-105.7007171,,Saskatchewan,250000,1960-03-03,"Saskatchewan-Ministry of Parks, Culture and Sport"
HAMLZ,Augier Lake,Undetermined,,Lake,Water Feature,LAKE,0c2ea3d8849c20c3247393ac828ea32c,59.6001828,-108.7840563,,Saskatchewan,50000,1955-11-03,"Saskatchewan-Ministry of Parks, Culture and Sport"
HAMMA,August Lake,Undetermined,,Lake,Water Feature,LAKE,0c2ea398849c20c34e7d30a6be0e19b1,55.8000714,-105.5504825,,Saskatchewan,250000,1961-01-19,"Saskatchewan-Ministry of Parks, Culture and Sport"
HAMMB,Auld Lake,Undetermined,,Lake,Water Feature,LAKE,0c2ea460849c20c3cdbdb3823fbe22cd,55.8834085,-104.5837774,,Saskatchewan,50000,1959-03-05,"Saskatchewan-Ministry of Parks, Culture and Sport"
HAMMC,Auriat Island,Undetermined,,Island,Terrain Feature,ISL,0c2ea41a849c20c3120cbb208c8202cc,57.4667764,-106.5339526,,Saskatchewan,250000,1956-05-03,"Saskatchewan-Ministry of Parks, Culture and Sport"
HAUZG,Ausland Lake,Undetermined,,Lake,Water Feature,LAKE,0c3269ea849c20c3270a56a4a2290831,55.8000881,-108.1340387,,Saskatchewan,250000,1983-10-25,"Saskatchewan-Ministry of Parks, Culture and Sport"
HAMMD,Auto Lake,Undetermined,,Lake,Water Feature,LAKE,0c2ea4e3849c20c38ab08bbd092f6bae,52.6000742,-109.6674208,9-42-26-W3,Saskatchewan,250000,1939-12-12,"Saskatchewan-Ministry of Parks, Culture and Sport"
HATKV,Auvergne No. 76,Undetermined,,Rural Municipality,Administrative Area,MUN2,0c31c7a5849c20c37f82546818feb55c,49.6613370,-107.4387666,,Saskatchewan,50000,1980-04-01,"Saskatchewan-Ministry of Parks, Culture and Sport"
HAMME,Ava,Undetermined,,Railway Point,Populated Place,UNP,0c2ea4a1849c20c3d0f5a89777e9ce45,51.8500554,-108.6173832,33-19-W3,Saskatchewan,250000,1962-08-13,"Saskatchewan-Ministry of Parks, Culture and Sport"
HAVEN,Avalon,Undetermined,,Urban Community,Populated Place,UNP,0c326b4d849c20c3d37fd3b120290524,52.0967098,-106.6561674,,Saskatchewan,50000,1984-08-20,"Saskatchewan-Ministry of Parks, Culture and Sport"
HAMMF,Avebury,Undetermined,,Locality,Populated Place,UNP,0c2ea526849c20c398263fa3d64200a5,53.1500485,-106.9839121,17-48-7-W3,Saskatchewan,250000,1934-11-17,"Saskatchewan-Ministry of Parks, Culture and Sport"
HAUST,Avery,Undetermined,,Railway Point,Populated Place,UNP,0c323fc9849c20c3857bfce971540772,53.2500738,-107.9839807,28-49-14-W3,Saskatchewan,250000,1956-10-04,"Saskatchewan-Ministry of Parks, Culture and Sport"
HAMMG,Avonhurst,Undetermined,,Hamlet,Populated Place,UNP,236d2e22c6ce11d892e2080020a0f4c9,50.6333728,-104.1338690,26-19-16-W2,Saskatchewan,250000,1985-05-29,"Saskatchewan-Ministry of Parks, Culture and Sport"
HACMR,Avonlea,Undetermined,,Village,Populated Place,VILG,0d094220849c20c3fec34d008c53507d,50.0124944,-105.0588278,22-12-23-W2,Saskatchewan,1000000,1954-07-08,"Saskatchewan-Ministry of Parks, Culture and Sport"
HACMS,Avonlea Creek,Undetermined,,Creek,Water Feature,RIV,0c28d7a3849c20c34a19cfa317e02799,50.1500365,-104.9505566,4-14-22-W2,Saskatchewan,1000000,1952-03-06,"Saskatchewan-Ministry of Parks, Culture and Sport"
HATNU,Axe Lake,Undetermined,,Lake,Water Feature,LAKE,0c31d691849c20c3b0c783d65aef94b0,51.5333676,-105.2172457,29-23-W2,Saskatchewan,250000,1956-08-02,"Saskatchewan-Ministry of Parks, Culture and Sport"
HACMT,Axford,Undetermined,,Railway Point,Populated Place,UNP,0c28d764849c20c34ecf7e483c947cab,49.6500337,-104.4172127,17-8-18-W2,Saskatchewan,250000,1950-03-02,"Saskatchewan-Ministry of Parks, Culture and Sport"
HABBU,Axis Lake,Undetermined,,Lake,Water Feature,LAKE,0c27fc31849c20c32faa31d904fad0f3,59.3503452,-106.0009261,,Saskatchewan,250000,1947-01-07,"Saskatchewan-Ministry of Parks, Culture and Sport"
HACMU,Axton Coulee,Undetermined,,Coulee,Terrain Feature,VALL,0c28d82e849c20c37dd0cc7c465df4b9,49.6000242,-108.7340466,"26,35-7-21-W3",Saskatchewan,50000,1968-12-16,"Saskatchewan-Ministry of Parks, Culture and Sport"
HACMV,Ayissowa Lake,Undetermined,,Lake,Water Feature,LAKE,0c28d7e1849c20c370d6e7767907c77a,55.6834068,-104.3671008,,Saskatchewan,50000,1957-10-03,"Saskatchewan-Ministry of Parks, Culture and Sport"
HACMW,Aylesbury,Undetermined,,Village,Populated Place,VILG,0cfe6035849c20c34e909622de0f509b,50.9391667,-105.6940667,10-23-27-W2,Saskatchewan,250000,1954-07-08,"Saskatchewan-Ministry of Parks, Culture and Sport"
HACMX,Aylsham,Undetermined,,Village,Populated Place,VILG,0cfe6077849c20c37173441989b2d53e,53.1915694,-103.8027419,2-49-13-W2,Saskatchewan,1000000,1947-09-04,"Saskatchewan-Ministry of Parks, Culture and Sport"
HAKOG,B-Say-Tah,Undetermined,,Resort Village,Populated Place,VILG,5088d68cc6cd11d892e2080020a0f4c9,50.7808721,-103.8373860,23-21-14-W2,Saskatchewan,250000,1985-05-29,"Saskatchewan-Ministry of Parks, Culture and Sport"
HACMZ,Babcook Bay,Undetermined,,Bay,Water Feature,BAY,0c28d86d849c20c3788206278d3458ee,59.5835126,-104.3672733,,Saskatchewan,250000,1958-07-03,"Saskatchewan-Ministry of Parks, Culture and Sport"
HACNA,Babey Lake,Undetermined,,Lake,Water Feature,LAKE,0c28d929849c20c37897c30e84ff5a64,55.9500775,-104.1670949,,Saskatchewan,50000,1965-10-25,"Saskatchewan-Ministry of Parks, Culture and Sport"
HACNB,Babiche Lake,Undetermined,,Lake,Water Feature,LAKE,0c28d8d1849c20c3ab7a6904df1fa794,58.9334987,-103.5671718,,Saskatchewan,250000,1950-06-02,"Saskatchewan-Ministry of Parks, Culture and Sport"
HACNC,Baby Gull Islands,Undetermined,,Islands,Terrain Feature,ISL,0c28d9c3849c20c347cdef6b57e4e99f,55.1834017,-104.7171054,,Saskatchewan,50000,1959-12-10,"Saskatchewan-Ministry of Parks, Culture and Sport"
HACND,Bachelu Lake,Undetermined,,Lake,Water Feature,LAKE,0c28d983849c20c3d2532a419bda03cd,57.4334504,-103.5170977,,Saskatchewan,250000,1957-06-06,"Saskatchewan-Ministry of Parks, Culture and Sport"
HACNE,Bachman Lake,Undetermined,,Lake,Water Feature,LAKE,0cfe60b8849c20c317f8e9d3069768d3,57.4501089,-105.7339094,,Saskatchewan,250000,1965-09-10,"Saskatchewan-Ministry of Parks, Culture and Sport"
HACNF,Bachmeier Lake,Undetermined,,Lake,Water Feature,LAKE,0c28da49849c20c337153f6c4a51dbb3,56.5834188,-104.9338060,,Saskatchewan,250000,1956-09-06,"Saskatchewan-Ministry of Parks, Culture and Sport"
HACNG,Backes Island,Undetermined,,Island,Terrain Feature,ISL,0c28daea849c20c34fd57e6ad9d20c1a,54.9667503,-109.7008335,,Saskatchewan,250000,1952-07-03,"Saskatchewan-Ministry of Parks, Culture and Sport"
HAWAW,Backes Island Wildlife Refuge,Undetermined,,Wildlife Refuge,Administrative Area,PARK,0c329e20849c20c359c5f4bf6c5df2ed,54.9667503,-109.7008335,,Saskatchewan,1000000,1985-05-29,"Saskatchewan-Ministry of Parks, Culture and Sport"
HACNH,Backus Lake,Undetermined,,Lake,Water Feature,LAKE,0c28da88849c20c35e73367b6e4abd9e,59.6001775,-105.4340039,,Saskatchewan,50000,1961-07-05,"Saskatchewan-Ministry of Parks, Culture and Sport"
HACNK,Bad Carrot Lake,Undetermined,,Lake,Water Feature,LAKE,0c28dc10849c20c3b7c03b06b01c5073,54.6833955,-102.9004214,"65,66-6-W2",Saskatchewan,250000,1949-10-06,"Saskatchewan-Ministry of Parks, Culture and Sport"
HACNL,Bad Carrot River,Undetermined,,River,Water Feature,RIV,0c28db68849c20c303c2819d022e351d,54.6833956,-102.8837549,66-6-W2,Saskatchewan,250000,1949-10-06,"Saskatchewan-Ministry of Parks, Culture and Sport"
HACNJ,Bad Lake,Undetermined,,Lake,Water Feature,LAKE,0c28db2a849c20c3da9021257b07c757,51.3833837,-108.4340394,28-18-W3,Saskatchewan,1000000,1962-02-22,"Saskatchewan-Ministry of Parks, Culture and Sport"
HACNM,Bader Lake,Undetermined,,Lake,Water Feature,LAKE,0c28dd05849c20c3fa2aa6e3d3060be7,57.6834469,-108.5507589,,Saskatchewan,250000,1958-07-03,"Saskatchewan-Ministry of Parks, Culture and Sport"
HACNN,Badger Island,Undetermined,,Island,Terrain Feature,ISL,0c28dc52849c20c30bfddcc21865c56e,53.1500432,-105.9171860,,Saskatchewan,250000,1956-11-02,"Saskatchewan-Ministry of Parks, Culture and Sport"
HACNO,Badger Lake,Undetermined,,Lake,Water Feature,LAKE,0c28dd69849c20c36e846673c760a1c2,55.9500763,-104.5504436,,Saskatchewan,50000,1959-03-05,"Saskatchewan-Ministry of Parks, Culture and Sport"
HACNQ,Badgerville,Undetermined,,Locality,Populated Place,UNP,0c28de62849c20c3f874ddf8c310b2a8,51.6333233,-101.9171293,34-30-32-W,Saskatchewan,1000000,1967-08-25,"Saskatchewan-Ministry of Parks, Culture and Sport"
HACNR,Badland Lake,Undetermined,,Lake,Water Feature,LAKE,0c28de21849c20c368db053d99bc5730,49.4166869,-108.3340218,27-5-18-W3,Saskatchewan,50000,1966-05-11,"Saskatchewan-Ministry of Parks, Culture and Sport"
HASRZ,Badwater River,Undetermined,,River,Water Feature,RIV,0c316a39849c20c3a6ae4afaee7f0700,58.5835855,-105.7341151,,Saskatchewan,2000000,1947-01-07,"Saskatchewan-Ministry of Parks, Culture and Sport"
HAVGT,Bag Island,Undetermined,,Island,Terrain Feature,ISL,0c327893849c20c3176730d52b99dacd,55.1334012,-104.5670989,,Saskatchewan,50000,1959-12-10,"Saskatchewan-Ministry of Parks, Culture and Sport"
HACNU,Bagshaw Lakes,Undetermined,,Lakes,Water Feature,LAKE,0c28df23849c20c38f6435338951368f,55.3500710,-104.5837682,,Saskatchewan,50000,1966-11-25,"Saskatchewan-Ministry of Parks, Culture and Sport"
HAOEZ,Bague Bay,Undetermined,,Bay,Water Feature,BAY,0c2f7a9a849c20c3a68f48a233d4350c,55.4167358,-105.3504661,,Saskatchewan,1000000,1967-02-10,"Saskatchewan-Ministry of Parks, Culture and Sport"
HARXK,Bagwa Lake,Undetermined,,Lake,Water Feature,LAKE,0c30ead2849c20c3f89165fd847397e0,54.0667216,-106.5338620,59-4-W3,Saskatchewan,250000,1929-03-05,"Saskatchewan-Ministry of Parks, Culture and Sport"
HACNV,Bahnuick Lake,Undetermined,,Lake,Water Feature,LAKE,0c28dedf849c20c3d555755c0d00411a,59.6001795,-108.8007171,,Saskatchewan,50000,1958-06-05,"Saskatchewan-Ministry of Parks, Culture and Sport"
HACNW,Baht Lake,Undetermined,,Lake,Water Feature,LAKE,0c28dfa2849c20c3a91ec0280a09a5f3,54.8333989,-102.3504107,67-3-W2,Saskatchewan,250000,1952-02-06,"Saskatchewan-Ministry of Parks, Culture and Sport"
HAQDI,Baildon,Undetermined,,Hamlet,Populated Place,UNP,253fa45ec6ce11d892e2080020a0f4c9,50.2666940,-105.4672370,24-15-26-W2,Saskatchewan,250000,1985-05-29,"Saskatchewan-Ministry of Parks, Culture and Sport"
HATJM,Baildon No. 131,Undetermined,,Rural Municipality,Administrative Area,MUN2,0c31bfc0849c20c390621d4f88d28b35,50.1783358,-105.4954861,,Saskatchewan,50000,1980-04-01,"Saskatchewan-Ministry of Parks, Culture and Sport"
HACNX,Bailey Creek,Undetermined,,Creek,Water Feature,RIV,0c28df63849c20c3d705b4e79c3e2535,53.6833846,-103.6004391,54-11-W2,Saskatchewan,250000,1952-01-17,"Saskatchewan-Ministry of Parks, Culture and Sport"
HACNY,Bailey Island,Undetermined,,Island,Terrain Feature,ISL,0c28e08f849c20c3b3656a26637d9b86,54.9834180,-109.6841670,,Saskatchewan,250000,1952-07-03,"Saskatchewan-Ministry of Parks, Culture and Sport"
HARGY,Bailey Lake,Undetermined,,Lake,Water Feature,LAKE,0c30a251849c20c3875f5a942adab10f,59.9002030,-103.0338920,,Saskatchewan,1000000,1950-04-06,"Saskatchewan-Ministry of Parks, Culture and Sport"
HACNZ,Bailey Lake,Undetermined,,Lake,Water Feature,LAKE,0c28e043849c20c36d9572bb223da28c,55.7834107,-103.6670739,,Saskatchewan,250000,1956-09-06,"Saskatchewan-Ministry of Parks, Culture and Sport"
HATGE,Bailey Lake,Undetermined,,Lake,Water Feature,LAKE,0c31b04c849c20c3fb1532f0648868cf,57.1667703,-104.4338007,,Saskatchewan,250000,1964-02-27,"Saskatchewan-Ministry of Parks, Culture and Sport"
HASVL,Bainbridge Lake,Undetermined,,Lake,Water Feature,LAKE,0c31780e849c20c39d163ca8503d3080,53.6000411,-101.9671073,53-31-W,Saskatchewan,250000,1950-04-06,"Saskatchewan-Ministry of Parks, Culture and Sport"
HACOA,Bainbridge River,Undetermined,,River,Water Feature,RIV,2125068cc6be11d892e2080020a0f4c9,53.5500405,-101.9837749,53-31-W,Saskatchewan,250000,1974-05-30,"Saskatchewan-Ministry of Parks, Culture and Sport"
HACOB,Baird,Undetermined,,Railway Point,Populated Place,UNP,0c28e0d1849c20c33eb14b4ed5d3327c,50.3500327,-107.6506671,16-12-W3,Saskatchewan,50000,1956-04-05,"Saskatchewan-Ministry of Parks, Culture and Sport"
HACOC,Baird Lake,Undetermined,,Lake,Water Feature,LAKE,0c28e190849c20c35e5199de024e4c84,53.9333946,-103.8504097,57-13-W2,Saskatchewan,250000,1952-01-17,"Saskatchewan-Ministry of Parks, Culture and Sport"
HACOD,Bakalar Lake,Undetermined,,Lake,Water Feature,LAKE,0c28e150849c20c3b6a709113e14e180,59.5668606,-102.9171766,,Saskatchewan,250000,1958-06-05,"Saskatchewan-Ministry of Parks, Culture and Sport"
HACOE,Baker Coulee,Undetermined,,Coulee,Terrain Feature,VALL,0c28e218849c20c3350e2c0007c12b76,49.6166911,-108.7673819,"8,9,10-8-21-W3",Saskatchewan,50000,1972-04-24,"Saskatchewan-Ministry of Parks, Culture and Sport"
HASNI,Baker Creek,Undetermined,,Creek,Water Feature,RIV,0cff2c94849c20c30424f6ea9e5bc150,57.1500996,-107.1506402,,Saskatchewan,250000,1967-12-15,"Saskatchewan-Ministry of Parks, Culture and Sport"
HACOF,Baker Island,Undetermined,,Island,Terrain Feature,ISL,0c28e1da849c20c3668bc6d3ba776ad9,55.0000867,-109.5841638,,Saskatchewan,250000,1952-07-03,"Saskatchewan-Ministry of Parks, Culture and Sport"
HASAH,Baker Lake,Undetermined,,Lake,Water Feature,LAKE,0c30f87f849c20c34b12ef87875a7ae7,56.7167599,-107.5006523,,Saskatchewan,250000,1954-11-04,"Saskatchewan-Ministry of Parks, Culture and Sport"
HACOG,Balcarres,Undetermined,,Town,Populated Place,TOWN,48b97ad7c6cd11d892e2080020a0f4c9,50.8049556,-103.5442500,13-21-12-W2,Saskatchewan,1000000,1951-12-31,"Saskatchewan-Ministry of Parks, Culture and Sport"
HACOH,Bald Butte,Undetermined,,Butte,Terrain Feature,MTN,0c28e26a849c20c389df7b7b5a5fc87c,49.4000286,-106.0672467,22-5-1-W3,Saskatchewan,50000,1966-03-07,"Saskatchewan-Ministry of Parks, Culture and Sport"
HACOI,Baldhead Lake,Undetermined,,Lake,Water Feature,LAKE,0c28e2e7849c20c342b78a545dc990ba,55.4334050,-104.8671141,,Saskatchewan,50000,1963-07-23,"Saskatchewan-Ministry of Parks, Culture and Sport"
HACOJ,Baldwin Lake,Undetermined,,Lake,Water Feature,LAKE,0c28e2a9849c20c3d10e60ed7efc1413,55.4334065,-104.1004202,,Saskatchewan,50000,1954-06-03,"Saskatchewan-Ministry of Parks, Culture and Sport"
HACOK,Baldwinson Lakes,Undetermined,,Lakes,Water Feature,LAKE,0c28e3c9849c20c3f41c9f2fc071aab3,57.1667682,-106.8506252,,Saskatchewan,250000,1958-04-03,"Saskatchewan-Ministry of Parks, Culture and Sport"
HACOL,Baldwinton,Undetermined,,Hamlet,Populated Place,UNP,0c28e38a849c20c33da05f866b8669d9,52.7834086,-109.2674000,15-44-23-W3,Saskatchewan,250000,1939-12-12,"Saskatchewan-Ministry of Parks, Culture and Sport"
HACOM,Baldy Lake,Undetermined,,Lake,Water Feature,LAKE,0c28e407849c20c305c438449dcaa1b7,54.1000570,-104.6337696,59-18-W2,Saskatchewan,250000,1952-03-06,"Saskatchewan-Ministry of Parks, Culture and Sport"
HACOO,Balgonie,Undetermined,,Town,Populated Place,TOWN,0c28e45b849c20c32945fd1c32b2a329,50.4914583,-104.2629111,3-18-17-W2,Saskatchewan,1000000,1953-05-07,"Saskatchewan-Ministry of Parks, Culture and Sport"
HACOP,Baljennie,Undetermined,,Hamlet,Populated Place,UNP,1ea03d4ec6ce11d892e2080020a0f4c9,52.5500594,-107.9006561,24-41-14-W3,Saskatchewan,250000,1985-05-29,"Saskatchewan-Ministry of Parks, Culture and Sport"
HATUT,Baljennie Creek,Undetermined,,Creek,Water Feature,RIV,0c31fb8f849c20c319373cff6f6b2522,52.5667275,-107.9673275,41-14-W3,Saskatchewan,250000,1962-05-17,"Saskatchewan-Ministry of Parks, Culture and Sport"
HACOQ,Ball Island,Undetermined,,Island,Terrain Feature,ISL,0c28e55c849c20c3dcef56cae1233078,55.5667386,-104.6337749,,Saskatchewan,50000,1952-07-03,"Saskatchewan-Ministry of Parks, Culture and Sport"
HAOEY,Ball Lake,Undetermined,,Lake,Water Feature,LAKE,0c2f7adb849c20c3cb82255f66503f05,55.4667379,-105.1671263,,Saskatchewan,50000,1964-01-14,"Saskatchewan-Ministry of Parks, Culture and Sport"
HACOR,Ball Lake,Undetermined,,Lake,Water Feature,LAKE,0c28e4af849c20c347ae4954a2b00c65,53.9833852,-103.0504454,58-8-W2,Saskatchewan,250000,1952-01-17,"Saskatchewan-Ministry of Parks, Culture and Sport"
HACOS,Ballantyne Bay,Undetermined,,Bay,Water Feature,BAY,0c28e59c849c20c3f2938fcd5ba42e59,54.6667324,-103.5504076,,Saskatchewan,1000000,1910-12-06,"Saskatchewan-Ministry of Parks, Culture and Sport"
HASMK,Ballantyne Lake,Undetermined,,Lake,Water Feature,LAKE,0c3143d7849c20c32ef5d3a4ca1cd5fc,57.1834340,-107.5339998,,Saskatchewan,250000,1956-09-06,"Saskatchewan-Ministry of Parks, Culture and Sport"
HACOT,Ballantyne River,Undetermined,,River,Water Feature,RIV,0cfe6101849c20c329ab224b5aa00936,54.6333990,-103.7170747,65-12-W2,Saskatchewan,2000000,1910-12-06,"Saskatchewan-Ministry of Parks, Culture and Sport"
HACOU,Ballentin Island,Undetermined,,Island,Terrain Feature,ISL,0c28e626849c20c311cbedc0a28732fd,57.5667952,-102.4503833,,Saskatchewan,250000,1936-07-15,"Saskatchewan-Ministry of Parks, Culture and Sport"
HACOV,Baller Island,Undetermined,,Island,Terrain Feature,ISL,0c28e5e7849c20c3b369271e42136755,54.9667357,-102.3337418,,Saskatchewan,50000,1952-02-06,"Saskatchewan-Ministry of Parks, Culture and Sport"
