CGNDB ID,Geographical Name,Generic Term,Latitude,Longitude,Location
FIDTE,Airport Road Conservation Reserve,Conservation Reserve,49.8263590,-92.7631630,Zealand
FBCIY,Elmcrest Creek,Creek,43.6457960,-79.5829670,York; Peel
FCKPV,Renforth Creek,Creek,43.6277690,-79.5674940,York; Peel
FEUZF,Island Lake,Lake,44.0472220,-79.2527780,York; Ontario
FCMKS,Rouge Valley,Valley,43.8027778,-79.1441667,York; Ontario
FABWE,Agincourt,Urban Community,43.7926100,-79.2838900,York
FABWF,Agincourt North,Urban Community,43.8027778,-79.2686111,York
FACEU,Alder,Dispersed Rural Community,44.1836300,-79.3837300,York
FACFR,Alderwood,Urban Community,43.6086300,-79.5387500,York
FACJS,Algonquin Island,Island,43.6275610,-79.3598740,York
FACPZ,Almira,Dispersed Rural Community,43.9322222,-79.3366666,York
FADHQ,Ansnorveldt,Compact Rural Community,44.0801700,-79.5400000,York
FADQB,Armadale,Compact Rural Community,43.8371900,-79.2579200,York
FADQN,Armitage,Urban Community,44.0336111,-79.4761111,York
FADRE,Armour Heights,Urban Community,43.7433333,-79.4300000,York
FADWW,Ashbridges Bay,Bay,43.6598300,-79.3143700,York
FDJFO,Aurora,Town,43.9976300,-79.4698800,York
FEGBX,Baby Point,Urban Community,43.6555555,-79.4930556,York
FAELS,Bald Point,Point,44.3688889,-79.2611111,York
FAEMC,Bald Shoal,Shoal,44.3680556,-79.2513889,York
FAEMF,Baldwin,Dispersed Rural Community,44.2626100,-79.3422900,York
FAENA,Balfour Beach,Compact Rural Community,44.2662900,-79.4948400,York
FAENL,Ballantrae,Compact Rural Community,44.0355555,-79.2986111,York
FAEPR,Balmy Beach,Beach,43.6694444,-79.2861111,York
FAFPM,Bayview Village,Urban Community,43.7763889,-79.3802778,York
FAGDC,Beaumonde Heights,Urban Community,43.7417600,-79.5731700,York
FAGEN,Beaver Creek,Creek,43.8474130,-79.3348950,York
FAGPK,Bedford Park,Urban Community,43.7381700,-79.4090300,York
FAGXR,Belhaven,Dispersed Rural Community,44.2627778,-79.4286111,York
FAHAJ,Bell's Lake,Lake,43.9433110,-79.6626780,York
FAGVO,Bellamy Ravine Creek,Creek,43.7267380,-79.2139570,York
FAHBX,Bendale,Urban Community,43.7638889,-79.2555555,York
FEDOY,Bennington Heights,Urban Community,43.6941667,-79.3722222,York
FAHGY,Berczy Creek,Creek,43.8745190,-79.3184680,York
FAHJK,Berry Creek,Creek,43.7186260,-79.5436730,York
FAHNP,Bethesda,Dispersed Rural Community,43.9667200,-79.3573300,York
FAHPH,Beverley Acres,Urban Community,43.8725000,-79.4191667,York
FAHPJ,Beverley Hills,Dispersed Rural Community,44.1987600,-79.4751000,York
FAHPM,Beverley Isles,Dispersed Rural Community,44.1986111,-79.4805556,York
FAIHP,Big Shoal,Shoal,44.3950000,-79.2625000,York
FAYKN,Birch Cliff,Urban Community,43.6889300,-79.2732300,York
FAISL,Birchmount Park,Urban Community,43.7105556,-79.2697222,York
FAJFN,Black Creek,Creek,43.6691310,-79.5114820,York
FAJQB,Black River,River,44.3226200,-79.3466600,York
FAJDW,Blackbird Point,Point,44.3938889,-79.3130556,York
FAJZI,Blockhouse Bay,Bay,43.6237690,-79.3883150,York
FAKAD,Bloomington,Dispersed Rural Community,44.0054000,-79.2646700,York
FAKAH,Bloordale Gardens,Urban Community,43.6378500,-79.5673600,York
FDJHX,Bogart Creek,Creek,44.0577778,-79.4566666,York
FDJIE,Bogarttown,Dispersed Rural Community,44.0451100,-79.4245800,York
FAKJA,Bond Lake,Lake,43.9333350,-79.4484640,York
FALBQ,Box Grove,Compact Rural Community,43.8580556,-79.2305556,York
FIEXY,Boyd Conservation Area,Conservation Area,43.8095090,-79.5857330,York
FALPB,Briars Park,Compact Rural Community,44.3204000,-79.3487700,York
FALQP,Brigantine Cove,Cove,43.6283100,-79.4076000,York
FALRK,Brighton Beach,Dispersed Rural Community,44.2831900,-79.4894600,York
FAMAF,Brown Hill,Compact Rural Community,44.2226300,-79.3293900,York
FEQSV,Brown's Corners,Urban Community,43.8497222,-79.3586111,York
FEABC,Browns Corners,Railway Point,43.8123600,-79.2467600,York
FAMDL,Bruce Creek,Creek,43.8656490,-79.3059890,York
FIEXZ,Bruce's Mill Conservation Area,Conservation Area,43.9469480,-79.3436050,York
FANMF,Buttonville,Compact Rural Community,43.8643300,-79.3625000,York
FEDPB,Cabbagetown,Urban Community,43.6633333,-79.3655555,York
FEQSW,Cachet,Urban Community,43.8883334,-79.3450000,York
FAPCH,Carrville,Compact Rural Community,43.8472222,-79.4591666,York
FAPGL,Cashel,Dispersed Rural Community,43.9155555,-79.3225000,York
FAPKR,Cedar Grove,Compact Rural Community,43.8579100,-79.2035900,York
FAPON,Cedar Valley,Dispersed Rural Community,44.0641667,-79.3544445,York
FAPJO,Cedarbrae,Dispersed Rural Community,44.2470300,-79.2843200,York
FAPOL,Cedarvale,Urban Community,43.6930556,-79.4291666,York
FAPPL,Centennial,Urban Community,43.7839100,-79.1574000,York
FAPQT,Centre Island,Island,43.6175000,-79.3744445,York
FAQID,Cherry,Railway Point,43.9704200,-79.4735600,York
FARWO,Cherry Beach,Beach,43.6355555,-79.3441667,York
FAQKC,Chestnut Hills,Urban Community,43.6597222,-79.5230556,York
FESVN,Chippewas of Georgina Island First Nation,Indian Reserve,44.3813890,-79.2883330,York
FESVO,Chippewas of Georgina Island First Nation 33A,Indian Reserve,44.3268969,-79.2874258,York
FAQYW,Claireville,Locality,43.7500000,-79.6366667,York
FAQZB,Clairlea,Urban Community,43.7155555,-79.2938889,York
FARAU,Clardon Beach,Dispersed Rural Community,44.2336111,-79.4680556,York
FARDU,Clarks Corners,Urban Community,43.7947223,-79.3030555,York
FARLK,Clearview Heights,Urban Community,43.9234800,-79.5229500,York
FARPB,Cliffcrest,Urban Community,43.7242200,-79.2256600,York
FARPX,Cliffside,Urban Community,43.7075000,-79.2547222,York
FARVU,Coatsworth Cut,Cut,43.6544400,-79.3151400,York
FASCE,Cold Creek,Creek,43.8869460,-79.7164980,York
FASNC,Concord,Urban Community,43.8083333,-79.4688889,York
FASUA,Cook Creek,Creek,43.7466666,-79.5419445,York
FASVH,Cook's Bay,Bay,44.2421000,-79.5035800,York
FATUO,Craigmawr Beach,Dispersed Rural Community,44.2386800,-79.4729400,York
FAUDY,Crescent Beach,Compact Rural Community,44.3105556,-79.4413889,York
FEDPH,Crescent Town,Urban Community,43.6977778,-79.2938889,York
FAVGW,Danforth Station,Railway Point,43.6861111,-79.2997222,York
FAYKP,Davisville,Urban Community,43.7019445,-79.3888889,York
FAWAK,Deep Pike Cut,Cut,43.6244444,-79.3841667,York
FAWEP,Deer Park,Urban Community,43.6797222,-79.4111111,York
FAWEM,Deerlick Creek,Creek,43.7651150,-79.3582270,York
FAWHX,Del Ray,Urban Community,43.7036200,-79.4831700,York
FEQSX,Dickson Hill,Compact Rural Community,43.9430555,-79.2775000,York
FDJUA,Dicksons Hill,Hill,43.9433333,-79.2758334,York
FAWSH,Dike Pond,Pond,44.1106420,-79.3987470,York
FAZET,Don Mills,Urban Community,43.7358334,-79.3419445,York
FAZFQ,Don River,River,43.6500000,-79.3500000,York
FAZFV,Don River East Branch,Branch,43.7032030,-79.3353730,York
FAZFW,Don River West Branch,Branch,43.7032080,-79.3353780,York
FEDPL,Don Vale,Urban Community,43.6727778,-79.3655555,York
FAZKK,Dorset Park,Urban Community,43.7525000,-79.2805556,York
FAZPJ,Downsview,Urban Community,43.7307300,-79.4905600,York
FBADT,Duclos Point,Point,44.3583200,-79.2495500,York
FBADS,Duclos Point,Dispersed Rural Community,44.3512100,-79.2496000,York
FEPTA,Duclos Point Provincial Nature Reserve,Provincial Nature Reserve,44.3330840,-79.2390480,York
FBAEZ,Dufferin Creek,Creek,43.7697620,-79.4641800,York
FBAKW,Duncan Woods Creek,Creek,43.8082080,-79.3715430,York
FEEUC,East Gwillimbury,Town,44.1391667,-79.4238889,York
FEEUB,East Gwillimbury,Geographic Township,44.1423700,-79.4116800,York
FBBGB,East Humber River,River,43.7882420,-79.5898230,York
FBBGD,East Island,Island,43.6284250,-79.4123270,York
FDQBV,East York,Community,43.7038800,-79.3404400,York
FBBAT,Eastbourne,Dispersed Rural Community,44.2940300,-79.4832000,York
FEIRS,Eastern Beaches,Beaches,43.6666666,-79.2950000,York
FBBEQ,Eastern Gap,Gap,43.6333333,-79.3511111,York
FETQF,Eckardt Creek,Creek,43.8648710,-79.2971120,York
FBBRL,Edgeley,Compact Rural Community,43.7913889,-79.5202777,York
FBBWJ,Eglinton Flats,Flats,43.6844444,-79.5019444,York
FBBWM,Egypt,Dispersed Rural Community,44.2700400,-79.3046000,York
FBCBG,Elder Mills,Dispersed Rural Community,43.8066666,-79.6308333,York
FAAUW,Elder Station,Railway Point,43.8088889,-79.6333334,York
FBCDU,Elgin Mills,Urban Community,43.8941667,-79.4430555,York
FBCGT,Ellesmere,Urban Community,43.7661111,-79.2844444,York
FBCJN,Elmhurst Beach,Compact Rural Community,44.2166667,-79.4683333,York
FBCOF,Emery,Dispersed Rural Community,43.7525000,-79.5441667,York
FBCOJ,Emery Creek,Creek,43.7405270,-79.5461070,York
FBCVJ,Eringate,Urban Community,43.6602778,-79.5866667,York
FBCZY,Etobicoke,Urban Community,43.6485500,-79.5776200,York
FDQBW,Etobicoke,Community,43.6927778,-79.5580556,York
FBDAA,Etobicoke,Geographic Township,43.6882100,-79.5564100,York
FBDED,Eversley,Dispersed Rural Community,43.9523400,-79.5090500,York
FBDGY,Fairbank,Urban Community,43.6906200,-79.4543400,York
FBDHS,Fairhaven,Urban Community,43.7002777,-79.5427778,York
FBDXV,Ferguson Point,Point,44.2455556,-79.4894444,York
FEHWI,Filey Beach,Urban Community,44.3172222,-79.4080555,York
FEIFB,Fisherville,Dispersed Rural Community,43.7866500,-79.4706700,York
FEDPQ,Flemingdon Park,Urban Community,43.7180556,-79.3322222,York
FBEUG,Forest Hill,Urban Community,43.6987400,-79.4224900,York
FBEUQ,Forestry Island,Island,43.6182260,-79.3787050,York
FBFGR,Fox Island,Island,44.3356300,-79.4896100,York
FBFHF,Fox Island Shoal,Shoal,44.3405556,-79.4786111,York
FBFNE,Franklin Beach,Urban Community,44.3183333,-79.3852778,York
FBFNP,Franklin Pond,Pond,44.1138710,-79.3245460,York
FBHBU,Georgina,Town,44.2805550,-79.3244440,York
FBHBV,Georgina,Geographic Township,44.2867900,-79.2703600,York
FBHBX,Georgina Island,Dispersed Rural Community,44.3719445,-79.3122222,York
FBHCB,Georgina Island,Island,44.3766300,-79.2943200,York
FBHCY,German Mills,Urban Community,43.8161111,-79.3686112,York
FBHDB,German Mills Creek,Creek,43.7967890,-79.3821330,York
FBHGG,Gibraltar Point,Point,43.6127778,-79.3902778,York
FBHRK,Glen Agar,Urban Community,43.6636111,-79.5511111,York
FBHWS,Glenville,Dispersed Rural Community,44.0452778,-79.5208333,York
FBHXA,Glenwood Beach,Dispersed Rural Community,44.2092700,-79.4715900,York
FBIOH,Gormley,Compact Rural Community,43.9408333,-79.3819444,York
FBKBG,Grenadier Pond,Pond,43.6416550,-79.4672880,York
FDHJL,Guildwood Village,Urban Community,43.7372222,-79.1922222,York
FBKXG,Hackett Lake,Lake,43.9447222,-79.5886111,York
FEQTA,Hagerman's Corners,Dispersed Rural Community,43.8491667,-79.3052777,York
FBLGK,Hall Lake,Lake,43.9652480,-79.7610210,York
FBLMC,Hammertown,Dispersed Rural Community,43.9404200,-79.7385700,York
FDHKK,Hanlan's Point,Point,43.6244444,-79.3866667,York
FBLSE,Happy Valley,Dispersed Rural Community,43.9790900,-79.5962300,York
FBMBJ,Harrison Creek,Creek,44.1502880,-79.3692680,York
FBMPI,Haynes Lake,Lake,43.9590500,-79.4079600,York
FBMRY,Headford,Dispersed Rural Community,43.8802778,-79.3902778,York
FBMXO,Heise Hill,Hill,43.9281900,-79.3789200,York
FBNDZ,Henry Farm,Urban Community,43.7694445,-79.3525000,York
FBNGP,Heritage Park,Urban Community,43.9309400,-79.5299800,York
FBNTD,High Park,Urban Community,43.6466200,-79.4629100,York
FBNQQ,Highfield,Urban Community,43.7118200,-79.5832500,York
FBNSJ,Highland Creek,Creek,43.7666900,-79.1445870,York
FBNSG,Highland Creek,Urban Community,43.7891667,-79.1747222,York
FBNVG,Hillcrest Village,Urban Community,43.8027778,-79.3608333,York
FBOFI,Hogg's Hollow,Hollow,43.7452778,-79.4077778,York
FBOII,Holland Landing,Compact Rural Community,44.0976200,-79.4887500,York
FEVKR,Holland Landing Prairie Provincial Nature Reserve,Provincial Nature Reserve,44.1212590,-79.4906150,York
FBOIJ,Holland Marsh,Marsh,44.1724390,-79.5150160,York
FBOIL,Holland River,River,44.2024950,-79.5158270,York
FBOIM,Holland River East Branch,Branch,44.1651370,-79.5153690,York
FBOJS,Holly Park,Locality,43.9280555,-79.7091667,York
FBOKK,Holmes Point,Locality,44.3365200,-79.2373500,York
FBOLC,Holt,Dispersed Rural Community,44.1236500,-79.3434500,York
FBOQK,Hope,Dispersed Rural Community,43.8841700,-79.5184700,York
FBPLE,Humber Bay,Urban Community,43.6361111,-79.4911111,York
FBPLF,Humber Bay,Bay,43.6307730,-79.4578170,York
FBPLH,Humber Creek,Creek,43.6905220,-79.5129790,York
FBPLL,Humber River,River,43.6333330,-79.4666670,York
FBPLS,Humber Summit,Urban Community,43.7579000,-79.5750100,York
FBPLT,Humber Valley,Urban Community,43.6655555,-79.5266667,York
FBPLJ,Humberlea,Urban Community,43.7213889,-79.5341666,York
FBPLM,Humberside,Urban Community,43.6555555,-79.4891666,York
FBQCU,Indianola Beach,Compact Rural Community,44.2363889,-79.4650000,York
FBQGL,Inner Harbour,Harbour,43.6251460,-79.3759710,York
FBQJF,Ionview,Urban Community,43.7369445,-79.2733333,York
FBQRQ,Island Grove,Compact Rural Community,44.3019444,-79.4691667,York
FBQVM,Island View Beach,Locality,44.3289500,-79.2718100,York
FBQVZ,Islington,Urban Community,43.6408334,-79.5480555,York
FBREJ,Jacksons Point,Compact Rural Community,44.3222223,-79.3686112,York
FBREK,Jacksons Point,Point,44.3287700,-79.3673300,York
FBRNU,Jefferson,Compact Rural Community,43.9203000,-79.4526300,York
FBRRR,Jersey,Dispersed Rural Community,44.2168200,-79.4439200,York
FBTEQ,Katabokokonk Creek,Creek,43.9096140,-79.2258110,York
FBTLF,Keating Channel,Channel,43.6461111,-79.3575000,York
FBTNN,Keelesdale,Urban Community,43.6922222,-79.4747222,York
FBTSI,Kelly Lake,Lake,43.9486111,-79.6161111,York
FBTYF,Kennedy Park,Urban Community,43.7229300,-79.2592100,York
FBTZD,Kennifick Lake,Lake,43.9565580,-79.7435500,York
FEEFR,Keswick,Compact Rural Community,44.2436111,-79.4758333,York
FBUEP,Keswick Beach,Dispersed Rural Community,44.2423700,-79.4813000,York
FBUFH,Kettleby,Dispersed Rural Community,44.0083400,-79.5646100,York
FBUGN,Kew Beach,Beach,43.6663300,-79.2968200,York
FBUPY,King,Railway Point,43.9286111,-79.5277778,York
FBUPZ,King,Geographic Township,43.9758333,-79.5947222,York
FBUQA,King,Township Municipality,43.9747800,-79.5945900,York
FBUQL,King City,Suburban Community,43.9286111,-79.5191666,York
FBUQN,King Creek,Dispersed Rural Community,43.9009500,-79.6116200,York
FBURG,Kinghorn,Dispersed Rural Community,43.9233333,-79.5536112,York
FDIBC,Kingscross Estates,Dispersed Rural Community,43.9375000,-79.5469444,York
FBUUP,Kingsview Village,Urban Community,43.7002777,-79.5544445,York
FBUXD,Kipling Heights,Urban Community,43.7284800,-79.5684300,York
FCDKL,Kleinburg,Compact Rural Community,43.8408333,-79.6233333,York
FAAUY,Kleinburg Station,Railway Point,43.8430556,-79.6591666,York
FIEYD,Kortright Centre Conservation Area,Conservation Area,43.8301930,-79.5895960,York
FESET,Lake Seneca,Lake,43.9592720,-79.5208070,York
FCOLA,Lake Simcoe,Lake,44.4236030,-79.3712260,York
FBWBO,Lambton Mills,Urban Community,43.6561112,-79.5125000,York
FBWGE,Langstaff,Compact Rural Community,43.8308333,-79.4283333,York
FBWGR,Lansing,Urban Community,43.7611111,-79.4130555,York
FBWLK,Laskay,Dispersed Rural Community,43.9133333,-79.5772222,York
FBWSK,Lawrence Heights,Urban Community,43.7208334,-79.4455556,York
FBWSS,Lawrence Manor,Urban Community,43.7219000,-79.4367800,York
FBWST,Lawrence Park,Urban Community,43.7259500,-79.4043900,York
FBWVX,Leaside,Urban Community,43.7061111,-79.3686112,York
FBXFA,Lemonville,Dispersed Rural Community,43.9872222,-79.3094445,York
FBXNC,Lighthouse Pond,Pond,43.6144020,-79.3880440,York
FERBI,Lincolnville,Community,44.0119445,-79.2394444,York
FBXVR,Linton,Dispersed Rural Community,43.9565000,-79.6653200,York
FBYQE,Little Hell Hill,Hill,44.2783334,-79.3491666,York
FBZYW,Lloydtown,Compact Rural Community,43.9909400,-79.6946800,York
FCABY,Locust Hill,Compact Rural Community,43.8866666,-79.1991667,York
FCAIB,Long Branch,Urban Community,43.5916666,-79.5313889,York
FCATR,Long Pond,Pond,43.6192440,-79.3807400,York
FCAVF,Long Shoal,Shoal,44.3694445,-79.4947222,York
FDQRP,Main Harbour Channel,Channel,43.6225000,-79.3476400,York
FCDHE,Malvern,Compact Rural Community,43.8116667,-79.2311111,York
FCDHG,Malvern West,Dispersed Rural Community,43.7894200,-79.2498300,York
FDKOV,Maple,Urban Community,43.8538889,-79.5130556,York
FDKPP,Maple Hill,Dispersed Rural Community,44.1847222,-79.4255555,York
FCDJX,Maple Leaf Creek,Creek,43.7054930,-79.4963250,York
FCDKK,Marina Estates,Dispersed Rural Community,44.3341666,-79.2188889,York
FDOBA,Markham,Geographic Township,43.8903100,-79.3051400,York
FDNFZ,Markham,Town,43.8765300,-79.2634000,York
FCDQR,Martin Grove Gardens,Urban Community,43.6891667,-79.5619444,York
FCDTU,Mary Lake,Lake,43.9519445,-79.5461111,York
FCDUU,Maryvale,Urban Community,43.7627600,-79.3106900,York
FCDVU,Maskinonge (Jersey) River,River,44.2258040,-79.4692810,York
FCDVZ,Maskinonge Park,Compact Rural Community,44.2313889,-79.4650000,York
FCDXC,Masseygrove Creek,Creek,43.7423590,-79.5805040,York
FESQH,McRae Beach,Beach,44.3417200,-79.2671100,York
FESQI,McRae Beach,Community,44.3412400,-79.2657200,York
FDULS,Miami Beach,Dispersed Rural Community,44.2025000,-79.4783334,York
FDUVD,Milliken,Compact Rural Community,43.8258100,-79.3007200,York
FAYKJ,Mimico,Urban Community,43.6136111,-79.4922223,York
FDUYF,Mimico Beach,Urban Community,43.6158333,-79.4866667,York
FDUYG,Mimico Beach,Beach,43.6150000,-79.4861111,York
FDUYH,Mimico Creek,Creek,43.6218220,-79.4815480,York
FAONZ,Mongolia,Dispersed Rural Community,43.9386111,-79.2230555,York
FDWDO,Moore Park,Urban Community,43.6905556,-79.3786111,York
FDWDV,Moores Beach,Beach,44.3468700,-79.2592700,York
FEIIV,Mossington Park,Dispersed Rural Community,44.3225000,-79.3427778,York
FCEUY,Mossington Point,Point,44.3241667,-79.3936111,York
FCEZX,Mount Albert,Compact Rural Community,44.1342800,-79.3058400,York
FAYKM,Mount Dennis,Urban Community,43.6869445,-79.4891666,York
FCFAS,Mount Joy,Urban Community,43.8880556,-79.2630556,York
FETKY,Mount Joy Creek,Creek,43.8697580,-79.2500580,York
FCFBL,Mount Pleasant,Dispersed Rural Community,44.2280000,-79.3951600,York
FDIMZ,Mugg's Island,Island,43.6244444,-79.3866667,York
FDLCI,Musselman Lake,Lake,44.0308334,-79.2730555,York
FEQTE,Musselman's Lake,Dispersed Rural Community,44.0269445,-79.2711111,York
FDMTH,Nashville,Dispersed Rural Community,43.8422223,-79.6613888,York
FDORB,New Scotland,Dispersed Rural Community,43.9500000,-79.6202778,York
FCFSV,New Toronto,Urban Community,43.5980800,-79.5031700,York
FDGED,Newmarket,Town,44.0579400,-79.4583500,York
FDORH,Newton Brook,Urban Community,43.7954100,-79.4137300,York
FCFSU,Newtonbrook Creek,Creek,43.7777210,-79.3704250,York
FDSCY,Nobleton,Compact Rural Community,43.9021200,-79.6527100,York
FDVJU,North Gwillimbury,Geographic Township,44.2705560,-79.2566670,York
FCGEE,North Park,Urban Community,43.7183334,-79.4766667,York
FAYKQ,North Toronto,Urban Community,43.7241670,-79.4038890,York
FDQBX,North York,Community,43.7620500,-79.4102600,York
FCGKV,Oak Ridges,Urban Community,43.9454500,-79.4569400,York
FCGKQ,Oakridge,Urban Community,43.6957800,-79.2798600,York
FCGLB,Oakwood,Urban Community,43.6827778,-79.4383333,York
FAYKL,Old Mill,Urban Community,43.6508333,-79.4922223,York
FDLIR,Olympic Island,Island,43.6225530,-79.3747100,York
FECOP,Ontario Place,Islands,43.6275000,-79.4205556,York
FDMKI,Orchard Beach,Compact Rural Community,44.2526000,-79.4873800,York
FDMKK,Orchard Grove,Compact Rural Community,44.2663889,-79.4850000,York
FDOKX,Outer Harbour,Harbour,43.6326700,-79.3349600,York
FDOKY,Outer Harbour Channel,Channel,43.6385100,-79.3341800,York
FDPTS,Outer Harbour East Headland,Headland,43.6297222,-79.3233334,York
FDSPN,Paradise Beach,Urban Community,44.3094445,-79.4327778,York
FDSRQ,Parkdale,Urban Community,43.6483333,-79.4505556,York
FDSTU,Parkview Hill,Urban Community,43.7065600,-79.3216600,York
FDSTW,Parkway East,Urban Community,43.7538889,-79.3261111,York
FDSTX,Parkway West,Urban Community,43.7512200,-79.3391900,York
FCHFO,Patterson,Dispersed Rural Community,43.8641667,-79.4730555,York
FDLDP,Pefferlaw,Compact Rural Community,44.3146200,-79.2016500,York
FIDCM,Pefferlaw River,Brook,44.2886930,-79.2073790,York
FDOZP,Philips Lake,Lake,43.9238889,-79.4625000,York
FDQQN,Pine Beach,Dispersed Rural Community,44.2130556,-79.4711111,York
FDSJU,Pine Grove,Urban Community,43.8016667,-79.5880556,York
FAXJE,Pine Orchard,Dispersed Rural Community,44.0582000,-79.3794500,York
FAXJD,Pine Orchard Station,Railway Point,44.0664100,-79.3518100,York
FCHOY,Pine Point,Urban Community,43.7144444,-79.5480555,York
FDZSI,Pleasantville,Dispersed Rural Community,44.0523400,-79.4021700,York
FETLB,Pomona Creek,Creek,43.8175229,-79.4063800,York
FCHYG,Port Bolster,Compact Rural Community,44.3487700,-79.1945800,York
FCIDW,Pottageville,Dispersed Rural Community,43.9919444,-79.6230556,York
FCIKQ,Preston Lake,Dispersed Rural Community,43.9872800,-79.3762800,York
FCIKR,Preston Lake,Lake,43.9855780,-79.3787880,York
FCINJ,Princess Anne Manor,Urban Community,43.6766667,-79.5425000,York
FCINV,Princess Margaret,Urban Community,43.6716667,-79.5552778,York
FCIWV,Purpleville,Dispersed Rural Community,43.8579300,-79.5909400,York
FCIYZ,Quaker,Railway Point,43.9477777,-79.4011111,York
FCIZE,Quantztown,Urban Community,43.8797222,-79.2952778,York
FCJBR,Queensville,Compact Rural Community,44.1385000,-79.4503800,York
FCJYJ,R.C.Y.C. Island,Island,43.6237050,-79.3692930,York
FCJVQ,Ravenshoe,Dispersed Rural Community,44.2055555,-79.4075000,York
FCKAK,Recreation Island,Island,43.9577778,-79.5205555,York
FEDQH,Regent Park,Urban Community,43.6602778,-79.3616667,York
FCKTB,Rexdale,Urban Community,43.7182300,-79.5658900,York
FCKYR,Richmond Hill,Town,43.8747222,-79.4394444,York
FCKZC,Richvale,Urban Community,43.8456700,-79.4431300,York
FCKZE,Richview Gardens,Urban Community,43.6838889,-79.5469444,York
FCLDT,Ringwood,Urban Community,43.9645900,-79.2806800,York
FENIE,River Drive Park,Compact Rural Community,44.1280500,-79.5073600,York
FEDQI,Riverdale,Urban Community,43.6719445,-79.3497222,York
FENIV,Riverview Beach,Dispersed Rural Community,44.3417800,-79.2134000,York
FFOSV,Rivière Don,River,43.6500000,-79.3500000,York
FGBSB,Rivière Humber,River,43.6333330,-79.4666670,York
FETLA,Robinson Creek,Creek,43.8696220,-79.2607049,York
FCLKB,Roches Point,Point,44.2690500,-79.5054900,York
FCLKA,Roches Point,Compact Rural Community,44.2718200,-79.4997300,York
FIEUN,Rogers Reservoir Conservation Area,Conservation Area,44.0882000,-79.4564000,York
FCMDE,Rosedale,Urban Community,43.6836700,-79.3751100,York
FCMKJ,Rouge,Dispersed Rural Community,43.8040600,-79.1657100,York
FCMSI,Rowntree Creek,Creek,43.7503530,-79.5781910,York
FCMTA,Royal Beach,Urban Community,44.3244445,-79.2772223,York
FCMXR,Runnymede,Urban Community,43.6716700,-79.4846000,York
FDTXZ,Sand Islands,Islands,44.3481520,-79.3071040,York
FEAWL,Sawlog Point,Point,44.3872000,-79.2784600,York
FDVIB,Scarborough,Geographic Township,43.7927777,-79.2358333,York
FDQBU,Scarborough,Community,43.7558333,-79.2308334,York
FEBBC,Scarborough Bluffs,Bluffs,43.7179500,-79.2277000,York
FDVIH,Scarborough Station,Railway Point,43.7166666,-79.2552778,York
FCNKD,Scarborough Village,Urban Community,43.7428000,-79.2046200,York
FDJFK,Schomberg,Compact Rural Community,44.0033333,-79.6850000,York
FDWVC,Sedores,Railway Point,44.3119444,-79.4161111,York
FDXDT,Shadow Lake,Lake,44.0377778,-79.2669444,York
FDXVL,Sharon,Compact Rural Community,44.1025000,-79.4386111,York
FIEUO,Sheppard's Bush Conservation Area,Conservation Area,43.9946670,-79.4542410,York
FCNPO,Sherwood,Compact Rural Community,43.8372222,-79.5083334,York
FCNTW,Ship Channel,Channel,43.6444445,-79.3433333,York
FCOBL,Sibbald Point,Point,44.3355556,-79.3252778,York
FCOBM,Sibbald Point Provincial Park,Provincial Park,44.3277778,-79.3211111,York
FCOGE,Silver Creek,Creek,43.6735900,-79.5123880,York
FCOHJ,Silver Hills,Urban Community,43.7627777,-79.3688889,York
FCOKE,Silverthorne,Urban Community,43.6858300,-79.4662500,York
FEOSO,Simeon Lake,Lake,43.9612300,-79.3875400,York
FCOSW,Six Points,Urban Community,43.6413889,-79.5338889,York
FCPPO,Snake Island,Island,43.6241320,-79.3641340,York
FCPPR,Snake Island,Island,44.3145310,-79.4803740,York
FCPRX,Snake Rocks,Rocks,44.3213889,-79.4669445,York
FCPTY,Snowball,Dispersed Rural Community,43.9890500,-79.5179400,York
FCPWD,Snug Harbour,Harbour,43.6234200,-79.3643400,York
FCQLK,South Island,Island,43.6219444,-79.3694445,York
FCQUS,South Wynhurst,Compact Rural Community,44.2212200,-79.4649000,York
FDWMD,Southwest Highland Creek,Creek,43.7533960,-79.2375530,York
FECDX,St. Andrews Cut,Cut,43.6180555,-79.3794444,York
FECGB,St. George Lake,Lake,43.9572222,-79.4269444,York
FEDQP,St. James Town,Urban Community,43.6686111,-79.3725000,York
FDTCJ,St. Phillips,Urban Community,43.7000000,-79.5355555,York
FCRWK,Staley Lake,Lake,44.0400000,-79.2516667,York
FCSEQ,Steeles,Dispersed Rural Community,43.8116667,-79.3147222,York
FCSER,Steeles Corners,Compact Rural Community,43.7983000,-79.4209400,York
FCSZB,Stouffville,Urban Community,43.9733333,-79.2472222,York
FCTBF,Strange,Dispersed Rural Community,43.9295700,-79.5813500,York
FCTRP,Sullivan,Urban Community,43.7736111,-79.3136111,York
FCTXJ,Sunfish Cut,Cut,43.6250000,-79.3630555,York
FCTYC,Sunkist Beach,Urban Community,44.3277778,-79.2730555,York
FCTYY,Sunnybrook Beach,Beach,44.3382700,-79.2248500,York
FCTZI,Sunnyside,Urban Community,43.6383333,-79.4463889,York
FCTZN,Sunnyside Beach,Beach,43.6375000,-79.4575000,York
FCUAW,Sunset Beach,Urban Community,44.3297222,-79.2708333,York
FCUBA,Sunset Corners,Locality,43.7677778,-79.6480556,York
FCUFV,Sutton,Urban Community,44.3050000,-79.3580556,York
FCUGK,Sutton West,Post Office,44.3053700,-79.3579200,York
FCUJS,Swansea,Urban Community,43.6468000,-79.4765400,York
FCUVT,Tam O'Shanter,Urban Community,43.7772222,-79.2975000,York
FEUAV,Tannery Creek,Creek,44.0234140,-79.4627020,York
FCVBV,Taylor Creek,Creek,43.7033770,-79.3330600,York
FCVJT,Temperanceville,Compact Rural Community,43.9388889,-79.4813889,York
FCVNX,Teston,Dispersed Rural Community,43.8694444,-79.5405556,York
FCVPH,The Annex,Urban Community,43.6722223,-79.4002778,York
FDHMT,The Beaches,Urban Community,43.6736111,-79.2955556,York
FDJNK,The Devils Elbow,Elbow,44.2583334,-79.3505555,York
FEDQS,The Golden Mile,Urban Community,43.7272222,-79.2883333,York
FEDQT,The Junction,Urban Community,43.6661111,-79.4658333,York
FCVQW,The Kingsway,Urban Community,43.6511111,-79.5122222,York
FDTJW,The Pinnacles,Hills,43.9675900,-79.4612300,York
FCVVE,Thistletown,Urban Community,43.7344445,-79.5575000,York
FCVXI,Thompson Lake,Lake,43.9491666,-79.6936111,York
FCVXG,Thompson Lake,Lake,43.9222900,-79.4829380,York
FCVZC,Thorah Beach,Dispersed Rural Community,44.3528800,-79.1965600,York
FCVZS,Thorncliffe,Urban Community,43.7030500,-79.3451200,York
FCVZU,Thorncrest Village,Urban Community,43.6673300,-79.5388000,York
FCWAD,Thornhill,Compact Rural Community,43.8168700,-79.4268000,York
FCWAJ,Thornlea,Railway Point,43.8252777,-79.4030556,York
FIEUP,Thornton Bales Conservation Area,Conservation Area,44.0300000,-79.5200000,York
FERJL,Toogood Pond,Pond,43.8718940,-79.3148790,York
FCWYD,Tormore,Dispersed Rural Community,43.8488889,-79.6952778,York
FCWYG,Toronto,Community,43.6758333,-79.3969444,York
FEUZB,Toronto,City,43.7417000,-79.3733000,York
FCWYK,Toronto Harbour,Harbour,43.6344444,-79.3708334,York
FCWYL,Toronto Island,Island,43.6267600,-79.3940000,York
FCWYN,Toronto Islands,Islands,43.6211111,-79.3786111,York
FCXCU,Townline Shoal,Shoal,44.3300000,-79.3733333,York
FCYBX,Turning Basin,Basin,43.6519444,-79.3325000,York
FCYSD,Tyler Creek,Creek,43.7201040,-79.3232400,York
FCYVU,Underwood,Railway Point,43.8348400,-79.3112500,York
FCYXB,Unionville,Urban Community,43.8677778,-79.3202777,York
FCZJN,Uxbridge Brook,Brook,44.2630556,-79.1963889,York
FCZJP,Vachell,Dispersed Rural Community,44.2841667,-79.3041666,York
FCZNW,Vandorf,Compact Rural Community,44.0012700,-79.3915400,York
FCZRF,Vaughan,City,43.8528100,-79.5354000,York
FCZRG,Vaughan,Geographic Township,43.8475000,-79.5341666,York
FCZSD,Vellore,Compact Rural Community,43.8333333,-79.5575000,York
FCZYK,Victoria Square,Compact Rural Community,43.9044445,-79.3716667,York
FCZYL,Victoria Village,Urban Community,43.7432200,-79.3213400,York
FDAAZ,Vinegar Hill,Urban Community,43.8678900,-79.2565400,York
FDACJ,Virginia,Dispersed Rural Community,44.3163889,-79.2844444,York
FDACK,Virginia Beach,Compact Rural Community,44.3258333,-79.2877778,York
FDADR,Vivian,Dispersed Rural Community,44.0694444,-79.3038889,York
FDADT,Vivian Creek,Creek,44.1641666,-79.3283333,York
FDHRC,Ward's Island,Island,43.6269445,-79.3572222,York
FDCCL,Wesley Corners,Dispersed Rural Community,44.0154400,-79.3957200,York
FDCHW,West Deane Park,Urban Community,43.6561112,-79.5625000,York
FDCJS,West Franklin,Dispersed Rural Community,44.1103900,-79.3203600,York
FDCKN,West Highland Creek,Creek,43.7741610,-79.1987000,York
FDCKO,West Hill,Urban Community,43.7591666,-79.1830556,York
FDCKQ,West Humber Estates,Urban Community,43.7236111,-79.5797222,York
FDCKS,West Humber River,River,43.7328780,-79.5489170,York
FDCKU,West Island,Island,43.6271110,-79.4194040,York
FDCPN,West Pond,Pond,43.6399500,-79.4692800,York
FDCIX,Western Gap,Gap,43.6322222,-79.3986111,York
FDCNM,Westminster Creek,Creek,43.7787760,-79.4565820,York
FDCNW,Westmount,Urban Community,43.6927778,-79.5236111,York
FDCON,Weston,Urban Community,43.7035900,-79.5151300,York
FDCTD,Wexford,Urban Community,43.7483334,-79.2986111,York
FDCTF,Wexford Heights,Urban Community,43.7456700,-79.2777700,York
FDOLB,Whitchurch,Geographic Township,44.0083333,-79.3741667,York
FIEUQ,Whitchurch Conservation Area,Conservation Area,44.0234000,-79.3562000,York
FDOLC,Whitchurch-Stouffville,Town,44.0086111,-79.3175000,York
FDDHZ,White Rose,Dispersed Rural Community,43.9794000,-79.4123900,York
FDDSG,Wilcox Lake,Lake,43.9486111,-79.4361111,York
FDDVE,Wilket Creek,Creek,43.7209650,-79.3527280,York
FDDYX,Willow Beach,Urban Community,44.3112600,-79.4201400,York
FIEUR,Willow Beach Conservation Area,Conservation Area,44.3113000,-79.4243000,York
FDEAG,Willow Rocks,Rocks,44.3166666,-79.4436111,York
FDDZI,Willowdale,Urban Community,43.7875000,-79.4294444,York
FETCZ,Willowgrove Creek,Creek,43.9308820,-79.2884670,York
FDXRL,Wilson Heights,Urban Community,43.7426600,-79.4405800,York
FDEHC,Windsor Lake,Lake,44.0251600,-79.2700300,York
FDELG,Winston Park,Urban Community,43.7391667,-79.4536111,York
FDEPH,Woburn,Urban Community,43.7665500,-79.2268900,York
FDEXH,Woodbine Beach,Beach,43.6606600,-79.3093800,York
FDEXI,Woodbine Gardens,Urban Community,43.7091667,-79.3013889,York
FDEXK,Woodbine Heights,Urban Community,43.6958333,-79.3188889,York
FDEXN,Woodbridge,Urban Community,43.7820900,-79.5970600,York
FDFAH,Woodman Point,Point,44.4529400,-79.2514900,York
FDFAM,Woodman Shoal,Shoal,44.4369444,-79.2430555,York
FDFCC,Woods Bay,Bay,44.3516667,-79.2558333,York
FAYKC,Wychwood Park,Urban Community,43.6775700,-79.4218000,York
FDFQD,Wynhurst Beach,Dispersed Rural Community,44.2236111,-79.4672222,York
FDFVH,Yongehurst,Compact Rural Community,43.8582500,-79.4479100,York
FEAMO,York,Regional Municipality,44.0023400,-79.4722300,York
FEAML,York,Community,43.6932200,-79.4468300,York
FEJJH,York,Geographic Township,43.7177778,-79.4158334,York
FDFVP,York Height,Urban Community,43.7598400,-79.3413000,York
FDFVV,York Mills,Urban Community,43.7558333,-79.3861111,York
FDFWB,Yorkville,Urban Community,43.6704300,-79.3934600,York
FDFXW,Youngs Harbour,Dispersed Rural Community,44.2013500,-79.4707200,York
FDGAV,Zephyr Creek,Creek,44.2533333,-79.3308333,York
FCZPJ,van Nostrand Lake,Lake,43.9975000,-79.3836112,York
FHATG,Îles de Toronto,Islands,43.6211111,-79.3786111,York
FIETS,Hay Creek Conservation Area,Conservation Area,42.7727230,-80.2613820,Woodhouse
FIEGZ,South Greenhill Lake Sand Delta Conservation Reserve,Conservation Reserve,48.4582370,-83.8951830,Winget
FIEJO,Webber Island,Island,49.4029970,-94.0067550,Willingdon
FIEVR,Laurentian Escarpment Conservation Area,Conservation Area,46.3373880,-79.4326760,Widdifield
FIEVS,The Laurier Woods Conservation Area,Conservation Area,46.3071870,-79.4436300,Widdifield
FIDQC,Widdifield Forest Provincial Park,Provincial Park,46.4473210,-79.3253330,Widdifield
FIEYG,Westminster Ponds Natural Area,Conservation Area,42.9530620,-81.2192740,Westminster
FIESY,Christie Conservation Area,Conservation Area,43.2860160,-80.0264310,West Flamborough
FBEIL,Fletcher Creek,Creek,43.3733333,-80.1102778,Wentworth; Wellington
FCFBT,Mountsberg Reservoir,Reservoir,43.4601880,-80.0441750,Wentworth; Wellington
FAMKK,Buckhorn Creek,Creek,43.0614810,-79.7730750,Wentworth; Haldimand
FACDK,Alberton,Dispersed Rural Community,43.1867000,-80.0712500,Wentworth
FACDR,Albion Falls,Falls,43.2004100,-79.8199600,Wentworth
FACDS,Albion Falls,Urban Community,43.1972222,-79.8183334,Wentworth
FACYB,Ancaster,Community,43.2091667,-80.0119444,Wentworth
FDYYL,Ancaster,Geographic Township,43.1991600,-80.0001500,Wentworth
FACYC,Ancaster Creek,Creek,43.2547540,-79.9470710,Wentworth
FACYD,Ancaster Heights,Urban Community,43.2375000,-79.9644444,Wentworth
FAFAU,Barlow Creek,Creek,43.2678310,-80.1792950,Wentworth
FAXHY,Barton,Geographic Township,43.2432500,-79.8557000,Wentworth
FDZMI,Bartonville,Urban Community,43.2358333,-79.8069445,Wentworth
FAFNE,Battlefield Creek,Creek,43.2336310,-79.7508690,Wentworth
FAHPO,Beverly,Geographic Township,43.3216800,-80.1496200,Wentworth
FAHPS,Beverly Swamp,Swamp,43.3784600,-80.1081800,Wentworth
FAINE,Binbrook,Compact Rural Community,43.1207000,-79.8044300,Wentworth
FAIND,Binbrook,Geographic Township,43.1259700,-79.7843300,Wentworth
FAJRD,Blacks Corners,Dispersed Rural Community,43.3425000,-79.9586111,Wentworth
FAKPD,Borer's Creek,Creek,43.2827510,-79.9309640,Wentworth
FAKPE,Borer's Falls,Falls,43.2936111,-79.9372222,Wentworth
FALHK,Braeheid Survey,Dispersed Rural Community,43.3302777,-79.9116667,Wentworth
FEGRK,Breezy's Corners,Locality,43.3763889,-80.0052778,Wentworth
FALUD,Brock Gardens,Dispersed Rural Community,43.2911111,-80.0002777,Wentworth
FAMIV,Buchanan,Urban Community,43.2347222,-79.8936112,Wentworth
FAMSY,Bull's Point,Point,43.2777778,-79.9072222,Wentworth
FAMSN,Bullocks Corners,Dispersed Rural Community,43.2784800,-79.9856900,Wentworth
FAMXP,Burlington Heights,Ridge,43.2819444,-79.8969445,Wentworth
FEHMX,Carlisle,Dispersed Rural Community,43.3947223,-79.9805555,Wentworth
FEHMY,Carlisle Pond,Pond,43.3926510,-79.9795480,Wentworth
FAOXY,Carluke,Dispersed Rural Community,43.1455700,-79.9859900,Wentworth
FAPBZ,Carrolls Point,Point,43.2807300,-79.8834200,Wentworth
FDZMW,Central,Urban Community,43.2644444,-79.8752778,Wentworth
FAQEV,Chedoke Park,Urban Community,43.2495500,-79.9108000,Wentworth
FAQIE,Cherry Beach,Beach,43.2366666,-79.7105556,Wentworth
FAQII,Cherry Heights,Urban Community,43.2153900,-79.7447700,Wentworth
FEIKD,Christie Reservoir,Reservoir,43.2798060,-80.0240050,Wentworth
FAQTE,Christies Corner,Dispersed Rural Community,43.2688500,-80.0326400,Wentworth
FEIKH,Clappison's Corners,Dispersed Rural Community,43.3122222,-79.9175000,Wentworth
FARLI,Clearview Estates,Urban Community,43.2279000,-79.9982300,Wentworth
FARZD,Cockpit Island,Island,43.2742830,-79.9008940,Wentworth
FASCZ,Coldwater Creek,Creek,43.2653030,-79.9306300,Wentworth
FASLS,Community Beach,Dispersed Rural Community,43.2382300,-79.7326800,Wentworth
FASLT,Community Beach,Beach,43.2438889,-79.7283333,Wentworth
FASYA,Cootes Paradise,Urban Community,43.2675000,-79.9455556,Wentworth
FASXZ,Cootes Paradise,Marsh,43.2713889,-79.9255556,Wentworth
FASYS,Copetown,Dispersed Rural Community,43.2437800,-80.0556700,Wentworth
FATDZ,Corktown,Urban Community,43.2491666,-79.8669445,Wentworth
FAUEA,Crescent Beach,Beach,43.2458333,-79.7452778,Wentworth
FAULC,Crook's Hollow,Hollow,43.2758333,-79.9969444,Wentworth
FAUZF,Curran's Swamp,Swamp,43.1819445,-80.0897222,Wentworth
FAVGJ,Dancaster Courts,Urban Community,43.2125000,-79.9886111,Wentworth
FAWOT,Desjardins Canal,Canal,43.2797222,-79.8913889,Wentworth
FDJOJ,Devil's Punch Bowl,Ravine,43.2122222,-79.7577778,Wentworth
FBAFT,Duff's Corners,Dispersed Rural Community,43.1950000,-80.0222222,Wentworth
FBALG,Dundas,Community,43.2729100,-79.9421600,Wentworth
FERXB,Dundas Valley,Valley,43.2536111,-79.9747222,Wentworth
FBAMU,Dunmark Lake,Lake,43.1905210,-80.0966570,Wentworth
FEIRV,East Flamborough,Geographic Township,43.3663889,-79.9369444,Wentworth
FBCDJ,Elfrida,Dispersed Rural Community,43.1744444,-79.7811111,Wentworth
FBDUV,Felkers Falls,Falls,43.2097223,-79.7986111,Wentworth
FDGRC,Fifty Point,Point,43.2288889,-79.6283333,Wentworth
FBEDI,Flamboro,Railway Point,43.4055555,-79.9652778,Wentworth
FBEDK,Flamboro Centre,Dispersed Rural Community,43.3601000,-79.9349600,Wentworth
FEFQT,Flamborough,Community,43.3358333,-80.0636112,Wentworth
FBFTU,Freelton,Compact Rural Community,43.3997222,-80.0383333,Wentworth
FBGCE,Fruitland,Compact Rural Community,43.2137700,-79.7029800,Wentworth
FBGRA,Garners Corners,Dispersed Rural Community,43.2059700,-79.9573800,Wentworth
FBHPN,Glanford,Geographic Township,43.1565500,-79.8937500,Wentworth
FBHPO,Glanford Station,Dispersed Rural Community,43.1300000,-79.8897222,Wentworth
FBHXC,Glenwood Heights,Dispersed Rural Community,43.2713889,-79.9913889,Wentworth
FBJXX,Greenside Acres,Urban Community,43.2136000,-79.9837500,Wentworth
FBJYJ,Greensville,Dispersed Rural Community,43.2823800,-79.9937000,Wentworth
FBKOA,Gulliver's Lake,Lake,43.3597640,-80.0219960,Wentworth
FFABF,HMCS Haida National Historic Site of Canada,National Historic Site,43.2747220,-79.8536110,Wentworth
FEVNS,Hamilton,City,43.2427780,-79.9894440,Wentworth
FBLJL,Hamilton,Community,43.2450400,-79.8418000,Wentworth
FBLJP,Hamilton Beach,Urban Community,43.2852778,-79.7880556,Wentworth
FBLJX,Hamilton Harbour,Harbour,43.2889700,-79.8340600,Wentworth
FBLKS,Hamilton Mountain,Bluff,43.2303900,-79.8223500,Wentworth
FBLNF,Hampton Heights,Urban Community,43.2225000,-79.8355556,Wentworth
FDZGN,Hannon,Post Office,43.1881600,-79.8328800,Wentworth
FBLYB,Harmony Hall II,Urban Community,43.2130700,-79.9620700,Wentworth
FBLYY,Harper Corners,Dispersed Rural Community,43.3654700,-79.9901200,Wentworth
FBMOM,Hayesland,Dispersed Rural Community,43.3266666,-80.0169444,Wentworth
FBNME,Hickory Island,Island,43.2792130,-79.9042840,Wentworth
FBNSZ,Highland Park Survey,Urban Community,43.2588889,-79.9658333,Wentworth
FBORZ,Hopkins Corners,Dispersed Rural Community,43.2900000,-79.9266667,Wentworth
FBOSA,Hopkins Court,Urban Community,43.2808333,-79.9286111,Wentworth
FBOSB,Hopkins Creek,Creek,43.2881860,-79.9284830,Wentworth
FBOSN,Hopkins Survey,Urban Community,43.2819444,-79.9302778,Wentworth
FBPYT,Inch Park,Urban Community,43.2383334,-79.8611111,Wentworth
FBRRT,Jerseyville,Dispersed Rural Community,43.1991667,-80.1061111,Wentworth
FDIBD,King's Forest,Urban Community,43.2147222,-79.8108333,Wentworth
FDIBB,Kingfisher Point,Point,43.2713889,-79.9091667,Wentworth
FBUZM,Kirkwall,Dispersed Rural Community,43.3588889,-80.1577778,Wentworth
FDKJW,Lake Niapenco,Lake,43.1052980,-79.8512200,Wentworth
FBWXI,Leckie Park,Urban Community,43.1812600,-79.7815600,Wentworth
FFABG,Lieu historique national du Canada du N. C. S. M. Haida,National Historic Site,43.2747220,-79.8536110,Wentworth
FDIFR,Logie's Creek,Creek,43.2775000,-79.9766667,Wentworth
FCCGY,Lynden,Compact Rural Community,43.2336111,-80.1458333,Wentworth
FDKQX,Maple Lane,Urban Community,43.2091667,-79.9819444,Wentworth
FDKQZ,Maple Lane Annex,Urban Community,43.2036111,-79.9802778,Wentworth
FCEGQ,Maywood,Urban Community,43.2281800,-79.9741300,Wentworth
FCEKG,McCassa Bay,Bay,43.2758333,-79.8616666,Wentworth
FDMBX,McDonald Court,Urban Community,43.3236400,-79.9076000,Wentworth
FDIIC,Millgrove,Dispersed Rural Community,43.3375000,-79.9608333,Wentworth
FERWG,Millgrove Station,Railway Point,43.3658334,-79.9283334,Wentworth
FDUZS,Mineral Springs,Urban Community,43.2384400,-80.0203600,Wentworth
FECCK,Mohawk Meadows,Urban Community,43.2293200,-79.9576100,Wentworth
FCEZY,Mount Albion,Dispersed Rural Community,43.2000200,-79.8128800,Wentworth
FCFAO,Mount Hope,Compact Rural Community,43.1556600,-79.9152000,Wentworth
FCFBR,Mountsberg,Dispersed Rural Community,43.4348600,-80.0418300,Wentworth
FDLNU,Nakoma,Urban Community,43.2109800,-79.9932000,Wentworth
FDZMK,Normanhurst,Urban Community,43.2407300,-79.7945000,Wentworth
FACPO,North End,Urban Community,43.2694440,-79.8619440,Wentworth
FDVHL,North Glanford,Dispersed Rural Community,43.1796000,-79.9038800,Wentworth
FDZMJ,Oakhill,Urban Community,43.2244445,-79.9977778,Wentworth
FDSVJ,Parkview Heights,Urban Community,43.2152778,-79.9986111,Wentworth
FDSVD,Perth Park,Urban Community,43.2091667,-79.9777778,Wentworth
FDSVC,Peters Corners,Dispersed Rural Community,43.2811111,-80.0661111,Wentworth
FDPGF,Pinecrest,Urban Community,43.2211111,-79.9650000,Wentworth
FCHPJ,Pleasant Valley,Urban Community,43.2544445,-79.9611111,Wentworth
FDPGC,Pleasant View Survey,Compact Rural Community,43.3014900,-79.9133200,Wentworth
FCINW,Princess Point,Point,43.2750000,-79.8963889,Wentworth
FCIPI,Progreston,Dispersed Rural Community,43.3977778,-79.9591667,Wentworth
FEMQZ,Progreston Pond,Pond,43.3974740,-79.9612880,Wentworth
FCJNB,Randle Reef,Reef,43.2750000,-79.8344445,Wentworth
FENGX,Rat Island,Island,43.2759080,-79.9128710,Wentworth
FCKDC,Redhill Creek,Creek,43.2627300,-79.7727440,Wentworth
FCKPU,Renforth,Dispersed Rural Community,43.1640600,-79.9476600,Wentworth
FCLLA,Rock Chapel,Dispersed Rural Community,43.2991900,-79.9343400,Wentworth
FCLLB,Rock Chapel Creek,Creek,43.2937770,-79.9367600,Wentworth
FCLLK,Rockcliffe Survey,Dispersed Rural Community,43.3224900,-79.9029300,Wentworth
FCLSM,Rockton,Dispersed Rural Community,43.3004600,-80.1273500,Wentworth
FCMDJ,Rosedale,Urban Community,43.2240600,-79.8085300,Wentworth
FCNDF,Ryckmans,Urban Community,43.2066700,-79.8898700,Wentworth
FCNDG,Ryckmans Corners,Urban Community,43.2027778,-79.8933333,Wentworth
FDZGL,Rymal,Railway Point,43.1920300,-79.8326600,Wentworth
FDXSV,Saltfleet,Geographic Township,43.2000200,-79.7176200,Wentworth
FEASP,Sassafras Point,Point,43.2733334,-79.9019444,Wentworth
FDYUN,Sheffield,Dispersed Rural Community,43.3241667,-80.2075000,Wentworth
FCQHR,Southcote,Dispersed Rural Community,43.1886200,-79.9518100,Wentworth
FCRAX,Spencer Creek,Creek,43.2670800,-79.9293330,Wentworth
FCRJU,Spring Creek,Creek,43.2622800,-79.9527320,Wentworth
FCRMT,Spring Valley,Urban Community,43.2125000,-79.9969444,Wentworth
FCRMS,Springvale,Dispersed Rural Community,43.2146500,-79.9909400,Wentworth
FCSOM,Stipes Inlet,Inlet,43.2712400,-79.8081000,Wentworth
FCSTN,Stoney Creek,Creek,43.2455556,-79.7380555,Wentworth
FCSTR,Stoney Creek,Community,43.2012800,-79.7001500,Wentworth
FDZMH,Stoney Creek Station,Railway Point,43.2392700,-79.7508200,Wentworth
FCTAC,Strabane,Dispersed Rural Community,43.3791667,-80.0322222,Wentworth
FCTSW,Sulphur Creek,Creek,43.2547540,-79.9470710,Wentworth
FCTUQ,Summit,Railway Point,43.2269445,-80.0536111,Wentworth
FDGIR,Sydenham Creek,Creek,43.2649840,-79.9481020,Wentworth
FCUXL,Tapleytown,Dispersed Rural Community,43.1801400,-79.7303300,Wentworth
FCVOL,Tews Falls,Falls,43.2805555,-79.9775000,Wentworth
FCVQA,The Delta,Urban Community,43.2383334,-79.8191667,Wentworth
FCWCT,Three Mile Creek,Creek,43.1659980,-79.8690660,Wentworth
FCWIT,Tiffany Creek,Creek,43.2471070,-79.9607160,Wentworth
FCWIU,Tiffany Falls,Falls,43.2394445,-79.9586111,Wentworth
FCXMU,Trinity,Dispersed Rural Community,43.1738889,-80.0363889,Wentworth
FCXTX,Troy,Compact Rural Community,43.2605556,-80.1852777,Wentworth
FCYGS,Tweedside,Dispersed Rural Community,43.1659700,-79.6702500,Wentworth
FCYXI,University Gardens,Urban Community,43.2611111,-79.9402778,Wentworth
FCZKM,Valens,Dispersed Rural Community,43.3805556,-80.1325000,Wentworth
FCZKN,Valens Reservoir,Reservoir,43.3879220,-80.1402070,Wentworth
FCZQD,Van Wagners Beach,Beach,43.2554900,-79.7612400,Wentworth
FDABG,Vinemount,Dispersed Rural Community,43.1981600,-79.6766000,Wentworth
FDBGA,Washboard Falls,Falls,43.2383334,-79.9580556,Wentworth
FDBIX,Waterdown,Urban Community,43.3368000,-79.8944700,Wentworth
FDBIY,Waterdown North,Railway Point,43.3475000,-79.8938889,Wentworth
FDBTJ,Websters Falls,Falls,43.2762500,-79.9809000,Wentworth
FDCJI,West Flamborough,Geographic Township,43.3164700,-79.9993400,Wentworth
FEDAM,West Flamborough,Dispersed Rural Community,43.2716667,-80.0158333,Wentworth
FEDAV,West Hamilton,Urban Community,43.2536111,-79.9311111,Wentworth
FDHSR,West Pond,Pond,43.2705600,-79.9303650,Wentworth
FDCRI,West Spencer Creek,Creek,43.2863889,-80.0705556,Wentworth
FDCHU,Westdale,Urban Community,43.2644444,-79.9027778,Wentworth
FDCOV,Westover,Dispersed Rural Community,43.3339600,-80.0843300,Wentworth
FDDYZ,Willow Cove,Cove,43.2861111,-79.8719444,Wentworth
FDEEO,Windermere Basin,Basin,43.2655555,-79.7794444,Wentworth
FDEKU,Winona,Compact Rural Community,43.2080556,-79.6511111,Wentworth
FDEKV,Winona Park,Compact Rural Community,43.2238889,-79.6413889,Wentworth
FDEXO,Woodburn,Dispersed Rural Community,43.1363889,-79.7441667,Wentworth
FABLV,Aberfoyle,Dispersed Rural Community,43.4708300,-80.1468400,Wellington
FABLW,Aberfoyle Creek,Creek,43.4463120,-80.1820260,Wellington
FABYP,Aikensville,Locality,43.4295600,-80.2333000,Wellington
FACPP,Alma,Compact Rural Community,43.7302700,-80.5023500,Wellington
FACPL,Alma Station,Railway Point,43.7250000,-80.4950000,Wellington
FADPK,Ariss,Dispersed Rural Community,43.5752778,-80.3650000,Wellington
FADPL,Arkell,Dispersed Rural Community,43.5365200,-80.1677000,Wellington
FADSN,Armstrong Mills,Dispersed Rural Community,43.6291667,-80.2613889,Wellington
FEFTL,Arthur,Geographic Township,43.9158333,-80.6511112,Wellington
FADVI,Arthur,Community,43.8326600,-80.5378900,Wellington
FEGDL,Badenoch,Dispersed Rural Community,43.4737300,-80.0825600,Wellington
FEGDM,Badenoch Swamp,Swamp,43.4744445,-80.0725000,Wellington
FAEOC,Ballinafad,Dispersed Rural Community,43.6961111,-80.0119444,Wellington
FAEOD,Ballinafad Lake,Lake,43.9840430,-80.8487640,Wellington
FAEWX,Barber's Beach,Compact Rural Community,43.4202778,-80.2747222,Wellington
FAHBN,Belwood,Police Village,43.7920500,-80.3228100,Wellington
FAHNL,Bethel Creek,Creek,43.9544550,-80.7693020,Wellington
FAIAZ,Big Island,Island,43.4166720,-80.2617950,Wellington
FAIBA,Big Island,Island,43.9368430,-80.4396840,Wellington
FAINX,Binkham,Dispersed Rural Community,43.8112600,-80.1017100,Wellington
FAIUU,Birge Mills,Dispersed Rural Community,43.6667800,-80.2586100,Wellington
FAKGH,Blue Springs Creek,Creek,43.5716667,-80.1483333,Wellington
FAKQV,Bosworth,Dispersed Rural Community,43.7866667,-80.6461111,Wellington
FALIW,Brandy Creek,Creek,43.8225000,-80.5208333,Wellington
FALST,Brisbane,Dispersed Rural Community,43.7444444,-80.0775000,Wellington
FAMDO,Brucedale,Dispersed Rural Community,43.6477778,-80.1863889,Wellington
FAPBW,Carroll Creek,Creek,43.6447222,-80.4508334,Wellington
FAPOM,Cedar Valley,Dispersed Rural Community,43.7682200,-80.1621300,Wellington
FAPQS,Centre Inn,Dispersed Rural Community,43.6386111,-80.1966667,Wellington
FEUXG,Centre Wellington,Township Municipality,43.7347223,-80.3897223,Wellington
FAQVK,Churchill,Dispersed Rural Community,43.6569445,-80.0558333,Wellington
FARAV,Clare,Dispersed Rural Community,43.9902778,-80.6352777,Wellington
FARPU,Clifford,Community,43.9691667,-80.9791667,Wellington
FARUZ,Clythe Creek,Creek,43.5529450,-80.2159400,Wellington
FASNU,Conestogo Lake,Lake,43.6961530,-80.7313680,Wellington
FIESJ,Conestogo Lake Conservation Area,Conservation Area,43.6835900,-80.7121500,Wellington
FASPA,Coningsby,Dispersed Rural Community,43.7436111,-80.1252777,Wellington
FASPX,Conn,Compact Rural Community,43.9981600,-80.5680000,Wellington
FATIH,Corwhin,Dispersed Rural Community,43.5097222,-80.1050000,Wellington
FATJV,Cotswold,Dispersed Rural Community,43.8694444,-80.7905556,Wellington
FAUCX,Creek Bank,Dispersed Rural Community,43.7050800,-80.5359600,Wellington
FEDAG,Crewsons Corners,Dispersed Rural Community,43.6301300,-80.0864400,Wellington
FAUGC,Crieff,Dispersed Rural Community,43.4241700,-80.1515000,Wellington
FAUXS,Cumnock,Dispersed Rural Community,43.7597222,-80.4569444,Wellington
FDUJK,Damascus,Dispersed Rural Community,43.9164000,-80.4820900,Wellington
FAWNG,Derrynane,Dispersed Rural Community,43.9454000,-80.5894600,Wellington
FAZPD,Downeys,Dispersed Rural Community,43.4788200,-80.2279400,Wellington
FAZQI,Dracon,Dispersed Rural Community,43.8192800,-80.3821300,Wellington
FAZRM,Drayton,Community,43.7545500,-80.6715100,Wellington
FAZSJ,Drew,Dispersed Rural Community,43.9788889,-80.8883333,Wellington
FBBQT,Eden Mills,Police Village,43.5786112,-80.1433334,Wellington
FBBVV,Egerton,Dispersed Rural Community,44.0080700,-80.5212500,Wellington
FCICM,Elora,Community,43.6850000,-80.4271200,Wellington
FIESK,Elora Cataract Trailway,Conservation Area,43.6931970,-80.4145040,Wellington
FIERK,Elora Cataract Trailway,Conservation Area,43.7700000,-80.0700000,Wellington
FBCKN,Elora Gorge,Gorge,43.6731900,-80.4488600,Wellington
FIESL,Elora Quarry Conservation Area,Conservation Area,43.6905750,-80.4154800,Wellington
FBCNK,Emerald Lake,Lake,43.4158410,-80.1307250,Wellington
FBCTD,Ennotville,Dispersed Rural Community,43.6568200,-80.3293500,Wellington
FBCUE,Eramosa,Dispersed Rural Community,43.6180555,-80.2147222,Wellington
FEIUA,Eramosa,Geographic Township,43.6625000,-80.2094444,Wellington
FBCUF,Eramosa River,River,43.5397220,-80.2403180,Wellington
FEVJW,Erin,Town,43.7425000,-80.1241666,Wellington
FBCVF,Erin,Community,43.7691667,-80.0669445,Wellington
FEIUI,Erin,Geographic Township,43.7502778,-80.1133334,Wellington
FBCXD,Esker Island,Island,43.9412970,-80.4302610,Wellington
FBDEE,Everton,Compact Rural Community,43.6643200,-80.1572500,Wellington
FBDNE,Farewell,Dispersed Rural Community,43.9133333,-80.7225000,Wellington
FBDNZ,Farleys Creek,Creek,43.8313889,-80.5602778,Wellington
FBDPE,Farnham,Dispersed Rural Community,43.5296300,-80.1807300,Wellington
FBDWO,Fergus,Community,43.7029800,-80.3798400,Wellington
FBFCX,Four Mile Creek,Creek,43.8455030,-80.5873800,Wellington
FBGDR,Fultons,Dispersed Rural Community,43.9438100,-80.9415000,Wellington
FDNOI,Glen Allan,Compact Rural Community,43.6556900,-80.7062900,Wellington
FBHSH,Glenchristie,Railway Point,43.4680555,-80.2983334,Wellington
FBHUJ,Glenlee,Dispersed Rural Community,43.8811800,-80.7754400,Wellington
FBIEV,Goldstone,Dispersed Rural Community,43.7217800,-80.5911600,Wellington
FBINE,Gordonville,Dispersed Rural Community,43.8993000,-80.5465000,Wellington
FBJWV,Green Park,Dispersed Rural Community,43.8684800,-80.4593000,Wellington
FBKKK,Guelph,City,43.5357100,-80.2290000,Wellington
FBKKL,Guelph,Geographic Township,43.5653100,-80.2814900,Wellington
FDZNW,Guelph Junction,Railway Point,43.5354200,-80.2648600,Wellington
FEHEF,Guelph Lake,Reservoir,43.6014090,-80.2390310,Wellington
FEUXH,Guelph/Eramosa,Township Municipality,43.6072222,-80.2608333,Wellington
FBLJR,Hamilton Corner,Dispersed Rural Community,43.5136111,-80.1980555,Wellington
FBLKC,Hamilton Island,Island,43.9681300,-80.4367900,Wellington
FBLPI,Hanlon's Creek,Creek,43.5038889,-80.2536111,Wellington
FBMCB,Harriston,Community,43.9119800,-80.8701700,Wellington
FBMCC,Harriston Junction,Railway Point,43.9181300,-80.8810100,Wellington
FBNXK,Hillsburgh,Police Village,43.7930555,-80.1427778,Wellington
FBOIS,Hollen,Compact Rural Community,43.7052778,-80.7197222,Wellington
FBQID,Inverhaugh,Dispersed Rural Community,43.6388600,-80.4392800,Wellington
FBQOI,Irvine Creek,Creek,43.6815630,-80.4352460,Wellington
FBTWC,Kenilworth,Compact Rural Community,43.8977778,-80.6319444,Wellington
FBULZ,Killean,Locality,43.4105556,-80.2313889,Wellington
FBUYV,Kirkland Creek,Creek,43.6040110,-80.6422660,Wellington
FBVLK,Kumpfville,Locality,43.6855555,-80.7566666,Wellington
FAHBO,Lake Belwood,Lake,43.7585010,-80.3395290,Wellington
FBWWR,Lebanon,Dispersed Rural Community,43.7058334,-80.8222223,Wellington
FBYVK,Little Lake,Dispersed Rural Community,43.4215200,-80.2588800,Wellington
FBYUZ,Little Lake,Lake,43.4244445,-80.2594444,Wellington
FBZWY,Living Springs,Dispersed Rural Community,43.7579100,-80.4023300,Wellington
FDCJW,Luther,Geographic Township,43.9410000,-80.4391600,Wellington
FCCET,Luther Lake,Lake,43.9390950,-80.4266270,Wellington
FCCEV,Luther Marsh,Marsh,43.9348900,-80.4267500,Wellington
FCCFA,Lutteral Creek,Creek,43.6427778,-80.2700000,Wellington
FCCVS,Macton,Dispersed Rural Community,43.6250000,-80.6938889,Wellington
FDQRR,Mainland's Island,Island,43.9209900,-80.4370500,Wellington
FCDFG,Mallet River,River,43.7408826,-80.7024785,Wellington
FEUUD,Mapleton,Township Municipality,43.7502778,-80.6947222,Wellington
FDNBG,Marden,Dispersed Rural Community,43.5852900,-80.2998900,Wellington
FDNBH,Marden Creek,Creek,43.5769310,-80.2757030,Wellington
FDYKI,Maryborough,Geographic Township,43.7607100,-80.7495100,Wellington
FCEND,McCormick Point,Point,43.4133333,-80.2683334,Wellington
FDULA,Metz,Dispersed Rural Community,43.8091666,-80.4433333,Wellington
FDUYN,Mimosa,Dispersed Rural Community,43.7420500,-80.2236900,Wellington
FELWA,Minto,Town,43.9197800,-80.8817700,Wellington
FDYDI,Minto,Geographic Township,43.9170800,-80.8838800,Wellington
FEAFZ,Minto,Railway Point,43.9138889,-80.8122222,Wellington
FEBZK,Mitchell's Creek,Creek,43.8197222,-80.6152778,Wellington
FCERZ,Monck,Dispersed Rural Community,43.9625000,-80.4930555,Wellington
FDWCR,Moorefield,Police Village,43.7613889,-80.7472222,Wellington
FDWPK,Morriston,Police Village,43.4489300,-80.1154100,Wellington
FCESU,Mosborough,Railway Point,43.5086111,-80.3363889,Wellington
FCFAL,Mount Forest,Community,43.9816667,-80.7366667,Wellington
FEIJE,Mount View,Dispersed Rural Community,43.8998700,-80.4314300,Wellington
FCFBS,Mountsberg Creek,Creek,43.4642540,-80.0598920,Wellington
FDLCJ,Musselshell Island,Island,43.4146600,-80.2595700,Wellington
FDHZQ,Nichol,Geographic Township,43.6888889,-80.3841666,Wellington
FCFVH,North Bog,Bog,43.9519445,-80.4508334,Wellington
FCGYT,Olivet,Dispersed Rural Community,43.8527778,-80.6600000,Wellington
FDMQD,Ospringe,Dispersed Rural Community,43.6988889,-80.1347222,Wellington
FDOKN,Oustic,Dispersed Rural Community,43.6970900,-80.2548500,Wellington
FDRCE,Palmerston,Community,43.8331800,-80.8466000,Wellington
FDSRR,Parker,Dispersed Rural Community,43.7625000,-80.5866666,Wellington
FDIUP,Peel,Geographic Township,43.7336111,-80.6002778,Wellington
FDOWL,Petherton,Dispersed Rural Community,43.8686111,-80.5952778,Wellington
FDQMK,Pike Lake,Lake,43.9659830,-80.8137780,Wellington
FDJCE,Pilkington,Geographic Township,43.6663889,-80.4500000,Wellington
FEAAS,Ponsonby,Dispersed Rural Community,43.6288889,-80.3613889,Wellington
FCIIE,Prairie Island,Island,43.9386700,-80.4200390,Wellington
FCIOO,Priory Park,Compact Rural Community,43.5185400,-80.2448600,Wellington
FELZF,Puslinch,Township Municipality,43.4612700,-80.1621300,Wellington
FCIXI,Puslinch,Dispersed Rural Community,43.4303800,-80.0908200,Wellington
FEJHT,Puslinch,Geographic Township,43.4701900,-80.1779500,Wellington
FCIXJ,Puslinch Lake,Lake,43.4165900,-80.2650570,Wellington
FCIZF,Quarindale,Locality,43.6861111,-80.7491667,Wellington
FCKXK,Richardson Creek,Creek,43.6108550,-80.1426350,Wellington
FENHW,Riverbank,Dispersed Rural Community,43.8197222,-80.6238889,Wellington
FENIN,Riverstown,Dispersed Rural Community,43.9250000,-80.6705556,Wellington
FCLLP,Rockcut,Railway Point,43.6212500,-80.1429200,Wellington
FCLST,Rockwood,Police Village,43.6147222,-80.1363889,Wellington
FCLYZ,Roman Lake,Lake,43.7720330,-80.1370490,Wellington
FCMJP,Rothsay,Compact Rural Community,43.8119445,-80.7047222,Wellington
FDTDG,Salem,Compact Rural Community,43.6932200,-80.4469000,Wellington
FDWKT,Shand Dam,Dam,43.7333330,-80.3333330,Wellington
FDXHP,Shands,Dispersed Rural Community,43.7238889,-80.3419445,Wellington
FCNSG,Shiloh,Dispersed Rural Community,43.7205556,-80.2644445,Wellington
FCODX,Signet,Dispersed Rural Community,44.0212000,-80.4598300,Wellington
FCOMK,Simpson Corners,Dispersed Rural Community,43.7713889,-80.2886111,Wellington
FCPMN,Smoky Creek,Creek,43.8478330,-80.7095610,Wellington
FCPMX,Smoky Hollow,Hollow,43.8976300,-80.6576100,Wellington
FCQFI,South Bog,Swamp,43.9194480,-80.4225060,Wellington
FCRAD,Speedside,Dispersed Rural Community,43.6661111,-80.2850000,Wellington
FCRAF,Speedwell,Railway Point,43.5523200,-80.2115200,Wellington
FCRCY,Spier,Railway Point,43.7386111,-80.3633333,Wellington
FCRJQ,Spring Creek,Creek,43.7244444,-80.7919445,Wellington
FCROA,Spruce Green,Dispersed Rural Community,43.7091300,-80.6279400,Wellington
FDSZP,St. Helen Island,Island,43.4151100,-80.2598500,Wellington
FCSOW,Stirton,Dispersed Rural Community,43.7339800,-80.6884700,Wellington
FCSRO,Stonehouse Island,Island,43.9237500,-80.4248200,Wellington
FCSXJ,Stonywood,Dispersed Rural Community,43.9860500,-80.5090500,Wellington
FCTTT,Summer Island,Island,43.4146100,-80.2618200,Wellington
FCUIW,Swan Creek,Creek,43.6400000,-80.4436111,Wellington
FCVOJ,Teviotdale,Dispersed Rural Community,43.8444445,-80.7597223,Wellington
FBINU,The Gorge,Gorge,43.6906700,-80.4417100,Wellington
FCXFR,Tralee,Dispersed Rural Community,43.6835700,-80.8340300,Wellington
FCXJH,Trecastle,Dispersed Rural Community,43.7830556,-80.8058334,Wellington
FDANL,Wagram,Dispersed Rural Community,43.8819444,-80.7147223,Wellington
FDAUT,Wallenstein,Dispersed Rural Community,43.6004800,-80.6334800,Wellington
FEQSO,Wellington,County Municipality,43.7625000,-80.4508334,Wellington
FEVFC,Wellington North,Township Municipality,43.9216667,-80.5872222,Wellington
FDDJD,Whites Junction,Railway Point,43.8463889,-80.8513888,Wellington
FDEGL,Windmill Island,Island,43.9492920,-80.4223230,Wellington
FDEGR,Windo'er Lake,Lake,43.7091667,-80.4980556,Wellington
FDEIR,Winfield,Dispersed Rural Community,43.6716667,-80.6055556,Wellington
FEAMB,Wyandot,Dispersed Rural Community,43.7269444,-80.7741666,Wellington
FDFSN,Yatton,Dispersed Rural Community,43.6219444,-80.6194444,Wellington
FZAAJ,Battle of Cook's Mills National Historic Site of Canada,National Historic Site,42.9980550,-79.1747220,Welland
FEHRF,Chutes Niagara,Falls,43.0794500,-79.0747200,Welland
FESPK,Gasline Ridge,Ridge,42.6930555,-79.3580556,Welland
FEZWT,Lieu historique national du Canada de l'Île-Navy,National Historic Site,43.0500000,-79.0166670,Welland
FZAAK,Lieu historique national du Canada de la Bataille-de-Cook's Mills,National Historic Site,42.9980550,-79.1747220,Welland
FEZWS,Navy Island National Historic Site of Canada,National Historic Site,43.0500000,-79.0166670,Welland
FDOSE,Niagara Falls,Falls,43.0794500,-79.0747200,Welland
FEVAS,Power Canal,Canal,43.1000000,-79.2250000,Welland
FACEV,Alder Creek,Creek,43.3087350,-80.3101040,Waterloo
FACFG,Alder Lake,Lake,43.3548000,-80.5368960,Waterloo
FACRD,Alpine Village,Urban Community,43.4236111,-80.4802777,Waterloo
FEGAH,Ayr,Compact Rural Community,43.2855556,-80.4500000,Waterloo
FEGDI,Baden,Suburban Community,43.4025000,-80.6686111,Waterloo
FEGDJ,Baden Creek,Creek,43.3651600,-80.6533250,Waterloo
FEGDK,Baden Hills,Hills,43.4036111,-80.6380556,Waterloo
FAERK,Balzer Creek,Creek,43.4165030,-80.4586040,Waterloo
FAERO,Bamberg,Compact Rural Community,43.4883334,-80.6863889,Waterloo
FAERP,Bamberg Creek,Creek,43.4312120,-80.7100560,Waterloo
FAEUO,Bannister Lake,Lake,43.2959230,-80.3850220,Waterloo
FAFFU,Barrie's Lake,Lake,43.3591990,-80.3535510,Waterloo
FAGNQ,Bechtel Creek,Creek,43.3851750,-80.3785470,Waterloo
FAGQV,Beechwood,Compact Rural Community,43.4644444,-80.5322222,Waterloo
FAHIF,Berlett's Corners,Locality,43.4598000,-80.7104000,Waterloo
FAJTR,Blair,Compact Rural Community,43.3832900,-80.3881600,Waterloo
FAJTT,Blair Creek,Creek,43.3851650,-80.3867090,Waterloo
FAKAC,Bloomingdale,Compact Rural Community,43.5077778,-80.4622222,Waterloo
FAKGI,Blue Springs Pond,Pond,43.4672222,-80.4333333,Waterloo
FAKLT,Boomer Creek,Creek,43.5611940,-80.6301130,Waterloo
FALIO,Branchton,Compact Rural Community,43.3098400,-80.2607000,Waterloo
FALNO,Breslau,Suburban Community,43.4752778,-80.4125000,Waterloo
FEAZX,Bridgeport,Urban Community,43.4822222,-80.4836111,Waterloo
FANXK,Cambridge,City,43.3972220,-80.3113890,Waterloo
FIESI,Cambridge to Paris Rail Trail,Conservation Area,43.3448120,-80.3154020,Waterloo
FAOJY,Canagagigue Creek,Creek,43.5737630,-80.4904010,Waterloo
FAPKE,Cedar Creek,Creek,43.2855556,-80.4522223,Waterloo
FAPKD,Cedar Creek,Creek,43.4930190,-80.5349100,Waterloo
FAPSB,Centreville,Compact Rural Community,43.4312300,-80.4286600,Waterloo
FAQYP,Clair Creek,Creek,43.4643120,-80.5399900,Waterloo
FAQYZ,Clair Lake,Lake,43.4629500,-80.5534750,Waterloo
FARUL,Clyde,Dispersed Rural Community,43.3843000,-80.2282900,Waterloo
FASJV,Columbia Lake,Lake,43.4734740,-80.5563440,Waterloo
FASNT,Conestogo,Suburban Community,43.5413889,-80.5041667,Waterloo
FASNV,Conestogo River,River,43.5383333,-80.4863889,Waterloo
FIDDO,Cooper's Creek,Creek,43.5087748,-80.4954390,Waterloo
FATMN,Country Hills,Urban Community,43.4150000,-80.4738889,Waterloo
FATPL,Cowan's Lake,Lake,43.3068420,-80.3272000,Waterloo
FATRD,Cox Creek,Creek,43.5633334,-80.4758333,Waterloo
FIDDI,Critter Creek,Creek,43.5123320,-80.4951720,Waterloo
FAUMJ,Crosshill,Dispersed Rural Community,43.5303900,-80.7427700,Waterloo
FIDDM,Cuckoo Creek,Creek,43.5125200,-80.4951800,Waterloo
FAVWM,Deans Lake,Lake,43.3015840,-80.3340470,Waterloo
FAWPE,Despond Lakes,Lakes,43.2827777,-80.3897223,Waterloo
FAWPX,Detweiler Creek,Creek,43.4301850,-80.5285610,Waterloo
FAZCV,Donald Creek,Creek,43.5600000,-80.6352777,Waterloo
FDGWM,Doon,Compact Rural Community,43.3918300,-80.4120500,Waterloo
FAZJK,Dorking,Dispersed Rural Community,43.6481000,-80.7545600,Waterloo
FBCWU,Dumfries,Geographic Township,43.2881600,-80.3526600,Waterloo
FBBJV,East Preston,Railway Point,43.3880555,-80.3422223,Waterloo
FBBQH,Eden Creek,Creek,43.2989930,-80.4757740,Waterloo
FBCHR,Elliott's Lake,Lake,43.2959580,-80.3607780,Waterloo
FBCHW,Ellis Creek,Creek,43.4274630,-80.3237740,Waterloo
FEHOW,Elmira,Compact Rural Community,43.5932500,-80.5623900,Waterloo
FBCUJ,Erbsville,Compact Rural Community,43.4805300,-80.6043300,Waterloo
FEIAB,Firella Creek,Creek,43.4671050,-80.7608190,Waterloo
FBEAH,Fisher Mills,Dispersed Rural Community,43.4355555,-80.3358333,Waterloo
FBEKY,Floradale,Compact Rural Community,43.6352778,-80.5797222,Waterloo
FBEUD,Forest Heights,Urban Community,43.4194444,-80.5233333,Waterloo
FBEUH,Forest Hills,Urban Community,43.4277780,-80.5091670,Waterloo
FBFAA,Forwell Creek,Creek,43.4858334,-80.5130556,Waterloo
FBFEX,Four Wells Lake,Lake,43.4895900,-80.5254930,Waterloo
FEDBI,Freeport,Railway Point,43.4202900,-80.4076300,Waterloo
FDHGJ,Galt,Urban Community,43.3558333,-80.3105555,Waterloo
FBHJO,Gilholm's Marsh,Marsh,43.3490000,-80.3401800,Waterloo
FBJEK,Grass Lake,Lake,43.2960940,-80.3481590,Waterloo
FEBXD,Greenfield,Dispersed Rural Community,43.3008334,-80.4708333,Waterloo
FBKZE,Hagey,Railway Point,43.4113889,-80.3738889,Waterloo
FBLJZ,Hamilton Heights,Compact Rural Community,43.3811111,-80.6963889,Waterloo
FBMKY,Hawkesville,Compact Rural Community,43.5633334,-80.6391667,Waterloo
FBMQA,Haysville,Compact Rural Community,43.3558333,-80.6625000,Waterloo
FBMXB,Heidelberg,Compact Rural Community,43.5230556,-80.6183333,Waterloo
FBNEU,Henry Sturm Creek,Creek,43.4367860,-80.5221340,Waterloo
FBNGO,Heritage Park,Urban Community,43.4563889,-80.4441667,Waterloo
FCKDQ,Hespeler,Urban Community,43.4330555,-80.3072222,Waterloo
FFAAZ,Hill Sixty,Hill,43.3333330,-80.3000000,Waterloo
FBNXQ,Hillside Lake,Lake,43.2832910,-80.3901370,Waterloo
FBODW,Hofstetter Lake,Lake,43.3995510,-80.6128170,Waterloo
FBORR,Hopewell Creek,Creek,43.4790010,-80.4217880,Waterloo
FIDDE,Horst Creek,Creek,43.5164010,-80.4797438,Waterloo
FBPNH,Hunsburger Creek,Creek,43.3540230,-80.6480950,Waterloo
FBPWX,Idlewood Creek,Creek,43.4434440,-80.4020700,Waterloo
FBPXD,Idylwild,Railway Point,43.4138889,-80.3358333,Waterloo
FBQLE,Irish Creek,Creek,43.4474380,-80.2987130,Waterloo
FBRNM,Jedburgh Pond,Pond,43.2897222,-80.4455555,Waterloo
FBSKY,Josephsburg,Dispersed Rural Community,43.4668600,-80.6648800,Waterloo
FBUUX,Kingwood,Dispersed Rural Community,43.5115400,-80.8336700,Waterloo
FEBWC,Kitchener,City,43.4186111,-80.4727778,Waterloo
FBVHV,Kolb Creek,Creek,43.4655860,-80.4418360,Waterloo
FBVJH,Kossuth,Locality,43.4581600,-80.3550900,Waterloo
FBVXU,Lakeshore Village,Urban Community,43.4883334,-80.5511111,Waterloo
FBWOG,Laurel Creek,Creek,43.4827650,-80.4814950,Waterloo
FIESN,Laurel Creek Conservation Area,Conservation Area,43.4925800,-80.5692240,Waterloo
FBWOH,Laurel Creek Reservoir,Reservoir,43.4796370,-80.5765210,Waterloo
FBWOJ,Laurel Lake,Lake,43.4667520,-80.5439860,Waterloo
FBWOT,Laurentian Hills,Urban Community,43.4200000,-80.4947222,Waterloo
FEZXF,Lieu historique national du Canada Woodside,National Historic Site,43.4666670,-80.5000000,Waterloo
FBXVU,Linwood,Compact Rural Community,43.5804100,-80.7282900,Waterloo
FBXWW,Lisbon,Dispersed Rural Community,43.4609600,-80.7885100,Waterloo
FBZST,Little Turnbull Lake,Lake,43.2835780,-80.4274830,Waterloo
FBZMH,Littles Corners,Compact Rural Community,43.3465400,-80.2732900,Waterloo
FERHD,Luxemburg,Locality,43.3958334,-80.7069444,Waterloo
FDKNG,Mannheim,Dispersed Rural Community,43.3981200,-80.5453800,Waterloo
FDKPS,Maple Hills,Compact Rural Community,43.4511111,-80.5463889,Waterloo
FDKPR,Maple Hills Creek,Creek,43.4516990,-80.5435480,Waterloo
FCDQF,Martin Creek,Creek,43.5241610,-80.5259370,Waterloo
FCDTF,Maryhill,Compact Rural Community,43.5340100,-80.3899300,Waterloo
FDMAN,McCrone's Lakes,Lakes,43.2929190,-80.4220250,Waterloo
FEBOM,Melitzer Creek,Creek,43.4841666,-80.4791666,Waterloo
FDUTY,Mill Creek,Creek,43.3574700,-80.3156570,Waterloo
FDUVU,Mill Pond,Pond,43.4376210,-80.3061660,Waterloo
FDUUQ,Millers Lake,Lake,43.2900000,-80.3825000,Waterloo
FIDDG,Minnow Creek,Creek,43.5142640,-80.4913560,Waterloo
FECBV,Moffatt's Creek,Creek,43.3595652,-80.2741734,Waterloo
FDVOL,Montgomery Creek,Creek,43.4623840,-80.4218060,Waterloo
FEAPA,New Dundee,Suburban Community,43.3510100,-80.5365700,Waterloo
FEBVH,New Hamburg,Suburban Community,43.3787600,-80.7109600,Waterloo
FEAOH,New Prussia,Dispersed Rural Community,43.4536111,-80.7569444,Waterloo
FELXH,North Dumfries,Township Municipality,43.3286111,-80.3872222,Waterloo
FDKIP,North Woolwich,Dispersed Rural Community,43.6566667,-80.5463889,Waterloo
FCGYQ,Oliver's Marsh,Marsh,43.3291666,-80.2833334,Waterloo
FDMNG,Orr's Lake,Lake,43.3557470,-80.3643330,Waterloo
FDMNE,Orr's Lake,Dispersed Rural Community,43.3597500,-80.3607100,Waterloo
FAXOD,Paradise Lake,Lake,43.4985000,-80.6601610,Waterloo
FDSTV,Parkway,Compact Rural Community,43.4161111,-80.4480555,Waterloo
FDOVR,Petersburg,Compact Rural Community,43.4151300,-80.6051300,Waterloo
FAXOG,Phillipsburg,Compact Rural Community,43.4208333,-80.7211111,Waterloo
FDTJT,Pinnacle Hill,Hill,43.3816400,-80.4118200,Waterloo
FCIKJ,Preston,Urban Community,43.3914800,-80.3487300,Waterloo
FCIUX,Punkeydoodles Corners,Dispersed Rural Community,43.3536100,-80.7342800,Waterloo
FCKNN,Reid's Lake,Lake,43.3222520,-80.4415060,Waterloo
FCKNO,Reid's Mill,Locality,43.3161112,-80.4522223,Waterloo
FCKNR,Reidsville,Locality,43.3186111,-80.4380556,Waterloo
FCLSP,Rockway,Urban Community,43.4402778,-80.4761111,Waterloo
FCMFK,Rosemount,Urban Community,43.4569445,-80.4636111,Waterloo
FCMFN,Rosendale,Dispersed Rural Community,43.4953900,-80.4536700,Waterloo
FCMGD,Roseville,Compact Rural Community,43.3430900,-80.4756900,Waterloo
FCMGF,Roseville Swamp,Swamp,43.3587000,-80.4307200,Waterloo
FCMWU,Rummelhardt,Compact Rural Community,43.4493200,-80.5672800,Waterloo
FDZOA,Sandrock Creek,Creek,43.4450430,-80.5031600,Waterloo
FEBCX,Schindelsteddle,Dispersed Rural Community,43.3891666,-80.6069445,Waterloo
FECYL,Schneider Creek,Creek,43.3944445,-80.4147222,Waterloo
FBVWW,Shantz Hill,Hill,43.3990300,-80.3714300,Waterloo
FAUBS,Shep's Subdivision,Suburban Community,43.3163889,-80.3191667,Waterloo
FCNXM,Shoemaker Creek,Creek,43.4404000,-80.4777550,Waterloo
FCOGG,Silver Creek,Creek,43.4672222,-80.7913889,Waterloo
FCOHZ,Silver Lake,Lake,43.4660930,-80.5283810,Waterloo
FCOKD,Silver Spring Creek,Creek,43.3778840,-80.6334520,Waterloo
FCOPL,Sink-Hole Swamp,Swamp,43.2808333,-80.3919445,Waterloo
FCPHT,Smith Creek,Creek,43.5115490,-80.8496710,Waterloo
FCRAC,Speed River,River,43.3872220,-80.3669440,Waterloo
FCRFZ,Spongy Lake,Lake,43.4152250,-80.6358970,Waterloo
FAXOE,St. Agatha,Suburban Community,43.4355555,-80.6308333,Waterloo
FECFA,St. Clements,Compact Rural Community,43.5241667,-80.6516667,Waterloo
FECGS,St. Jacobs,Suburban Community,43.5348500,-80.5537900,Waterloo
FCRYN,Stanley Park,Urban Community,43.4463889,-80.4441667,Waterloo
FEBWU,Strasburg,Dispersed Rural Community,43.3969400,-80.4587300,Waterloo
FCTBU,Strasburg Creek,Creek,43.3901320,-80.4332180,Waterloo
FCTXN,Sunfish Lake,Lake,43.4739900,-80.6343490,Waterloo
FCVCH,Taylor Lake,Lake,43.3210020,-80.3403320,Waterloo
FCZXA,Victoria Hills,Urban Community,43.4475000,-80.4963889,Waterloo
FCZYD,Victoria Park Lake,Lake,43.4466667,-80.4983334,Waterloo
FDAQY,Waldau,Compact Rural Community,43.4205555,-80.5611111,Waterloo
FDBKD,Waterloo,Regional Municipality,43.4929500,-80.5010100,Waterloo
FDBJZ,Waterloo,City,43.4797222,-80.5411111,Waterloo
FDHRJ,Waterloo,Geographic Township,43.4511111,-80.4380556,Waterloo
FDBLW,Watson Pond,Pond,43.2863960,-80.4492290,Waterloo
FDBWR,Weissenburg,Dispersed Rural Community,43.5744444,-80.4000000,Waterloo
FDBYT,Wellesley,Geographic Township,43.5427778,-80.7161111,Waterloo
FDBYW,Wellesley,Township Municipality,43.5507300,-80.7161900,Waterloo
FDBYS,Wellesley,Suburban Community,43.4753400,-80.7637400,Waterloo
FDCNQ,West Montrose,Compact Rural Community,43.5883333,-80.4819445,Waterloo
FDCNU,Westmount,Urban Community,43.4555556,-80.5275000,Waterloo
FDDWV,Williamsburg,Dispersed Rural Community,43.4017800,-80.4967100,Waterloo
FIDDK,Willow Creek,Creek,43.5124230,-80.4951329,Waterloo
FDTRB,Wilmot,Township Municipality,43.4102778,-80.6416667,Waterloo
FDTRD,Wilmot,Geographic Township,43.4091667,-80.6397222,Waterloo
FDEAS,Wilmot Centre,Dispersed Rural Community,43.3838100,-80.6437700,Waterloo
FDELK,Winterbourne,Compact Rural Community,43.5575000,-80.4711111,Waterloo
FEZXE,Woodside National Historic Site of Canada,National Historic Site,43.4666670,-80.5000000,Waterloo
FEALX,Woolwich,Geographic Township,43.5825000,-80.5155556,Waterloo
FEALY,Woolwich,Township Municipality,43.5836111,-80.5150000,Waterloo
FDFLX,Wrigley Corners,Dispersed Rural Community,43.2909600,-80.3848400,Waterloo
FDFMF,Wrigley's Lake,Lake,43.2923630,-80.3922130,Waterloo
FDGCP,Zuber Corners,Dispersed Rural Community,43.5870600,-80.4667000,Waterloo
FZAAH,Battle Hill National Historic Site of Canada,National Historic Site,42.6500000,-81.7500000,Wardsville
FZAAI,Lieu historique national du Canada de la Colline-de-la-Bataille,National Historic Site,42.6500000,-81.7500000,Wardsville
FIETQ,Backus Heritage Conservation Area,Conservation Area,42.6500000,-80.4667000,Walsingham
FIETR,Deer Creek Conservation Area,Conservation Area,42.7047920,-80.5609800,Walsingham
FIEYI,Haldimand Conservation Area,Conservation Area,42.7999350,-79.9937710,Walpole
FIDSF,Pichogen River Mixed Forest Provincial Park,Provincial Nature Reserve,48.9362060,-83.9878210,Walls
FESOW,Isle of View,Isle,44.7041840,-78.7915780,Victoria*
FDUHW,Bobcaygeon,Community,44.5468100,-78.5577100,Victoria; Peterborough
FBUVJ,Kinmount,Compact Rural Community,44.7809300,-78.6510000,Victoria; Peterborough
FCATQ,Long Point Shoal,Shoal,44.5008333,-78.5105556,Victoria; Peterborough
FDQKK,Pigeon Lake,Lake,44.4715530,-78.4949460,Victoria; Peterborough
FCYWL,Union Creek,Dispersed Rural Community,44.7222223,-78.6227778,Victoria; Peterborough
FDUIQ,Dalrymple Lake,Lake,44.6405160,-79.1109340,Victoria; Ontario
FDKKX,Manilla,Compact Rural Community,44.3083200,-78.9884700,Victoria; Ontario
FCQAH,Sonya,Compact Rural Community,44.2329800,-78.9573900,Victoria; Ontario
FEZXM,Lieu historique national du Canada de la Voie-Navigable-Trent–Severn,Waterway,44.5458330,-78.5388890,Victoria; Muskoka; Simcoe; Ontario
FEZXL,Trent–Severn Waterway National Historic Site of Canada,Waterway,44.5458330,-78.5388890,Victoria; Muskoka; Simcoe; Ontario
FCGDO,North Longford Lake,Lake,44.8951300,-79.0820300,Victoria; Muskoka
FCQNC,South Longford Lake,Lake,44.8811700,-79.0768200,Victoria; Muskoka
FADHS,Anson Creek,Creek,44.9392370,-78.9498560,Victoria; Haliburton
FAJCY,Blackberry Creek,Creek,44.9761111,-78.9680556,Victoria; Haliburton
FARXM,Coburn Lake,Lake,44.8078470,-78.8470730,Victoria; Haliburton
FASWO,Cooney Lake,Lake,44.8590900,-78.8696100,Victoria; Haliburton
FAUOL,Crotchet Lake,Lake,44.9592260,-78.9350620,Victoria; Haliburton
FDVXU,Scrabble Lake,Lake,44.8210650,-78.8629030,Victoria; Haliburton
FEDNU,West Moore's Lake,Lake,44.7840300,-78.8325200,Victoria; Haliburton
FEVMU,Kawartha Lakes,City,44.5875800,-78.8321000,Victoria; Durham
FACZB,Ancona Point,Dispersed Rural Community,44.5031700,-78.6143500,Victoria
FACZC,Ancona Point,Point,44.5052100,-78.6131600,Victoria
FADBZ,Andrews Creek,Creek,44.9048340,-79.0599750,Victoria
FADCD,Andrews Lake,Lake,44.9512080,-78.9743850,Victoria
FADIP,Ant Island,Island,44.5683400,-78.8676700,Victoria
FADOZ,Argyle,Compact Rural Community,44.4506800,-79.0172200,Victoria
FADSC,Armstrong Island,Island,44.7356400,-78.9040500,Victoria
FAEHO,Avery Point,Point,44.6707200,-79.1163200,Victoria
FAEHP,Avery Point,Compact Rural Community,44.6702778,-79.1169444,Victoria
FEGDG,Baddow,Dispersed Rural Community,44.6122222,-78.7588889,Victoria
FAEMN,Baldy Hill,Hill,44.2880600,-78.5504500,Victoria
FAEOI,Ball Island,Island,44.6113889,-78.8066667,Victoria
FAEOU,Ball Point,Point,44.1992900,-78.8134000,Victoria
FAEOV,Ball Point,Point,44.4516667,-78.7347223,Victoria
FAEQH,Balsam Lake,Lake,44.5804390,-78.8416480,Victoria
FAEQQ,Balsam Lake Provincial Park,Provincial Park,44.6277777,-78.8650000,Victoria
FAGQI,Beech Lake,Lake,44.7402670,-78.8494760,Victoria
FAHNH,Bethel,Dispersed Rural Community,44.3316666,-78.4816667,Victoria
FAHQC,Bexley,Geographic Township,44.6402778,-78.8930556,Victoria
FAHQB,Bexley,Dispersed Rural Community,44.6540300,-78.9102600,Victoria
FAHTX,Big Bob Channel,Channel,44.5388889,-78.5469444,Victoria
FAHWI,Big Duck Lake,Lake,44.9029300,-78.9598490,Victoria
FAHWO,Big Eddy,Falls,44.7950000,-79.2038889,Victoria
FAIIY,Big Trout Lake,Lake,44.9280920,-78.9276490,Victoria
FAISR,Birch Point,Point,44.5194700,-78.5907000,Victoria
FAITH,Birch Point,Dispersed Rural Community,44.5102800,-78.5962200,Victoria
FAISQ,Birch Point,Point,44.5193800,-78.8637300,Victoria
FAJPE,Black Point,Point,44.5352777,-78.5247222,Victoria
FDJLE,Bolsover,Dispersed Rural Community,44.5301700,-79.0599600,Victoria
FAKNV,Boot Lake,Lake,44.9327590,-79.0031280,Victoria
FALCR,Boyd Island,Island,44.5717700,-78.7564400,Victoria
FAMCQ,Browns Lake,Lake,44.9457470,-78.9979500,Victoria
FAMHN,Brush Lake,Lake,44.7221200,-78.9757650,Victoria
FAMMC,Buck Lake,Lake,44.7497222,-79.1358333,Victoria
FANEL,Burnt River,River,44.5812854,-78.7651080,Victoria
FANEM,Burnt River,Compact Rural Community,44.6750000,-78.6977778,Victoria
FANHV,Burys Green,Dispersed Rural Community,44.6100000,-78.6705555,Victoria
FANLN,Butternut Creek,Creek,44.5322380,-79.0747350,Victoria
FANOR,Cabin Lake,Lake,44.9448960,-79.0971360,Victoria
FCQLF,Cambray,Dispersed Rural Community,44.4086500,-78.8321100,Victoria
FANYO,Cameron,Compact Rural Community,44.4400000,-78.7738889,Victoria
FANZN,Cameron Lake,Lake,44.5520380,-78.7608340,Victoria
FAOGJ,Camp Kagawong,Dispersed Rural Community,44.5500000,-78.8294445,Victoria
FAODO,Campbells Beach,Dispersed Rural Community,44.6150000,-79.1172222,Victoria
FAOKG,Canal Lake,Lake,44.5674450,-79.0436590,Victoria
FAOSF,Carden,Geographic Township,44.6544444,-79.0402778,Victoria
FAPBC,Carp Lake,Lake,44.7961290,-79.0603830,Victoria
FAPKP,Cedar Glen,Dispersed Rural Community,44.4919445,-78.6358333,Victoria
FAQIM,Cherry Island,Island,44.5857400,-78.7995900,Victoria
FAQOD,Chimney Point,Point,44.5625000,-78.7697222,Victoria
FAQXV,Circlet Lake,Lake,44.9087200,-78.9805600,Victoria
FDZMN,Clear Lake,Lake,44.8118060,-78.8614750,Victoria
FARXD,Coboconk,Dispersed Rural Community,44.6582000,-78.7985600,Victoria
FASBA,Coburn Creek,Creek,44.7993070,-78.8703130,Victoria
FATBE,Corben Creek,Creek,44.6858880,-78.7466640,Victoria
FATIC,Corsons,Dispersed Rural Community,44.6291667,-78.8919445,Victoria
FATJW,Cottage Point,Point,44.5341500,-78.5587500,Victoria
FATPJ,Cowan's Bay,Dispersed Rural Community,44.3358334,-78.5433333,Victoria
FATVV,Cranberry Bay,Bay,44.5784700,-78.7612100,Victoria
FATXF,Cranberry Lake,Lake,44.7704610,-79.0500180,Victoria
FATXV,Cranberry Lake,Lake,44.8055556,-78.8811111,Victoria
FATXA,Cranberry Lake,Lake,44.5764250,-79.0912710,Victoria
FATYT,Cranberry River,River,44.7234700,-79.1550200,Victoria
FATYX,Crane Bay,Bay,44.5363888,-78.5261111,Victoria
FDXQP,Crego Creek,Creek,44.7602540,-78.6737560,Victoria
FAUDK,Crego Lake,Lake,44.7738889,-78.7102778,Victoria
FAUEZ,Cresswell,Dispersed Rural Community,44.2875000,-78.9705556,Victoria
FAUIZ,Crooked Lake,Lake,44.8293260,-78.9132870,Victoria
FAUYL,Cunningham's Corners,Dispersed Rural Community,44.3371100,-78.6904300,Victoria
FDUIO,Dalrymple,Dispersed Rural Community,44.6408333,-79.1038889,Victoria
FAVFL,Dalton,Geographic Township,44.7658333,-79.1094445,Victoria
FAVHD,Daniels Point,Point,44.5577600,-78.8165600,Victoria
FDNSU,Daytonia Beach,Dispersed Rural Community,44.4802778,-78.7313889,Victoria
FAWEJ,Deer Lake,Lake,44.7841070,-79.0871220,Victoria
FAWFJ,Deihl Point,Point,44.5465600,-78.7493800,Victoria
FAWFU,Delamere Island,Island,44.5865300,-78.8037900,Victoria
FAWQM,Deverells Creek,Creek,44.6988889,-79.1166666,Victoria
FDJQD,Deweys Island,Island,44.5744444,-78.7736111,Victoria
FEIWY,Digby,Geographic Township,44.8100100,-78.9387600,Victoria
FDJUL,Digby Creek,Creek,44.7955330,-78.8726590,Victoria
FAZEF,Dongola,Dispersed Rural Community,44.7432200,-78.7569800,Victoria
FAZPE,Downeyville,Dispersed Rural Community,44.3724900,-78.5931600,Victoria
FBAAT,Duck Lake,Lake,44.6744444,-78.9566667,Victoria
FBAOK,Dunsford,Dispersed Rural Community,44.4519444,-78.6427778,Victoria
FBBDP,East Cross Creek,Creek,44.2881670,-78.7386300,Victoria
FBCBJ,Eldon,Dispersed Rural Community,44.5094445,-79.0136111,Victoria
FEHQR,Eldon,Geographic Township,44.5061111,-78.9791666,Victoria
FBCGR,Ellery Bay,Bay,44.5030000,-78.7248600,Victoria
FBCHJ,Elliott Falls,Falls,44.7426600,-78.8251300,Victoria
FDGPY,Elm Tree Corners,Locality,44.3138889,-78.7886111,Victoria
FEITN,Emily,Geographic Township,44.3663700,-78.5498400,Victoria
FBCOQ,Emily Creek,Creek,44.4945310,-78.6275700,Victoria
FBCOT,Emily Lake,Lake,44.4463840,-78.5754190,Victoria
FEITM,Emily Provincial Park,Provincial Park,44.3373800,-78.5349700,Victoria
FBDLW,Falls Point,Point,44.5048400,-78.5156900,Victoria
FBDUB,Fee's Landing,Dispersed Rural Community,44.3451200,-78.5364200,Victoria
FBDUE,Feir Mill,Dispersed Rural Community,44.2762300,-78.6204300,Victoria
FBDUW,Fell,Railway Point,44.5966666,-78.7233334,Victoria
FBDVC,Fells Bay,Bay,44.5780555,-78.7458333,Victoria
FBDVO,Fenelon,Geographic Township,44.5037600,-78.7939100,Victoria
FBDVP,Fenelon Falls,Falls,44.5352900,-78.7373400,Victoria
FBDVQ,Fenelon Falls,Community,44.5370700,-78.7373400,Victoria
FBDVR,Fenelon River,River,44.5275683,-78.7276924,Victoria
FEEUX,Fingerboard,Dispersed Rural Community,44.2327778,-78.9155555,Victoria
FEIDW,Fisher Lake,Lake,44.9117310,-78.9289180,Victoria
FEIGS,Fishog Lake,Lake,44.7816730,-78.8834080,Victoria
FBFDB,Four Mile Lake,Lake,44.6816667,-78.7372222,Victoria
FDHFP,Fox's Corners,Locality,44.3841667,-78.5988889,Victoria
FBFML,Frank Hill,Hill,44.3666667,-78.4877778,Victoria
FBGIE,Galena Hill,Dispersed Rural Community,44.6993300,-78.6167700,Victoria
FBHLF,Gillson's Point,Dispersed Rural Community,44.2091666,-78.9077778,Victoria
FBHPM,Glandine,Dispersed Rural Community,44.3108333,-78.8088889,Victoria
FBHRR,Glenarm,Dispersed Rural Community,44.4833333,-78.8844444,Victoria
FBHWW,Glenway Village,Dispersed Rural Community,44.4555555,-78.6158333,Victoria
FBIBY,Gold Creek,Creek,44.7819800,-79.0357010,Victoria
FBIIC,Goose Bay,Bay,44.4133334,-78.7513889,Victoria
FBIJR,Goose Lake,Lake,44.5858960,-78.7611640,Victoria
FBIJP,Goose Lake,Lake,44.4219320,-78.8635800,Victoria
FBIXW,Grand Island,Island,44.5772200,-78.8273700,Victoria
FBIYT,Grand Rock,Rock,44.5912600,-78.8360200,Victoria
FBJDV,Grass Creek,Creek,44.5706470,-78.9348810,Victoria
FBJEC,Grasshill,Dispersed Rural Community,44.4136111,-78.9266667,Victoria
FBJHI,Grassy Marsh,Marsh,44.4727777,-78.5077778,Victoria
FBJTH,Green Island,Island,44.4128800,-78.7500300,Victoria
FBJQB,Greenhurst-Thurstonia,Police Village,44.4763889,-78.6602778,Victoria
FBJZR,Greeny Island,Island,44.5688889,-78.8441667,Victoria
FBKAQ,Gregory Point,Point,44.5350500,-78.7593000,Victoria
FBKBD,Grenadier Island,Island,44.4466667,-78.4947222,Victoria
FBMDZ,Hartley,Dispersed Rural Community,44.4497222,-78.8980555,Victoria
FBMKL,Hawkers Bay,Bay,44.5252778,-78.6197222,Victoria
FBMKM,Hawkers Creek,Creek,44.5283333,-78.6202778,Victoria
FBMSC,Head Lake,Lake,44.7401760,-78.9126530,Victoria
FBMSB,Head Lake,Dispersed Rural Community,44.7236111,-78.9316666,Victoria
FBNIP,Herring Island,Island,44.6709400,-79.1242000,Victoria
FBNLZ,Hickory Beach,Dispersed Rural Community,44.4826200,-78.6768300,Victoria
FBNVN,Hillhead Corners,Dispersed Rural Community,44.3106700,-78.6780100,Victoria
FBOFB,Hogg Island,Island,44.6002700,-78.8140000,Victoria
FBOFF,Hogg Rock,Rock,44.5965400,-78.8200500,Victoria
FBOGA,Hogsback,Ridge,44.2682000,-78.5909000,Victoria
FBOVL,Horn Lake,Lake,44.7716330,-79.0749800,Victoria
FBPOG,Hunter's Lake,Lake,44.8188889,-79.0802778,Victoria
FBQDC,Indian Point,Point,44.6084700,-78.8287100,Victoria
FEUUX,Indian Point Provincial Park,Provincial Park,44.6345500,-78.8235820,Victoria
FBQPL,Isaacs Glen,Dispersed Rural Community,44.5388889,-78.7836111,Victoria
FBQPN,Isaacs Point,Point,44.5527778,-78.7780555,Victoria
FBQVN,Islay,Dispersed Rural Community,44.4626700,-78.8551200,Victoria
FBSFK,Johnston Lake,Lake,44.7033930,-78.8239770,Victoria
FBSJK,Jordan's Lake,Lake,44.8516920,-78.9031570,Victoria
FBTVL,Keneden Park,Compact Rural Community,44.3590100,-78.5124400,Victoria
FBTWA,Kenhill Beach,Dispersed Rural Community,44.4850000,-78.6486111,Victoria
FBTXH,Kennedy Bay,Bay,44.4584600,-78.6939000,Victoria
FBTXF,Kennedy Bay,Compact Rural Community,44.4581200,-78.6909700,Victoria
FDIAU,Kenrei Park,Dispersed Rural Community,44.4055556,-78.7575000,Victoria
FBUBJ,Kenstone Beach,Dispersed Rural Community,44.5222223,-78.5644444,Victoria
FBUKW,Killabys Point,Point,44.4852778,-78.5102778,Victoria
FBUSO,King's Bay,Bay,44.2112700,-78.9204800,Victoria
FBUUS,Kings Wharf,Dispersed Rural Community,44.4405555,-78.5316666,Victoria
FBUYI,Kirkfield,Locality,44.5636111,-78.9797222,Victoria
FAATP,Kirkfield Lake,Lake,44.5858680,-78.9688630,Victoria
FBVUH,Laidlaw Point,Point,44.5795700,-78.8911400,Victoria
FBVVK,Lake Dalrymple,Dispersed Rural Community,44.6636500,-79.0974000,Victoria
FDIBS,Lakeview Estates,Dispersed Rural Community,44.4494445,-78.5080556,Victoria
FBWDL,Lancaster Bay,Bay,44.3409800,-78.4556300,Victoria
FBWTV,Laxton,Geographic Township,44.7140200,-78.8980900,Victoria
FEAZW,Lighthouse Point,Point,44.5691667,-78.7675000,Victoria
FBXNI,Lightning Point,Point,44.6319445,-78.8088889,Victoria
FBXSR,Linden Valley,Dispersed Rural Community,44.3661111,-78.8555555,Victoria
FDGDT,Lindsay,Community,44.3552778,-78.7438889,Victoria
FBYCE,Little Bob Channel,Channel,44.5322222,-78.5430555,Victoria
FBYCD,Little Boot Lake,Lake,44.9336111,-78.9738889,Victoria
FBYCT,Little Britain,Compact Rural Community,44.2856700,-78.8603100,Victoria
FBYGN,Little Coburn Lake,Lake,44.8124080,-78.8485970,Victoria
FCACS,Logan Hill,Hill,44.5137300,-79.0434100,Victoria
FCACV,Logan Lake,Lake,44.8758710,-78.9816730,Victoria
FCAHT,Long Beach,Dispersed Rural Community,44.4588888,-78.7350000,Victoria
FCALO,Long Lake,Lake,44.8085490,-78.9082190,Victoria
FCASO,Long Point,Point,44.4961111,-78.5158333,Victoria
FCASP,Long Point,Point,44.5682400,-78.8553800,Victoria
FCASF,Long Point,Dispersed Rural Community,44.5602778,-78.8661111,Victoria
FCATH,Long Point Bay,Bay,44.5001100,-78.5171500,Victoria
FCAIS,Longford,Geographic Township,44.9165300,-78.9998700,Victoria
FCBEL,Lorneville,Compact Rural Community,44.4230555,-79.0055556,Victoria
FCCRP,Mackenzie Point,Point,44.5858334,-78.8725000,Victoria
FDNFG,Mariposa,Dispersed Rural Community,44.3119444,-78.8727777,Victoria
FDVHO,Mariposa,Geographic Township,44.3386111,-78.9238889,Victoria
FDNFI,Mariposa Brook,Brook,44.3035610,-78.8072860,Victoria
FCDPX,Martin Creek,Creek,44.5267430,-78.5846020,Victoria
FCDQE,Martin Creek,Creek,44.5241667,-78.7744444,Victoria
FCEMB,McConnell Island,Island,44.5079100,-78.6220700,Victoria
FCEOE,McCrackins Beach,Dispersed Rural Community,44.6847222,-79.1072223,Victoria
FDMGE,McFarland Bay,Bay,44.5423900,-78.7855000,Victoria
FDNZN,McLaren Creek,Creek,44.3983590,-78.7903140,Victoria
FEBZA,Mitchell Lake,Lake,44.5737800,-78.9503050,Victoria
FDVOM,Montgomery Creek,Creek,44.8300000,-79.0588888,Victoria
FDWCS,Moore Hill,Hill,44.6735400,-78.7954200,Victoria
FDTJD,Mount Nebo,Hill,44.2857000,-78.5533600,Victoria
FCFMA,Murphy Lake,Lake,44.9284800,-78.9720600,Victoria
FCFQU,Muskrat Island,Island,44.5202777,-78.6105555,Victoria
FDSHO,Norland,Compact Rural Community,44.7276200,-78.8135200,Victoria
FCFUQ,North Bay,Bay,44.6263889,-78.8419444,Victoria
FCGQP,O'Donnell Landing,Dispersed Rural Community,44.2993100,-78.7284600,Victoria
FCGJU,Oak Lake,Lake,44.7477000,-78.8701400,Victoria
FCGIJ,Oakdene Point,Dispersed Rural Community,44.2135100,-78.7971400,Victoria
FCGLC,Oakwood,Dispersed Rural Community,44.3326200,-78.8789700,Victoria
FDLJM,Omemee,Community,44.3005555,-78.5611111,Victoria
FDMRF,Ops,Dispersed Rural Community,44.3246200,-78.7933600,Victoria
FDIPW,Ops,Geographic Township,44.3372300,-78.7204000,Victoria
FDIPX,Orange Corners,Locality,44.3063889,-78.4708333,Victoria
FDLWA,Pearns Creek,Creek,44.5041690,-78.8290880,Victoria
FDLSW,Pennington's Island,Island,44.5758333,-78.7772222,Victoria
FDLUI,Perch Creek,Creek,44.6322222,-78.9338889,Victoria
FDLUW,Perch Lake,Lake,44.7028230,-78.8897920,Victoria
FDJBN,Pickerel Point,Dispersed Rural Community,44.4083333,-78.7413889,Victoria
FDQKW,Pigeon River,River,44.3609330,-78.5157800,Victoria
FDZRQ,Pleasant Point,Police Village,44.4544444,-78.7047223,Victoria
FEUPF,Potash Creek,Creek,44.3711110,-78.5038890,Victoria
FCIEV,Potts Shore,Shore,44.5408334,-78.7813889,Victoria
FCIHQ,Powles Corners,Dispersed Rural Community,44.4836111,-78.7591667,Victoria
FEMVE,Ragged Rapids,Rapids,44.8100000,-79.0819444,Victoria
FCJIZ,Rainy Lake,Lake,44.7675450,-79.0995030,Victoria
FCJRI,Rathbun Island,Island,44.5687700,-78.7583900,Victoria
FCJUU,Raven Lake,Lake,44.7879800,-79.0628810,Victoria
FCJUW,Raven Lake,Lake,44.6207050,-78.9131990,Victoria
FCJYL,Reaboro,Dispersed Rural Community,44.3186111,-78.6425000,Victoria
FCKAT,Red Boat Lake,Lake,44.7990760,-78.8641250,Victoria
FCLXO,Rohallion,Dispersed Rural Community,44.5880556,-79.0438889,Victoria
FCMDG,Rosedale,Dispersed Rural Community,44.5744444,-78.7950000,Victoria
FCMDO,Rosedale River,River,44.5702778,-78.7658334,Victoria
FCMYX,Rush Lake,Lake,44.7143000,-78.9307200,Victoria
FCMZI,Rush Shoals,Shoals,44.4525000,-78.4988890,Victoria
FCNBE,Rutherford Creek,Creek,44.5107760,-78.7145550,Victoria
FCNGU,Sackett Bay,Bay,44.5314600,-78.7707200,Victoria
FCNHK,Sadowa,Dispersed Rural Community,44.7562800,-79.1547100,Victoria
FDTDK,Salem Corners,Dispersed Rural Community,44.2813889,-78.9363889,Victoria
FDZRE,Sandy Point,Compact Rural Community,44.4876400,-78.6705700,Victoria
FDVYV,Scugog River,River,44.3879070,-78.7509400,Victoria
FDXDU,Shadow Lake,Lake,44.7193656,-78.7936433,Victoria
FCOCE,Sickle Lake,Lake,44.9674500,-78.9618320,Victoria
FCOIH,Silver Lake,Lake,44.6841667,-78.7991667,Victoria
FCPNT,Smudge Creek,Creek,44.7798690,-78.9649560,Victoria
FCPNU,Smudge Lake,Lake,44.8223540,-78.9581400,Victoria
FCPVZ,Snug Harbour,Dispersed Rural Community,44.4252778,-78.7233334,Victoria
FCPWY,Soap Lake,Lake,44.7008333,-78.7711111,Victoria
FCPZO,Somerville,Geographic Township,44.6915400,-78.7166100,Victoria
FCQDK,South Bay,Bay,44.5415600,-78.8550500,Victoria
FCQRB,South River Point,Point,44.5430500,-78.5323900,Victoria
FDGFY,Southview Estates,Dispersed Rural Community,44.4438889,-78.7427778,Victoria
FCRZJ,Staples River,River,44.5522223,-78.8916667,Victoria
FCSBE,Starr Bay,Bay,44.2077778,-78.8197222,Victoria
FCSBH,Starr's Beach,Dispersed Rural Community,44.2176100,-78.8405300,Victoria
FCSOK,Stinsons Point,Point,44.5219445,-78.5183334,Victoria
FCSVC,Stony Creek,Creek,44.2740100,-78.7135810,Victoria
FCTIV,Stumpy Bay,Bay,44.5416667,-78.5316666,Victoria
FCTKX,Sturgeon Lake,Lake,44.4742080,-78.6886520,Victoria
FCTLA,Sturgeon Point,Community,44.4699100,-78.7034700,Victoria
FCUTH,Talbot Lake,Lake,44.6969890,-78.8519110,Victoria
FCVBU,Taylor Corners,Dispersed Rural Community,44.3391667,-78.8497222,Victoria
FCWBC,Thrasher Creek,Creek,44.9145630,-79.0173720,Victoria
FCWBF,Thrasher Lake,Lake,44.9166350,-78.9827540,Victoria
FCWRN,Togo Rock,Rock,44.5665400,-78.8123300,Victoria
FCYUC,Uley Lake,Lake,44.7858334,-79.0744444,Victoria
FCYXZ,Uphill,Dispersed Rural Community,44.7411111,-79.0097222,Victoria
FCYYK,Upper Andrews Lake,Lake,44.9340300,-78.9558000,Victoria
FCZKO,Valentia,Dispersed Rural Community,44.2469445,-78.8027778,Victoria
FCZVF,Verulam,Geographic Township,44.5425000,-78.6602778,Victoria
FCZVG,Verulam Park,Dispersed Rural Community,44.5030100,-78.6565600,Victoria
FCZXP,Victoria Lake,Lake,44.8604030,-78.8999500,Victoria
FESQE,Victoria Place,Community,44.4811111,-78.5183334,Victoria
FCZYI,Victoria Road,Compact Rural Community,44.5961111,-78.9386111,Victoria
FDBGE,Washburn Island,Island,44.1983990,-78.8296100,Victoria
FDBLX,Watsons,Railway Point,44.7355555,-78.6777778,Victoria
FDCDW,West Bay,Bay,44.5580700,-78.8870800,Victoria
FDEUD,Wolf Lake,Lake,44.8598700,-78.9167500,Victoria
FDFEK,Woodville,Community,44.3986111,-78.9891667,Victoria
FDFWZ,Young Lake,Lake,44.7125000,-79.1575000,Victoria
FDGBW,Zion,Dispersed Rural Community,44.4856600,-78.8158400,Victoria
FLAFY,Lac Saint-François,Lake,45.1392852,-74.4330515,United Counties Of Stormont; Dundas And Glengarry
FLACN,Nash Creek,Creek,44.9019730,-75.1659300,United Counties Of Stormont; Dundas And Glengarry
FCSPI,St. Lawrence River,River,45.1967900,-74.3314200,United Counties Of Stormont; Dundas And Glengarry
FLAGF,The Nation / La Nation,Township Municipality,45.4017100,-74.9826600,United Counties Of Stormont; Dundas And Glengarry
FIFAM,Baie Cheese Factory,Bay,44.3780290,-75.9344410,United Counties Of Stormont; Dundas And Glengarry
FIEYV,Cheese Factory Bay,Bay,44.3780290,-75.9344410,United Counties Of Stormont; Dundas And Glengarry
FIEYW,Cornwall's Point,Point,44.3779720,-75.9333350,United Counties Of Stormont; Dundas And Glengarry
FIFAL,Pointe de Cornwall,Point,44.3779720,-75.9333350,United Counties Of Stormont; Dundas And Glengarry
FIEIG,Trewartha Creek Conservation Reserve,Conservation Reserve,49.1398680,-90.7417450,Trewartha
FIEET,Pinard Moraine Conservation Reserve,Conservation Reserve,50.0120460,-81.7438610,Traill
FIETT,Waterford North Conservation Area,Conservation Area,42.9309130,-80.3173540,Townsend
FETGV,Niagara Basin,Basin,43.4972220,-79.1413890,Toronto*
FIDZB,Hammell Lake Conservation Reserve,Conservation Reserve,51.0968910,-94.0481460,Todd
FIEUV,Gillies Lake Conservation Area,Conservation Area,48.4782700,-81.3210580,Tisdale
FIEUW,Hersey Lake Conservation Area,Conservation Area,48.5161350,-81.2868760,Tisdale
FIEUY,White Waterfront Conservation Area,Conservation Area,48.4784410,-81.2051010,Tisdale
FGMLV,Portage de la Musique,Rapids,46.3066670,-79.1438890,Tipissing
FIDOH,Matinenda Provincial Park,Provincial Park,46.3572350,-82.9353930,Timmermans
FBQQV,Ishpatina Ridge,Ridge,47.3244445,-80.7391666,Timiskaming; Sudbury
FBVQZ,Lady Evelyn-Smoothwater Provincial Park,Provincial Park,47.3777700,-80.5116300,Timiskaming; Sudbury
FCLIX,Robson Creek,Creek,48.2252778,-81.8619445,Timiskaming; Sudbury
FEFVA,Aston Lake,Lake,47.2244444,-80.1077777,Timiskaming; Nipissing
FEVTU,Cliff Lake Conservation Reserve,Conservation Reserve,47.2166670,-79.6833330,Timiskaming; Nipissing
FBIBD,Goethe Lake,Lake,47.2150000,-79.7726400,Timiskaming; Nipissing
FBRHD,James Lake,Lake,47.1781730,-79.7404870,Timiskaming; Nipissing
FCBEZ,Lorrain Lake,Lake,47.1044520,-79.6116020,Timiskaming; Nipissing
FDDKI,Whitewater Lake,Lake,47.2325000,-80.0008333,Timiskaming; Nipissing
FABJY,Aaron Lake,Lake,47.0733334,-79.4666667,Timiskaming
FABQY,Adamson Lake,Lake,48.0370930,-79.5393150,Timiskaming
FABYH,Aidie Creek,Creek,47.9327778,-79.9300000,Timiskaming
FACGZ,Alexander Lake,Lake,47.6105555,-80.3863889,Timiskaming
FACIH,Alfie Creek,Creek,48.2212390,-79.8731440,Timiskaming
FACKR,Alice Lake,Lake,48.2720200,-81.4662200,Timiskaming
FACPK,Alma,Geographic Township,48.0586111,-80.5944445,Timiskaming
FACPT,Alma Lake,Lake,47.6838889,-80.3094444,Timiskaming
FACWC,Amikougami Creek,Creek,48.1060580,-80.1018310,Timiskaming
FACWD,Amikougami Lake,Lake,48.1938218,-80.0705256,Timiskaming
FACWR,Amos Lake,Lake,47.8601030,-80.9791380,Timiskaming
FADAO,Anderson Lake,Lake,47.2524010,-79.5913190,Timiskaming
FADCN,Andy Lake,Lake,47.8619445,-80.9669444,Timiskaming
FADCV,Aneroid Lake,Lake,47.4416667,-80.3127778,Timiskaming
FADJW,Anvil Lake,Lake,47.4226152,-80.2669133,Timiskaming
FADJX,Apex Lake,Lake,47.3564600,-80.6968000,Timiskaming
FADLZ,Arabella Lake,Lake,47.4363690,-80.2470350,Timiskaming
FEFSM,Argyle,Geographic Township,48.0593500,-80.8545600,Timiskaming
FADPA,Argyle Creek,Creek,48.0541590,-80.8702340,Timiskaming
FADPF,Argyle Lake,Lake,48.0367740,-80.8588900,Timiskaming
FADPT,Arkose Island,Island,47.6269100,-80.7828900,Timiskaming
FADQG,Armer Lake,Lake,48.1716190,-80.1423620,Timiskaming
FELKO,Armstrong,Township Municipality,47.7111900,-79.8245600,Timiskaming
FEFSU,Armstrong,Geographic Township,47.7122222,-79.8194445,Timiskaming
FADRZ,Armstrong Creek,Creek,47.7909860,-79.5305660,Timiskaming
FEFTC,Arnold,Geographic Township,48.2338300,-79.8201600,Timiskaming
FADUB,Arran Island,Island,48.1801100,-80.2333700,Timiskaming
FADUF,Arras Lake,Lake,48.2621950,-80.3700670,Timiskaming
FADVP,Arthur Lake,Lake,47.6975300,-81.0737400,Timiskaming
FADYH,Ash's Rock,Rock,47.7572220,-79.9280550,Timiskaming
FADXY,Ashley Lake,Lake,48.0238780,-80.8239230,Timiskaming
FAEED,Audrea Lake,Lake,47.8563920,-81.0589920,Timiskaming
FEFYM,Auld,Geographic Township,47.5408333,-80.0791667,Timiskaming
FAEFB,Auld Lake,Lake,47.5624590,-80.0406870,Timiskaming
FAEGB,Aurora Lake,Lake,47.3566667,-80.6038888,Timiskaming
FAEGJ,Austen Lake,Lake,48.0439290,-81.0559640,Timiskaming
FAEHE,Ava Lake,Lake,48.1668260,-79.7602280,Timiskaming
FEGAZ,Babcock Island,Island,47.1951000,-79.7129100,Timiskaming
FEGBK,Babs Lake,Lake,47.6773870,-80.7144580,Timiskaming
FEGCH,Bach Lake,Lake,47.4746810,-80.2650710,Timiskaming
FAEJJ,Baden,Geographic Township,48.0594444,-80.7308334,Timiskaming
FEGGL,Bailey Lake,Lake,47.6973660,-79.9944050,Timiskaming
FEGHS,Baker Creek,Creek,47.5270480,-81.0538280,Timiskaming
FEGHV,Baker Lake,Lake,47.5026920,-81.0645290,Timiskaming
FAEOT,Ballon Lake,Lake,48.2414720,-80.4246020,Timiskaming
FAESA,Banak Lake,Lake,47.4518340,-80.9292140,Timiskaming
FAESD,Banana Lake,Lake,48.1933333,-81.1233333,Timiskaming
FAETN,Banker Bay,Bay,47.6536111,-80.7727777,Timiskaming
FAETW,Banks,Geographic Township,47.5412300,-80.3342900,Timiskaming
FAEUF,Banner Lake,Lake,47.7937610,-81.0007190,Timiskaming
FAEUR,Bannockburn,Geographic Township,47.9727900,-80.8551400,Timiskaming
FAEUU,Bannockburn Creek,Creek,47.9958350,-80.9269480,Timiskaming
FAEUV,Bannockburn Lake,Lake,47.9700000,-80.9269444,Timiskaming
FAEVJ,Baptiste Creek,Creek,48.0394444,-80.6950000,Timiskaming
FAEVO,Baptiste Lake,Lake,48.0504470,-80.6426250,Timiskaming
FAEWN,Barber,Geographic Township,47.6280556,-80.2041667,Timiskaming
FAEWP,Barber Creek,Creek,47.6297222,-80.2108333,Timiskaming
FAEWR,Barber Lake,Lake,47.5350000,-80.2702778,Timiskaming
FAEWS,Barber Lake,Lake,48.1287110,-79.6113510,Timiskaming
FAFBI,Barnard Lake,Lake,48.2400000,-79.5361110,Timiskaming
FAFDT,Barr,Geographic Township,47.4516667,-79.9511111,Timiskaming
FAFGK,Barr Lake,Lake,47.4338060,-80.5798250,Timiskaming
FAFFZ,Barris Lake,Lake,48.2075130,-80.5398090,Timiskaming
FAFHZ,Barter Lake,Lake,47.2892090,-80.1085980,Timiskaming
FAFIA,Barth Lake,Lake,47.3383333,-79.6708333,Timiskaming
FAFID,Bartle Lake,Lake,47.4988710,-79.8336500,Timiskaming
FAFIE,Bartlett,Geographic Township,48.1472222,-81.2683333,Timiskaming
FAFIG,Bartlett Creek,Creek,48.1706960,-81.2829520,Timiskaming
FAFIJ,Bartlett Lake,Lake,48.2011111,-81.3483334,Timiskaming
FDGOF,Bass Lake,Lake,47.3600990,-79.7198060,Timiskaming
FEGTN,Bastian Lake,Lake,48.0609630,-80.5953620,Timiskaming
FEGOA,Bay Lake,Lake,47.3473770,-79.8392260,Timiskaming
FAFNU,Bayly,Geographic Township,47.8857100,-79.6905200,Timiskaming
FAFOR,Bayson Lake,Lake,47.8049050,-81.0367170,Timiskaming
FAFSS,Bear Creek,Creek,48.1359220,-79.5687940,Timiskaming
FAFWI,Bear Lake,Lake,48.1316070,-79.6314740,Timiskaming
FAFYJ,Bear River,River,47.7027777,-80.3602778,Timiskaming
FAFZX,Beaton Bay,Bay,47.6308334,-80.7933334,Timiskaming
FAGCB,Beauchamp,Geographic Township,47.7133333,-79.9536111,Timiskaming
FAGCJ,Beaudin Lake,Lake,48.0139270,-80.8018000,Timiskaming
FAGDU,Beauty Lake,Lake,47.5350130,-80.6026450,Timiskaming
FAGIS,Beaver Lake,Railway Point,48.1394445,-79.6494445,Timiskaming
FAGHN,Beaver Lake,Lake,47.8703600,-79.7368560,Timiskaming
FAGIA,Beaver Lake,Lake,48.1509450,-79.6356970,Timiskaming
FAGIC,Beaver Lake,Lake,48.0844500,-80.6265580,Timiskaming
FAGGY,Beaverhouse Lake,Lake,48.1754920,-79.7259220,Timiskaming
FAGXZ,Bell Island,Island,47.9513888,-80.7344445,Timiskaming
FAGWW,Belle Isle Lake,Lake,47.4702777,-79.9383333,Timiskaming
FAGWZ,Belle Lake,Lake,47.8611690,-81.0569050,Timiskaming
FAGXG,Belle Vallée,Dispersed Rural Community,47.6534700,-79.5931000,Timiskaming
FAHBJ,Belt Creek,Creek,48.0859340,-80.7531160,Timiskaming
FAHBK,Belt Lake,Lake,48.0774550,-80.7721780,Timiskaming
FAHEV,Benoit Creek,Creek,48.2733690,-80.2815450,Timiskaming
FAHFC,Benson Creek,Creek,48.0495330,-79.7030690,Timiskaming
FAHFH,Benson Lake,Lake,47.9743980,-79.7513920,Timiskaming
FAHGX,Bercole Lake,Lake,47.3598700,-80.4017100,Timiskaming
FAHHJ,Bergeron Lake,Lake,47.4526400,-80.2594970,Timiskaming
FAHIU,Bernhardt,Geographic Township,48.2327778,-80.0783333,Timiskaming
FAHIV,Bernhardt Lake,Lake,48.2437330,-80.0745120,Timiskaming
FAHIY,Bernice Island,Island,48.1673800,-79.7561000,Timiskaming
FAHLS,Berube Lake,Lake,48.2047222,-80.3000000,Timiskaming
FAHML,Bess Lake,Lake,47.9001310,-81.0238010,Timiskaming
FAHMJ,Bessie Lake,Lake,47.4024600,-80.2829300,Timiskaming
FAHMR,Best Lake,Lake,47.2461111,-79.8355556,Timiskaming
FAHOE,Betsy Lake,Lake,47.7919650,-80.7961140,Timiskaming
FAHRG,Bidgood Pothole,Lake,48.1614910,-79.8761780,Timiskaming
FAHTO,Big Bilsky Lake,Lake,47.4858333,-80.3502778,Timiskaming
FAHUB,Big Boot Lake,Lake,47.4147222,-80.1450000,Timiskaming
