CGNDB ID,Geographical Name,Generic Term,Latitude,Longitude,Location
FAAVM,10th Line Shore,Dispersed Rural Community,45.0919444,-76.1505555,Lanark
FAAZF,24 Mile Lake,Lake,46.5317300,-81.9876300,Sudbury
FABHU,52 Hill,Hill,42.4833334,-81.6830555,Kent
FEJEN,68 Bay,Bay,46.4014500,-83.0254500,Algoma
FABIP,68 Narrows,Narrows,46.4014400,-82.9540500,Algoma
FEEPZ,A Island,Island,46.7476360,-80.6737660,Sudbury
FACBN,A Lake,Lake,47.6731200,-81.8592700,Sudbury
FABUG,A-frame Lake,Lake,44.8764290,-79.6382320,Simcoe
FIEXS,A.W. Campbell Conservation Area,Conservation Area,42.8265060,-81.8348410,Middlesex
FEFZS,A.Y. Jackson Lake,Lake,46.0239500,-81.3978800,Manitoulin
FABJX,Aaron Creek,Creek,49.8048900,-81.8135800,Cochrane
FABJY,Aaron Lake,Lake,47.0733334,-79.4666667,Timiskaming
FABJZ,Aaron Lake,Lake,49.8312840,-93.5024800,Kenora
FABJW,Aaron Provincial Park,Provincial Park,49.7596300,-92.6534500,Kenora
FABMR,Ab Island,Island,45.7624500,-80.6396000,Parry Sound
FABNS,Ab Shoal,Shoal,45.7589100,-80.6409900,Parry Sound
FABKA,Abalard Creek,Creek,51.1121970,-93.7323770,Kenora
FABKB,Abamasagi Lake,Lake,50.4854530,-87.2420520,Thunder Bay
FABKC,Abamategwia Lake,Lake,49.6630250,-91.8986420,Kenora
FABKD,Abams Lake,Lake,49.2503200,-81.0082300,Cochrane
FABKE,Abate Lake,Lake,51.0532900,-94.1317800,Kenora
FABKF,Abazotikichuan Lake,Lake,51.3082170,-87.6956280,Kenora; Thunder Bay
FABKG,Abbe Creek,Creek,45.8948450,-78.2654700,Nipissing
FABKH,Abbe Lake,Lake,45.9098700,-78.2434300,Nipissing
FABKI,Abbess Lake,Lake,48.6797720,-91.6838380,Rainy River
FABKJ,Abbey,Geographic Township,48.2347222,-83.6877778,Sudbury
FABKK,Abbey Creek,Creek,48.3165560,-83.7382350,Sudbury
FABKL,Abbey Dawn Creek,Creek,44.2618850,-76.3798720,Frontenac
FABKM,Abbey Dawn Hill,Hill,44.2662600,-76.3834500,Frontenac
FABKN,Abbey Lake,Lake,48.2447222,-83.7113889,Sudbury
FABKO,Abbey Point,Point,45.2519445,-80.1305556,Parry Sound
FABKP,Abbie Lake,Lake,48.1919400,-85.3868000,Thunder Bay
FABKR,Abbotsford,Geographic Township,49.1230555,-79.7791667,Cochrane
FABKS,Abbotsford Creek,Creek,49.1775000,-79.7305556,Cochrane
FABKT,Abbotsford Lake,Lake,49.1386111,-79.7855556,Cochrane
FABKU,Abbott,Geographic Township,49.1219444,-83.3241666,Algoma
FABKV,Abbott Creek,Creek,49.1680555,-83.2980556,Algoma
FABKX,Abbott Island,Island,49.7333810,-94.5602570,Kenora
FABKW,Abbott Island,Island,45.5403420,-80.4616350,Parry Sound
FEKWJ,Abbott Lake,Lake,46.7675600,-81.6734500,Sudbury
FABLA,Abbott Lake,Lake,52.6929790,-88.1900760,Kenora
FABKY,Abbott Lake,Lake,44.6902730,-76.7351770,Frontenac
FABKZ,Abbott Lake,Lake,48.7909270,-93.7846870,Rainy River
FABLB,Abbott Point,Point,45.7416666,-80.0219445,Parry Sound
FABLD,Abbott's Island,Island,49.9755555,-94.6188889,Kenora
FABLC,Abbotts Hill,Hill,44.7427778,-76.8513889,Frontenac
FABLE,Abe Creek,Creek,48.8440830,-86.2220870,Thunder Bay
FABLG,Abelson Lake,Lake,52.6714420,-87.6970880,Kenora
FABLJ,Aber Creek,Creek,50.3775720,-91.4460030,Kenora
FABLX,Aber Lake,Lake,50.3445000,-91.4507000,Kenora
FABLH,Aberarder,Dispersed Rural Community,43.0527777,-82.0938889,Lambton
FABLI,Aberarder Creek,Creek,43.0981930,-82.1253170,Lambton
FABLK,Abercrombie Island,Island,44.3258333,-76.0569444,Leeds
FABLN,Aberdeen,Geographic Township,46.4843300,-83.7734000,Algoma
FABLM,Aberdeen,Dispersed Rural Community,45.4969445,-74.6663889,Prescott
FABLL,Aberdeen,Dispersed Rural Community,44.2127778,-80.8619444,Grey
FABLO,Aberdeen Additional,Geographic Township,46.4844445,-83.8663889,Algoma
FABLP,Aberdeen Creek,Creek,48.7120600,-89.1039600,Thunder Bay
FABLQ,Aberdeen Island,Island,45.0882300,-76.1702750,Lanark
FABLR,Aberdeen Island,Island,44.9307300,-79.9285900,Muskoka
FABLU,Aberfeldy,Dispersed Rural Community,42.7570900,-81.9374500,Lambton
FABLV,Aberfoyle,Dispersed Rural Community,43.4708300,-80.1468400,Wellington
FABLW,Aberfoyle Creek,Creek,43.4463120,-80.1820260,Wellington
FABLZ,Abernethy Lake,Lake,49.7331600,-94.6064650,Kenora
FABMA,Abes Lake,Lake,44.9341666,-77.2588889,Lennox and Addington
FABMB,Abie Lake,Lake,48.8364100,-91.5118390,Rainy River
FABMC,Abigail Island,Island,46.1791667,-82.4183333,Algoma
FABME,Abigo,Geographic Township,48.4938889,-83.6822222,Algoma
FABMF,Abigogami Creek,Creek,48.9652778,-88.8269445,Thunder Bay
FABMG,Abigogami Lake,Lake,48.9971940,-88.8202500,Thunder Bay
FABMH,Abimatinu Lake,Lake,49.5492500,-81.5789900,Cochrane
FABMI,Abimatinu River,River,49.6848200,-81.8543300,Cochrane
FABMJ,Abinette Lake,Lake,47.1858333,-82.6166667,Algoma
FBVXD,Abinette River,River,46.9862942,-82.7767456,Algoma
FABMK,Abingdon,Dispersed Rural Community,43.0836111,-79.6850000,Niagara
FABML,Abinger,Geographic Township,44.9988889,-77.2038889,Lennox and Addington
FABMM,Abino Bay,Bay,42.8544445,-79.0783334,Niagara
FABMN,Abino Hills,Hills,42.8463889,-79.1008333,Niagara
FABMP,Abino Point,Point,51.1059300,-93.7562800,Kenora
FABMS,Abitibi,Dispersed Rural Community,49.0251800,-80.8851400,Cochrane
FESXI,Abitibi 70,Indian Reserve,48.6355560,-79.9797220,Cochrane
FABMU,Abitibi Canyon,Compact Rural Community,49.8777778,-81.5711111,Cochrane
FABMV,Abitibi Canyon,Canyon,49.8859600,-81.5711200,Cochrane
FEPMI,Abitibi Lake Narrows Wilderness Area,Wilderness Area,48.7460090,-79.9009865,Cochrane
FABMY,Abitibi River,River,51.0672222,-80.9127777,Cochrane
FIDFQ,Abitibi-De-Troyes Provincial Park,Provincial Park,48.7520740,-80.0456790,Rickard
FABNA,Abiwin,Railway Point,48.7444445,-91.0663889,Rainy River
FABNB,Able Island,Island,44.8238889,-79.7125000,Muskoka
FABNC,Able Island,Island,49.9334340,-94.5458020,Kenora
FABNE,Abney,Geographic Township,47.2805300,-82.4062800,Sudbury
FABNF,Abney Lake,Lake,47.2994444,-82.3805555,Sudbury
FCFNP,Abotossaway,Geographic Township,48.2341667,-84.6030555,Algoma
FABNI,Abraham,Geographic Township,48.5836110,-85.1247220,Algoma
FABNJ,Abraham Head,Headland,44.2278800,-76.3981600,Frontenac
FABNL,Abram Lake,Lake,50.0590900,-91.9291640,Kenora
FABNK,Abram Lake,Lake,49.7602778,-84.2405556,Cochrane
FABNM,Abram Rapids,Rapids,50.0468990,-91.8967500,Kenora
FABNP,Abrams Point,Point,44.9617800,-78.0518500,Haliburton
FABNQ,Abrey,Geographic Township,49.7075000,-86.6102778,Thunder Bay
FABNT,Abs Lake,Lake,44.9771300,-76.9323800,Frontenac
FLAAW,Abstract Island,Island,45.6244090,-80.5493347,Parry Sound
FABNV,Acadia,Geographic Township,47.1963889,-80.4675000,Sudbury
FABNW,Acadia Island,Island,45.2380556,-79.9061111,Parry Sound
FABNX,Acadia Rock,Rock,46.1244444,-82.6683333,Algoma
FABNY,Acadia Rock,Rock,48.0058900,-89.5518100,Thunder Bay
FABNZ,Acanthus,Railway Point,46.0307100,-78.4044400,Nipissing
FABOA,Acanthus Island,Island,46.0248030,-78.4061910,Nipissing
FABOB,Acanthus Lake,Lake,46.0394300,-78.3794880,Nipissing
FABOD,Ace Lake,Lake,51.0701340,-90.3005360,Thunder Bay
FABOC,Ace Lake,Lake,48.1727778,-83.9716666,Sudbury
FABOE,Acer Lake,Lake,47.5441667,-84.6613889,Algoma
FABOF,Achapi Lake,Lake,51.2261650,-89.6075390,Thunder Bay
FABOH,Acheson,Geographic Township,46.5887200,-81.8688200,Sudbury
FABOJ,Acheson Lake,Lake,48.5226690,-91.2782050,Rainy River
FABOI,Acheson Lake,Lake,46.5800600,-81.9079100,Sudbury
FABOK,Achigan,Railway Point,46.8841666,-84.1713889,Algoma
FABOL,Achigan Creek,Creek,46.8341169,-84.1183840,Algoma
FABON,Achigan Lake,Lake,46.9167900,-84.1960090,Algoma
FABOP,Achill,Dispersed Rural Community,44.0163889,-79.9158333,Simcoe
FABOR,Achray,Railway Point,45.8676500,-77.7570500,Nipissing
FABOS,Acid Lake,Lake,46.0361700,-81.4431600,Manitoulin
FABOT,Acker Lake,Lake,51.9137090,-91.7162460,Kenora
FABOU,Ackerman Island,Island,44.5778800,-78.0902000,Peterborough
FABOV,Ackerman Lake,Lake,47.8250000,-82.6077778,Sudbury
FABOW,Ackert Drain,Drain,43.9566000,-81.5170500,Bruce
FABOX,Acme Lake,Lake,45.6661111,-78.9708334,Nipissing
FABOY,Acme Lake,Lake,48.4486111,-84.0422222,Algoma
FABOZ,Acolyte Lake,Lake,48.2130555,-83.7325000,Sudbury
FABPA,Aconda Lake,Lake,48.4902300,-81.5573400,Cochrane
FABPC,Acorn Lake,Lake,45.6897222,-77.6127778,Renfrew
FBYJC,Acre Lake,Lake,46.3603160,-83.4587280,Algoma
FERLX,Acre Shoal,Shoal,45.7481100,-81.9473500,Manitoulin
FABPD,Acres,Geographic Township,50.1676300,-82.3844400,Cochrane
FABPE,Actinolite,Compact Rural Community,44.5438889,-77.3261111,Hastings
FABPF,Acton,Geographic Township,48.4947700,-84.0731800,Algoma
FABPI,Acton Island,Island,45.0450000,-79.5969444,Muskoka
FABPH,Acton Island,Island,44.5566700,-78.1706900,Peterborough
FABPJ,Acton Lake,Lake,51.9516830,-86.1387500,Cochrane
FABPL,Acton Pond,Pond,45.3900000,-77.4502777,Renfrew
FABPN,Actons Corners,Dispersed Rural Community,44.9897222,-75.7125000,Grenville
FABPX,Ada Lake,Lake,48.8896450,-88.6846550,Thunder Bay
FABPV,Ada Lake,Lake,45.0908890,-79.6398110,Muskoka
FABPW,Ada Lake,Lake,46.0794444,-80.7075000,Sudbury
FEFVY,Adagio Lake,Lake,47.8800000,-83.5758334,Sudbury
FABPO,Adah Island,Island,45.0975000,-79.5875000,Muskoka
FABPP,Adair,Geographic Township,49.1286111,-79.6016667,Cochrane
FABPR,Adair Creek,Creek,49.1705555,-79.6625000,Cochrane
FABPT,Adair Lake,Lake,49.6252020,-92.1877940,Kenora
FABPU,Adair Lake,Lake,50.2587200,-87.8879800,Thunder Bay
FABPS,Adair Lake,Lake,48.4975000,-89.7777778,Thunder Bay
FIDSV,Adair Lake Conservation Reserve,Conservation Reserve,49.6214650,-92.2020990,Revell
FABPZ,Adam Creek,Creek,50.2437800,-82.0963200,Cochrane
FEPSK,Adam Creek Provincial Nature Reserve,Provincial Nature Reserve,50.2372222,-82.0991666,Cochrane
FABQB,Adam Lake,Lake,50.1584690,-93.5405390,Kenora
FABQC,Adam Point,Point,45.0402778,-79.5547223,Muskoka
FABQG,Adam's Bay,Bay,44.8222222,-77.6897222,Hastings
FABPY,Adamac Lake,Lake,51.7259090,-87.0827020,Kenora
FABQA,Adamhay Lake,Lake,50.6908840,-91.5594630,Kenora
FABQD,Adams,Geographic Township,48.3197222,-81.2686111,Cochrane
FABQH,Adams Bay,Bay,45.1317900,-79.5849700,Muskoka
FABQI,Adams Bay,Bay,49.1280556,-93.2097222,Kenora
FABQK,Adams Creek,Creek,52.9612390,-93.6249730,Kenora
FABQJ,Adams Creek,Creek,48.0513380,-83.2148560,Sudbury
FABQM,Adams Dam,Dam,44.8500000,-76.3500000,Lanark
FABQO,Adams Hill,Hill,44.9527777,-76.6494445,Lanark
FABQW,Adams Lake,Lake,44.9852778,-78.1738889,Haliburton
FABQT,Adams Lake,Lake,45.0592630,-79.7602270,Muskoka
FABQU,Adams Lake,Lake,47.9716667,-83.2005556,Sudbury
FEUYU,Adams Lake,Lake,45.3833330,-76.8333330,Renfrew
FABQR,Adams Lake,Lake,44.8116666,-76.2127778,Lanark
FABRC,Adams Point,Point,44.8605555,-79.9211111,Simcoe
FABRE,Adams River,River,49.5247810,-94.2153510,Kenora
FABRF,Adams River Bay,Bay,49.5163889,-94.2369445,Kenora
FABQL,Adamsdale,Compact Rural Community,46.4894445,-80.9077778,Sudbury
FABQX,Adamson,Geographic Township,49.1893400,-88.6373100,Thunder Bay
FABQY,Adamson Lake,Lake,48.0370930,-79.5393150,Timiskaming
FABQZ,Adamson Lake,Lake,49.9449280,-94.6227860,Kenora
FABRA,Adamson's Hill,Hill,44.6922223,-79.7716667,Simcoe
FABRH,Adamsville,Dispersed Rural Community,44.8598600,-81.1636100,Bruce
FABRK,Adanac,Dispersed Rural Community,46.9722000,-80.0312500,Nipissing
FABRJ,Adanac,Dispersed Rural Community,45.4245100,-80.3893400,Parry Sound
FABRI,Adanac,Geographic Township,49.5148400,-81.5667300,Cochrane
FABRL,Adanac Creek,Creek,49.5277777,-81.6769445,Cochrane
FABRM,Adanac Lake,Lake,49.4990600,-81.5831000,Cochrane
FABRX,Add Lake,Lake,49.8737300,-90.7086700,Thunder Bay
FABRO,Addie Lake,Lake,48.1666550,-90.4295350,Thunder Bay
FABRQ,Addington Bank,Bank,45.0195700,-80.0189900,Muskoka
FEUSS,Addington Highlands,Township Municipality,44.9313889,-77.3130556,Lennox and Addington
FABRR,Addington Lake,Lake,45.3317180,-77.1264700,Renfrew
FABRT,Addison,Compact Rural Community,44.6605556,-75.8822222,Leeds
FABRS,Addison,Geographic Township,48.1475000,-83.6861111,Sudbury
FABRU,Addison Lake,Lake,48.1036260,-83.6721200,Sudbury
FABRV,Addison Lake,Lake,48.4476120,-88.7786530,Thunder Bay
FEODO,Addoms Island,Island,45.5466460,-80.4700520,Parry Sound
FABSJ,Adel Lake,Lake,49.7652778,-85.9647222,Thunder Bay
FABRY,Adelaide,Geographic Township,42.9669444,-81.7180556,Middlesex
FABRZ,Adelaide,Dispersed Rural Community,43.0051000,-81.7121400,Middlesex
FABSA,Adelaide Creek,Creek,43.0816666,-81.7308333,Middlesex
FABSB,Adelaide Island,Island,44.4361111,-75.8383333,Leeds
FABSC,Adelaide Lake,Lake,46.9836670,-80.6472970,Sudbury
FABSD,Adelaide Lake,Lake,47.0600000,-84.3052778,Algoma
FEVLX,Adelaide Metcalfe,Township Municipality,42.9481200,-81.7140200,Middlesex
FABSF,Adelard,Railway Point,46.2133333,-78.0194444,Renfrew
FABSG,Adelard Lake,Lake,46.2272222,-77.9922222,Renfrew
FABSH,Adele Island,Island,45.1417100,-80.0529400,Parry Sound
FABSI,Adele Lake,Lake,49.1801160,-91.3754280,Kenora
FABSL,Adik Creek,Creek,49.4315500,-85.1811900,Algoma
FABSM,Adik Lake,Lake,49.2972223,-85.1680556,Algoma
FABSN,Adios Lake,Lake,47.4048300,-83.5290100,Sudbury
FABSP,Adjala,Geographic Township,44.0501200,-79.9076900,Simcoe
FESED,Adjala-Tosorontio,Township Municipality,44.1322222,-79.9322222,Simcoe
FABSS,Admaston,Dispersed Rural Community,45.4751600,-76.8102900,Renfrew
FABSR,Admaston,Geographic Township,45.4427000,-76.8337200,Renfrew
FEVHF,Admaston/Bromley,Township Municipality,45.5291667,-76.8969445,Renfrew
FABST,Admiral,Geographic Township,48.3231600,-83.5567300,Sudbury
FABSU,Admiral Creek,Creek,48.2933334,-83.6244445,Sudbury
FABSW,Admiral Lake,Lake,48.3245000,-83.5515200,Sudbury
FABTE,Admit Lake,Lake,48.2575740,-90.9674430,Thunder Bay
FABTF,Adobe Lake,Lake,46.8724000,-80.4527800,Sudbury
FABTH,Adolphus Reach,Reach,44.0938889,-76.9208333,Lennox and Addington
FABTJ,Adolphustown,Dispersed Rural Community,44.0636111,-77.0033333,Lennox and Addington
FABTI,Adolphustown,Geographic Township,44.1016666,-77.0202778,Lennox and Addington
FABTL,Adrains Creek,Creek,44.6618390,-76.3403120,Leeds
FABTM,Adrian,Geographic Township,48.4540000,-89.8319200,Thunder Bay
FABTO,Adrian Lake,Lake,48.4528980,-89.8161850,Thunder Bay
FABTP,Adrienne Lake,Lake,45.7308334,-78.5011111,Nipissing
FABTR,Advance,Dispersed Rural Community,45.8684900,-82.4290200,Manitoulin
FABTS,Advance Reef,Reef,45.5752778,-82.1630555,Manitoulin
FABTT,Adventure Creek,Creek,50.9641260,-94.8640720,Kenora
FABTU,Adventure Island,Island,48.7326700,-91.1998720,Rainy River
FABTV,Adventure Lake,Lake,50.9088889,-94.8561111,Kenora
FABTW,Adze Lake,Lake,49.2944444,-85.7741667,Thunder Bay
FABTX,Aegean Creek,Creek,50.8457280,-94.7643460,Kenora
FABTY,Aegean Lake,Lake,50.8214290,-94.7574090,Kenora
FABTZ,Aerial Lake,Lake,49.2487600,-88.1158000,Thunder Bay
FABUA,Aerial Lake,Lake,50.5626900,-92.1926110,Kenora
FDGLP,Aerobus Bay,Bay,50.3658170,-93.3016390,Kenora
FDGLQ,Aerobus Creek,Creek,50.3676020,-93.3205820,Kenora
FABUB,Aerobus Lake,Lake,50.3331760,-93.4051880,Kenora
FABUC,Aerofoil Lake,Lake,50.6704380,-92.6482200,Kenora
FABUD,Aeroplane Lake,Lake,49.7936111,-87.0080556,Thunder Bay
FABUF,Affleck Lake,Lake,50.0223590,-93.1567050,Kenora
FABUE,Affleck Lake,Lake,47.2420200,-83.5507100,Sudbury
FABUH,Africa Rock,Rock,46.2588889,-83.6402778,Algoma
FABUI,Afton,Geographic Township,46.9338889,-80.3533333,Sudbury
FABUK,Again River,River,50.9294444,-79.5352778,Cochrane
FABUQ,Agam Lake,Lake,49.1472222,-85.8447223,Thunder Bay
FABUO,Agamik Gap,Gap,48.9208333,-84.3777778,Algoma
FABUP,Agamik Island,Island,48.9166667,-84.3869444,Algoma
FABUR,Agar Lake,Lake,49.5189200,-89.9069140,Thunder Bay
FABUU,Agassiz,Geographic Township,49.6438700,-81.1720900,Cochrane
FABUV,Agassiz Island,Island,45.4594540,-80.4730940,Parry Sound
FABUW,Agassiz Lake,Lake,49.5887980,-81.0485663,Cochrane
FIDIN,Agassiz Peatlands Provincial Park,Provincial Nature Reserve,48.8689000,-94.5180800,Spohn
FABUX,Agassiz River,River,49.7730555,-81.1088889,Cochrane
FABUZ,Agate,Railway Point,48.5226600,-82.9635500,Algoma
FABUY,Agate,Geographic Township,49.6447222,-81.7694445,Cochrane
FABVA,Agate Cove,Cove,48.5959000,-88.1982200,Thunder Bay
FABVB,Agate Creek,Creek,49.6926300,-81.7912500,Cochrane
FABVF,Agate Island,Island,48.6936650,-87.9877860,Thunder Bay
FABVC,Agate Island,Island,46.3121200,-83.9253500,Algoma
FABVD,Agate Island,Island,47.7120100,-85.7990200,Thunder Bay
FEPMJ,Agate Island Wilderness Area,Wilderness Area,48.6933333,-87.9877778,Thunder Bay
FABVI,Agate Lake,Lake,49.6402778,-81.6994444,Cochrane
FABVH,Agate Lake,Lake,49.2605870,-88.9942400,Thunder Bay
FABVG,Agate Lake,Lake,44.6774100,-78.2723700,Peterborough
FABVJ,Agate Point,Point,48.5922222,-88.1980556,Thunder Bay
FABVK,Agates Harbour,Harbour,47.0094445,-84.7841667,Algoma
FCPNY,Agawa,Railway Point,47.6653500,-84.5026300,Algoma
FABVL,Agawa Bay,Dispersed Rural Community,47.3479100,-84.6265800,Algoma
FCHQP,Agawa Bay,Bay,47.3430200,-84.6346200,Algoma
FAXEY,Agawa Canyon,Canyon,47.4554500,-84.4893300,Algoma
FABVN,Agawa Island,Island,46.0648900,-81.8015500,Manitoulin
FABVO,Agawa Islands,Islands,47.3586111,-84.6963889,Algoma
FABVQ,Agawa Lake,Lake,47.8392780,-84.2566500,Algoma
FABVR,Agawa Point,Point,47.3577778,-84.6791667,Algoma
FABVS,Agawa River,River,47.5201389,-84.4599139,Algoma
FABVT,Agawa Rock,Rock,47.3680556,-84.6977777,Algoma
FABVX,Agawa Station Lake,Lake,47.6575000,-84.5380556,Algoma
FABVV,Agawask Creek,Creek,51.0925900,-81.3040300,Cochrane
FESVI,Agency 1,Indian Reserve,48.6238890,-93.3616670,Rainy River
FESXJ,Agency 30,Indian Reserve,49.3611110,-94.6152780,Kenora
FABWA,Agerton,Dispersed Rural Community,43.5555556,-79.8077778,Halton
FABWC,Agimak Lake,Lake,49.3891700,-91.6829010,Kenora
FABWD,Agimak River,River,49.6283333,-91.6597222,Kenora
FABWE,Agincourt,Urban Community,43.7926100,-79.2838900,York
FABWF,Agincourt North,Urban Community,43.8027778,-79.2686111,York
FABWH,Agnes Lake,Lake,45.3779570,-79.9563070,Parry Sound
FABWI,Agnes Lake,Lake,48.2280390,-91.3511160,Rainy River
FABWL,Agnes River,River,46.6581600,-81.7727600,Sudbury
FABWO,Agnes River East Channel,Channel,48.3269440,-91.2611110,Rainy River
FABWQ,Agnes River West Channel,Channel,48.3246400,-91.3112700,Rainy River
FABWR,Agnes Rock,Rock,44.7952900,-76.2118300,Lanark
FABWS,Agnew,Geographic Township,51.1527778,-92.5919444,Kenora
FABWT,Agnew Lake,Lake,46.3652602,-81.7546411,Sudbury
FABWU,Agnew Lake,Lake,51.1246200,-92.5733200,Kenora
FABWV,Agonzon,Railway Point,48.9325000,-85.9280556,Thunder Bay
FABWW,Agonzon Lake,Lake,49.0218805,-85.8325521,Thunder Bay
FABWZ,Agreen Lake,Lake,49.0563889,-84.9563889,Algoma
FEJKR,Aguasabon Falls,Falls,48.7797222,-87.1216666,Thunder Bay
FEJKS,Aguasabon Gorge,Gorge,48.7813889,-87.1225000,Thunder Bay
FABXA,Aguasabon Lake,Lake,49.0249100,-87.0693100,Thunder Bay
FABXB,Aguasabon River,River,48.7727760,-87.1165420,Thunder Bay
FABXC,Ague Lake,Lake,45.0488530,-81.4038950,Bruce
FEBXC,Aguonie,Geographic Township,48.2369444,-84.4744444,Algoma
FABXD,Agusada Creek,Creek,48.1938889,-83.8077778,Sudbury
FABXE,Agusada Lake,Lake,48.1795300,-83.7184900,Sudbury
FABXF,Agusk Lake,Lake,54.6609700,-89.5085100,Kenora
FABXG,Agutua Arm,Arm,52.8605160,-91.2091150,Kenora
FABXH,Agutua Lake,Lake,52.6721510,-91.3806290,Kenora
FABXI,Agutua River,River,52.8004170,-91.3408540,Kenora
FABXL,Agwasuk River,River,51.1277778,-82.2594445,Cochrane
FABXN,Agwatik Creek,Creek,51.0564100,-81.5418300,Cochrane
FABXP,Ahatamanga Island,Island,44.9214200,-79.8523800,Muskoka
FABXQ,Ahdik Lake,Lake,48.4116666,-86.2147223,Thunder Bay
FABXS,Ahern Lake,Lake,49.2771400,-80.9745500,Cochrane
FABXT,Ahmabel Lake,Lake,49.5855555,-84.9272222,Algoma
FABXU,Ahme Creek,Creek,45.4905190,-78.7545160,Nipissing
FABXV,Ahme Lake,Lake,45.4997222,-78.7972223,Nipissing
FABXW,Ahmic Creek,Creek,45.6199310,-79.6474480,Parry Sound
FEVSK,Ahmic Forest and Rock Barrens Conservation Reserve,Conservation Reserve,45.5853240,-79.7985610,Parry Sound
FABXX,Ahmic Harbour,Compact Rural Community,45.6614900,-79.7774800,Parry Sound
FABXZ,Ahmic Lake,Lake,45.6343660,-79.6954500,Parry Sound
FABXY,Ahmic Lake,Dispersed Rural Community,45.6253400,-79.6870600,Parry Sound
FIEYY,Ahr Island,Island,44.8717490,-76.9931880,County Of Frontenac
FABYB,Ahsin Bay,Bay,48.3424100,-91.3681800,Rainy River
FABYC,Ahsine Creek,Creek,48.0269444,-81.9613889,Sudbury
FABYD,Ahsine Lake,Lake,47.9910000,-81.9466500,Sudbury
FABYG,Aiabewatik Lake,Lake,49.4593470,-92.4657470,Kenora
FABYI,Aide Creek,Creek,45.0701720,-77.4555090,Lennox and Addington
FABYJ,Aide Lake,Lake,45.0094444,-77.5541667,Hastings
FABYH,Aidie Creek,Creek,47.9327778,-79.9300000,Timiskaming
FABYN,Aikens Island,Island,46.1413889,-82.5322222,Algoma
FABYO,Aikens Lake,Lake,46.5984500,-83.2729300,Algoma
FABYP,Aikensville,Locality,43.4295600,-80.2333000,Wellington
FABYQ,Aikman Lake,Lake,45.2875310,-80.0059470,Parry Sound
FABYR,Aileen Lake,Lake,46.8786111,-80.0177778,Nipissing
FABYS,Ailsa Craig,Community,43.1514200,-81.5365000,Middlesex
FABYW,Ainslie Lake,Lake,45.6796210,-79.9953710,Parry Sound
FABYX,Ainslie Shoal,Shoal,45.8220600,-83.0068500,Manitoulin
FEPNV,Ainslie Wood Conservation Area,Conservation Area,44.6318570,-80.8724010,County of Grey
FABZE,Air Base Bay,Bay,49.3941667,-82.1550000,Cochrane
FABZK,Air Hole Lake,Lake,48.8225050,-91.5583430,Rainy River
FABZF,Aird Bay,Bay,46.1880555,-82.4688889,Algoma
FABZH,Aird Island,Island,46.1372222,-82.4261111,Algoma
FABZG,Aird Island,Island,44.6066800,-76.1348700,Leeds
FABZI,Aird Lake,Lake,45.1304470,-77.0761760,Renfrew
FABZJ,Airfield Creek,Creek,50.0458333,-85.2241666,Cochrane
FABZL,Airlie,Compact Rural Community,44.2609800,-80.0082800,Simcoe
FABZM,Airplane Island,Island,49.4453800,-82.1777000,Cochrane
FABZN,Airplane Lake,Lake,48.9638889,-84.8311111,Algoma
FEEPY,Airplane Lake,Lake,47.2625000,-80.6280556,Sudbury
FABZO,Airport Drain,Drain,43.2316667,-79.1880556,Niagara
FABZP,Airport Lake,Lake,46.8397800,-82.1231800,Algoma
FABZQ,Airport Lake,Lake,50.6460640,-86.8926200,Thunder Bay
FIDTE,Airport Road Conservation Reserve,Conservation Reserve,49.8263590,-92.7631630,Zealand
FABZR,Airstrip Lake,Lake,48.7458333,-80.7888889,Cochrane
FABZS,Airy,Dispersed Rural Community,45.4984700,-78.2567700,Nipissing
FABZT,Airy,Geographic Township,45.5303300,-78.1979400,Nipissing
FABZU,Airy Creek,Creek,45.5798080,-78.1911920,Nipissing
FABZV,Airy Lake,Lake,45.5869444,-78.2186111,Nipissing
FABZZ,Aitken,Geographic Township,48.7754200,-81.9532700,Cochrane
FACAA,Aitken Creek,Creek,48.7244445,-81.9252778,Cochrane
FACAC,Aitken Island,Island,44.8290200,-79.7036500,Muskoka
FACAE,Aitken Lake,Lake,48.7909000,-81.9256800,Cochrane
FACAD,Aitken Lake,Lake,48.2494000,-84.4995600,Algoma
FACAG,Ajax,Town,43.8582100,-79.0363500,Durham
FDNSW,Ajax Creek,Creek,49.3361550,-93.4510680,Kenora
FACAH,Ajax Island,Island,45.1896760,-80.1519690,Parry Sound
FACAI,Ajax Lake,Lake,49.3292270,-93.4270050,Kenora
FACAJ,Ajax Rock,Rock,45.1877300,-80.1429000,Parry Sound
FACAK,Ajitamo Narrows,Narrows,48.8221300,-85.6765400,Thunder Bay
FACAM,Akandamo Lakes,Lakes,55.0583333,-89.3330555,Kenora
FACAN,Akandamo River,River,55.1344444,-88.8563888,Kenora
FACAR,Akebia Creek,Creek,49.3847222,-86.5402778,Thunder Bay
FACAS,Akebia Lake,Lake,49.3485100,-86.5833100,Thunder Bay
FACAT,Akem Falls,Falls,54.1922730,-90.4342640,Kenora
FACAU,Akey Lake,Lake,54.1206570,-92.6242850,Kenora
FACAV,Aki Lake,Lake,50.5364500,-91.1440400,Kenora
FACAW,Akin Lakes,Lakes,50.0529250,-92.9219430,Kenora
FIDTG,Akonesi Chain of Lakes Complex Conservation Reserve,Conservation Reserve,47.8105770,-81.8169770,Carter
FACAZ,Akonesi Creek,Creek,47.7702778,-81.8080555,Sudbury
FACBA,Akonesi Lake,Lake,47.8115500,-81.8234800,Sudbury
FACBB,Akonewi Lake,Lake,47.8304600,-81.8351200,Sudbury
FACBD,Akow Lake,Lake,52.7788710,-90.4692090,Kenora
FACBE,Akron,Railway Point,48.9034700,-84.1169800,Algoma
FACBF,Akron Creek,Creek,48.8845938,-84.1159204,Algoma
FACBG,Akron Lakes,Lakes,48.9157344,-84.0688864,Algoma
FESVJ,Akwesasne 59,Indian Reserve,45.0480550,-74.5691670,"Stormont, Dundas and Glengarry"
FACBK,Akweskwa Lake,Lake,48.1586800,-81.9004000,Sudbury
FACLB,Al-Jo Island,Island,44.5687300,-78.0564400,Peterborough
FACBL,Alabama Lake,Lake,48.2469770,-84.9217900,Algoma
FDIGQ,Alanen,Geographic Township,48.4152000,-85.1193300,Algoma
FACBR,Alans Island,Island,44.8165400,-76.4191400,Lanark
FBQHS,Alarie,Geographic Township,47.6147223,-84.9413889,Algoma
FACBX,Alaska's Lake,Lake,46.7333900,-81.5942900,Sudbury
FACBZ,Alba Lake,Lake,47.8880400,-83.7726200,Sudbury
FACCA,Alban,Compact Rural Community,46.1051100,-80.6226300,Sudbury
FCCKF,Albanel,Geographic Township,46.5761111,-83.0172222,Algoma
FACCE,Albany Forks,Forks,49.0930555,-84.1333333,Algoma
FACCF,Albany Forks,Railway Point,49.1166667,-84.1811111,Algoma
FACCH,Albany Island,Island,52.2572030,-81.5953539,Cochrane
FACCI,Albany Rapids,Rapids,49.3783333,-83.4441666,Cochrane
FACCL,Albany River,River,52.2905530,-81.5003888,Kenora
FEUUN,Albany River Provincial Park,Provincial Park,51.3625000,-87.7750000,Kenora; Thunder Bay; Cochrane
FACCM,Albemarle,Geographic Township,44.8550000,-81.1705555,Bruce
FACCN,Albemarle Brook,Brook,44.8178260,-81.2378970,Bruce
FACCO,Albert,Dispersed Rural Community,44.3172700,-77.1346000,Hastings
FACCS,Albert Bay,Bay,49.4294444,-88.4436111,Thunder Bay
FACCT,Albert Channel,Channel,45.3151500,-80.2366300,Parry Sound
FACCU,Albert Falls,Falls,50.3841667,-87.2494445,Thunder Bay
FACCW,Albert Island,Island,49.4277500,-88.4278980,Thunder Bay
FACCX,Albert Islands,Islands,48.0740300,-89.3416900,Thunder Bay
FACDE,Albert Lake,Lake,49.0986520,-88.9726310,Thunder Bay
FACDB,Albert Lake,Lake,48.2857300,-84.2148800,Algoma
FACDH,Albert Lake,Lake,50.0039360,-94.1813270,Kenora
FACCZ,Albert Lake,Lake,48.9166890,-93.7307970,Rainy River
FACDA,Albert Lake,Lake,45.5044444,-77.5947222,Renfrew
FACCY,Albert Lake,Lake,48.5163130,-91.7388760,Rainy River
FACDI,Albert Lake,Lake,50.3404300,-87.6001600,Thunder Bay
FACDD,Albert Lake,Lake,48.8668300,-87.5229000,Thunder Bay
FEPSM,Albert Lake Mesa Provincial Nature Reserve,Provincial Nature Reserve,49.0919444,-88.9788889,Thunder Bay
FACDJ,Albert Lake Portage,Portage,48.9281800,-93.7166700,Rainy River
FACCP,Alberta Creek,Creek,48.8822222,-86.0375000,Thunder Bay
FACCQ,Alberta Lake,Lake,48.8636112,-86.0180556,Thunder Bay
FACCR,Alberta Rock,Rock,45.6492800,-80.6134700,Parry Sound
FACDK,Alberton,Dispersed Rural Community,43.1867000,-80.0712500,Wentworth
FDPFU,Alberton,Township Municipality,48.5884600,-93.5203900,Rainy River
FACDN,Albertson Creek,Creek,48.7065200,-92.6203300,Rainy River
FACDO,Albion,Geographic Township,43.9237800,-79.8437800,Peel
FACDP,Albion,Dispersed Rural Community,43.9069445,-79.8461111,Peel
FACDR,Albion Falls,Falls,43.2004100,-79.8199600,Wentworth
FACDS,Albion Falls,Urban Community,43.1972222,-79.8183334,Wentworth
FACDT,Albion Hills,Hills,43.9157700,-79.8996000,Peel
FIEXW,Albion Hills Conservation Area,Conservation Area,43.9301680,-79.8283770,Peel
FACDU,Albion Lake,Lake,45.0468390,-77.9802110,Hastings
FACDV,Albuna,Dispersed Rural Community,42.1361110,-82.6380550,Essex
FACDW,Albury,Dispersed Rural Community,44.0792600,-77.5282100,Prince Edward
FACDY,Alces Creek,Creek,46.5578660,-81.9851400,Sudbury
FACDZ,Alces Lake,Lake,46.7542300,-82.1398500,Algoma
FACEB,Alco Creek,Creek,45.9923230,-78.1991950,Nipissing
FACED,Alco Lake,Lake,46.0342700,-78.2216600,Nipissing
FACEA,Alcock Lake,Lake,49.8312930,-94.4977770,Kenora
FACEE,Alcona,Geographic Township,47.4537700,-82.1508400,Sudbury
FACEG,Alcona,Railway Point,50.0659250,-91.7409090,Kenora
FACEF,Alcona,Compact Rural Community,44.3150300,-79.5462200,Simcoe
FACEH,Alcona Bay,Bay,50.0458340,-91.7878550,Kenora
FACEK,Alcona Beach,Beach,44.3125000,-79.5383330,Simcoe
FACEL,Alcona Creek,Creek,47.4420490,-82.0659310,Sudbury
FACEM,Alcona Lake,Lake,47.4528340,-82.1184610,Sudbury
FACEN,Alcorn,Geographic Township,48.1476000,-83.0495600,Sudbury
FACEO,Alcorn Lake,Lake,48.1171500,-83.0143100,Sudbury
FELKB,Aldborough,Locality,42.5889600,-81.6693000,Elgin
FACEQ,Aldborough,Geographic Township,42.5866666,-81.6602778,Elgin
FACER,Alden,Railway Point,48.1913889,-84.5436111,Algoma
FACES,Alden Lake,Lake,47.0115700,-83.1434800,Algoma
FACET,Alden Lake,Lake,48.1902778,-84.5619445,Algoma
FACEU,Alder,Dispersed Rural Community,44.1836300,-79.3837300,York
FACFB,Alder Creek,Creek,48.7135770,-85.7784810,Thunder Bay
FACEV,Alder Creek,Creek,43.3087350,-80.3101040,Waterloo
FACEY,Alder Creek,Creek,45.2496160,-77.7153190,Hastings
FACEZ,Alder Creek,Creek,45.8117990,-78.6791240,Nipissing
FACEW,Alder Creek,Creek,43.3111111,-80.5091666,Oxford
FACEX,Alder Creek,Creek,44.8750050,-78.1360250,Peterborough
FACFA,Alder Creek,Creek,47.2530555,-84.0802777,Algoma
FACFC,Alder Creek,Creek,49.2983334,-82.5191666,Cochrane
FACFI,Alder Lake,Lake,45.6461111,-78.6033333,Nipissing
FACFH,Alder Lake,Lake,44.8683333,-78.1458333,Peterborough
FACFK,Alder Lake,Lake,50.1110070,-92.4657250,Kenora
FACFG,Alder Lake,Lake,43.3548000,-80.5368960,Waterloo
FACFD,Alderdale,Dispersed Rural Community,46.1004000,-79.2611200,Nipissing
FACFL,Aldershot,Urban Community,43.3088000,-79.8409800,Halton
FACFN,Alderslea,Compact Rural Community,44.3226400,-79.5372900,Simcoe
FACFO,Alderson,Geographic Township,49.2529500,-84.1835000,Algoma
FACFP,Alderville,Dispersed Rural Community,44.1813889,-78.0661111,Northumberland
FESXK,Alderville First Nation,Indian Reserve,44.1760580,-78.0805300,Northumberland
FACFR,Alderwood,Urban Community,43.6086300,-79.5387500,York
FACFS,Aldina,Geographic Township,48.3688889,-89.9511111,Thunder Bay
FACFT,Aldon Lake,Lake,49.7515490,-87.5027830,Thunder Bay
FACFU,Aldous Bay,Bay,50.3993970,-92.4055320,Kenora
FACFW,Aldous Creek,Creek,50.9946430,-90.2017760,Thunder Bay
FACFX,Aldous Lake,Lake,51.0178710,-90.1467510,Thunder Bay
FACFY,Aldred Lake,Lake,52.2823190,-87.6128620,Kenora
FACFZ,Aldred's Beach,Dispersed Rural Community,44.1644444,-78.8608334,Durham
FEDEW,Aldrich Cove,Cove,45.5625000,-80.4861110,Parry Sound
FEDEP,Aldridge Lake,Lake,50.1444210,-89.7766410,Thunder Bay
FACGH,Ale Lake,Lake,47.7897222,-84.5800000,Algoma
FACGI,Ale Point,Point,46.4350000,-82.3322222,Algoma
FACGC,Alec Clark Rock,Rock,45.8530556,-81.4338889,Manitoulin
FACGD,Aleck Lake,Lake,46.8830555,-80.3316667,Sudbury
FACGK,Alert Point,Point,46.0518000,-81.9113100,Manitoulin
FACHZ,Alex Channel,Channel,42.5909600,-80.4292900,Norfolk
FACIA,Alex Creek,Creek,49.4701500,-81.8095400,Cochrane
FACIE,Alex Lake,Lake,49.4841667,-84.7958334,Algoma
FACID,Alex Lake,Lake,49.4488889,-81.7866667,Cochrane
FDGLT,Alex Lake,Lake,50.1694910,-92.6684830,Kenora
FACGM,Alexander Bay,Bay,45.0576200,-80.0155200,Muskoka
FACGN,Alexander Island,Island,44.8298500,-79.7010200,Muskoka
FACGQ,Alexander Island,Island,46.9763010,-80.0949670,Nipissing
FACGP,Alexander Island,Island,45.0515300,-80.0258740,Muskoka
FACGU,Alexander Lake,Lake,46.1156100,-81.8248400,Sudbury
FACHB,Alexander Lake,Lake,50.1902890,-94.5718760,Kenora
FACHA,Alexander Lake,Lake,48.2904490,-80.5834560,Cochrane
FACGX,Alexander Lake,Lake,46.5872222,-82.5436111,Algoma
FACGV,Alexander Lake,Lake,46.4666666,-78.9313889,Nipissing
FACGZ,Alexander Lake,Lake,47.6105555,-80.3863889,Timiskaming
FACGY,Alexander Lake,Lake,46.6350000,-84.2005555,Algoma
FIDLW,Alexander Lake Forest Provincial Park,Provincial Park,46.4602860,-78.9198000,Antoine
FACHC,Alexander Passage,Passage,45.6308333,-80.5516667,Parry Sound
FDOBE,Alexander Reef,Reef,48.2100100,-89.2140000,Thunder Bay
FACHE,Alexander Reef,Reef,47.5791666,-85.0066666,Algoma
FACHG,Alexander Rock,Rock,45.9445900,-81.4071200,Manitoulin
FIDMB,Alexander Stewart Provincial Park,Provincial Nature Reserve,45.4302320,-76.4987940,Renfrew
FACHK,Alexandra,Geographic Township,49.3833333,-81.7661111,Cochrane
FACHL,Alexandra Harbour,Harbour,49.5489500,-88.4504500,Thunder Bay
FACHM,Alexandra Island,Island,45.4816040,-76.2326210,Carleton
FACHN,Alexandra Island,Island,49.5329080,-88.4429880,Thunder Bay
FACHQ,Alexandra Lake,Lake,48.3094445,-84.5461111,Algoma
FACHS,Alexandre Lake,Lake,49.6186310,-94.0666250,Kenora
FACHT,Alexandria,Community,45.3094400,-74.6329500,Glengarry
FACHU,Alexandria Bay,Bay,48.8632200,-93.4116400,Rainy River
FACHV,Alexandria Island,Island,49.2179840,-94.6694420,Kenora
FACIB,Alexis Creek,Creek,46.4890540,-78.9283390,Nipissing
FACIC,Alexis Lake,Lake,46.4842860,-78.9455040,Nipissing
FECWL,Alexo,Railway Point,48.6675700,-80.8179400,Cochrane
FACIJ,Alf Lake,Lake,47.0821427,-82.9696769,Algoma
FACIK,Alf Lake,Lake,48.8454200,-83.8471800,Algoma
FACIG,Alfes Lake,Lake,45.2189500,-77.0131700,Renfrew
FACIH,Alfie Creek,Creek,48.2212390,-79.8731440,Timiskaming
FACIM,Alford Creek,Creek,51.1804790,-93.9181630,Kenora
FACIN,Alford Lake,Lake,49.6167340,-93.3962650,Kenora
FACIO,Alford Lake,Lake,51.1488889,-93.9941667,Kenora
FACIQ,Alfred,Community,45.5561111,-74.8877778,Prescott
FACIP,Alfred,Geographic Township,45.5663889,-74.8816667,Prescott
FEDEI,Alfred Bank,Bank,44.9469700,-79.9840600,Muskoka
FACIU,Alfred Bog,Bog,45.4908333,-74.8350000,Prescott
FEDEU,Alfred Inlet,Inlet,49.2262600,-94.1236800,Kenora
FACIY,Alfred Island,Island,46.1321200,-82.6664200,Algoma
FACJA,Alfred Lake,Lake,45.6757760,-79.0055930,Nipissing
FACJB,Alfred Lake,Lake,49.8447222,-86.7902778,Thunder Bay
FACJC,Alfred Lake,Lake,50.4170520,-93.7168710,Kenora
FACJF,Alfred Station,Railway Point,45.5294445,-74.8927778,Prescott
FEUSG,Alfred and Plantagenet,Township Municipality,45.5806000,-74.9190400,Prescott
FACIR,Alfreda Creek,Creek,47.1094650,-79.8259510,Nipissing
FACIS,Alfreda Island,Island,45.1331100,-79.5365100,Muskoka
FACIT,Alfreda Lake,Lake,47.1130555,-79.8677778,Nipissing
FACJG,Alga Lake,Lake,50.6055555,-95.0525000,Kenora
FACJH,Algo,Railway Point,46.5096000,-80.9731700,Sudbury
FACJI,Algocen Lake,Lake,47.0627778,-84.0450000,Algoma
FEQQV,Algoma,Geographic District,47.7113889,-84.4061112,
FACJM,Algoma Bay,Bay,46.1925600,-82.8123900,Algoma
FIDQP,Algoma Headwaters Provincial Park,Provincial Park,47.1366050,-83.6106330,Hoffman
FACJN,Algoma Mills,Community,46.1853400,-82.8126700,Algoma
FCWPZ,Algona,Geographic Township,45.5186100,-77.2893100,Renfrew
FACJQ,Algonquin,Compact Rural Community,44.7032000,-75.6695600,Grenville
FEVUD,Algonquin Highlands,Township Municipality,45.3963889,-78.6875000,Haliburton
FACJT,Algonquin Island,Island,45.1827778,-80.1075000,Parry Sound
FACJS,Algonquin Island,Island,43.6275610,-79.3598740,York
FACJU,Algonquin Lake,Lake,49.3004400,-80.9892700,Cochrane
FACJV,Algonquin Park,Dispersed Rural Community,45.5516666,-78.5958334,Nipissing
FACJR,Algonquin Provincial Park,Provincial Park,45.8367800,-78.4292200,Nipissing; Haliburton
FACJW,Alguire Lake,Lake,51.8298900,-89.0862400,Kenora
FACJX,Alice,Geographic Township,45.7900000,-77.2386111,Renfrew
FACJY,Alice,Dispersed Rural Community,45.7572223,-77.2900000,Renfrew
FACKA,Alice Creek,Creek,49.9736111,-94.7208333,Kenora
FACKB,Alice Island,Island,44.8345000,-78.7785000,Haliburton
FACKC,Alice Island,Island,45.1517170,-80.0942100,Parry Sound
FACKF,Alice Island,Island,49.8830555,-83.2027778,Cochrane
FACKD,Alice Island,Island,45.3263889,-79.1972222,Muskoka
FACKE,Alice Island,Island,46.3294445,-83.8950000,Algoma
FACKL,Alice Lake,Lake,46.4578460,-80.8560410,Sudbury
FACKQ,Alice Lake,Lake,48.2033334,-84.7116666,Algoma
FACKW,Alice Lake,Lake,46.9146090,-79.6085120,Nipissing
FACKK,Alice Lake,Lake,45.7716200,-78.3023600,Nipissing
FACKP,Alice Lake,Lake,47.9413889,-83.1605556,Sudbury
FACKI,Alice Lake,Lake,47.1280600,-83.8271200,Algoma
FACKR,Alice Lake,Lake,48.2720200,-81.4662200,Timiskaming
FACKV,Alice Lake,Lake,49.9625940,-94.7342380,Kenora
FACKS,Alice Lake,Lake,48.4911350,-91.3842370,Rainy River
FLASI,Alice Lake,Lake,48.3838924,-84.9993137,District Of Algoma
FEDEJ,Alice Rock,Rock,44.8950900,-79.9045500,Muskoka
FEDEO,Alicia Rock,Rock,46.2662800,-83.7114100,Algoma
FACKY,Alike Lake,Lake,47.8104420,-82.0337620,Sudbury
FEUFP,Alike River,River,47.8736800,-82.1087200,Sudbury
FACLA,Alister Lake,Lake,48.3884500,-83.9347800,Sudbury
FACLC,Aljo Lake,Lake,54.5123430,-91.3544230,Kenora
FETJQ,Aljoe Creek,Creek,44.1261020,-80.9306010,Grey
FEDEZ,Alkenore Lake,Lake,50.0421270,-91.6612950,Kenora
FACLE,Allan,Dispersed Rural Community,44.6195600,-77.4774200,Hastings
FACLD,Allan,Geographic Township,45.9069444,-82.3536111,Manitoulin
FACLG,Allan Creek,Creek,48.4388110,-91.5578990,Rainy River
FACLI,Allan Falls,Falls,48.6875000,-83.4038889,Algoma
FACLJ,Allan Island,Island,44.6284600,-76.3430900,Leeds
FACLL,Allan Island,Island,51.0512400,-80.8967400,Cochrane
FACLK,Allan Island,Island,48.6908333,-83.4033334,Algoma
FACLT,Allan Lake,Lake,49.2794200,-93.5882100,Kenora
FACLM,Allan Lake,Lake,48.4040540,-91.5918780,Rainy River
FACLU,Allan Lake,Lake,49.6803405,-82.7589325,Cochrane
FACLS,Allan Lake,Lake,48.7107150,-88.7251470,Thunder Bay
FACLW,Allan Lake,Lake,50.4222070,-86.2821460,Cochrane
FACLV,Allan Lake,Lake,50.0704230,-91.7958610,Kenora
FACLQ,Allan Lake,Lake,48.2973770,-79.8800130,Cochrane
FACLP,Allan Lake,Lake,47.0183333,-80.2055556,Nipissing
FACLN,Allan Lake,Lake,46.1005556,-78.2813889,Nipissing
FACLX,Allan McCuaig Drain,Drain,45.3042000,-74.5384700,Glengarry
FACLY,Allan Mills,Dispersed Rural Community,44.4083333,-77.7222222,Northumberland
FETHC,Allan Otty Shoal,Shoal,44.0658800,-76.4629900,Frontenac
FACMA,Allan Park,Dispersed Rural Community,44.1672223,-80.9325000,Grey
FACMB,Allan Park Conservation Area,Conservation Area,44.1473560,-80.9266660,Grey
FACMD,Allan Park Trout Pond,Pond,44.1463889,-80.9263889,Grey
FACMG,Allan Rapids,Rapids,51.0650952,-80.8950152,Cochrane
FACMP,Allan Water,River,50.2702970,-90.1585740,Thunder Bay
FEDES,Allanburg,Compact Rural Community,43.0762500,-79.2082400,Niagara
FACMH,Allans Corners,Dispersed Rural Community,45.6780555,-77.0955555,Renfrew
FACMI,Allans Creek,Creek,43.7797223,-81.7194445,Huron
FACMJ,Allans Island,Island,49.7196360,-94.4686730,Kenora
FACMK,Allans Narrows,Narrows,49.7175000,-94.4694445,Kenora
FACML,Allans Point,Point,45.1161111,-76.1708334,Lanark
FEUEG,Allanwater Bridge,Community,50.2395930,-90.1676350,Thunder Bay
FACMS,Allard Lake,Lake,50.0197300,-90.4895400,Thunder Bay
FACMR,Allard Lake,Lake,46.5766667,-84.4213889,Algoma
FACMT,Allard Lake,Lake,50.9601700,-88.2990200,Thunder Bay
FACMU,Allbright Lake,Lake,51.0174450,-87.0695030,Thunder Bay
FACMV,Allely Creek,Creek,49.7159900,-90.3688500,Thunder Bay
FACMW,Allely Lake,Lake,49.6237940,-90.3416330,Thunder Bay
FACMX,Allen,Geographic Township,46.0602778,-80.7672222,Sudbury
FACMY,Allen Bay,Bay,46.2311700,-82.8832200,Algoma
FACNE,Allen Creek,Creek,45.1399020,-78.2130230,Haliburton
FACND,Allen Creek,Creek,45.0940300,-75.5372320,Dundas
FACNH,Allen Island,Island,45.2865100,-80.2592200,Parry Sound
FACNR,Allen Lake,Lake,48.3520850,-84.1577260,Algoma
FACNQ,Allen Lake,Lake,48.1900000,-84.5880555,Algoma
FACNI,Allen Lake,Lake,44.9327778,-77.9222222,Hastings
FACNS,Allen Lake,Lake,46.2278400,-82.8909900,Algoma
FACNL,Allen Lake,Lake,46.0613507,-80.7793509,Sudbury
FACNT,Allen Lake,Lake,49.0754660,-93.1316380,Rainy River
FACNP,Allen Lake,Lake,47.7454020,-82.6280490,Sudbury
FACNJ,Allen Lake,Lake,45.1186050,-78.2539770,Haliburton
FACNN,Allen Lake,Lake,46.5598240,-82.4698370,Algoma
FACNV,Allen Lakes,Lakes,45.1893020,-79.0221840,Muskoka
FACNW,Allen Rapids,Rapids,45.8757000,-78.8313200,Nipissing
FACNX,Allen Rapids Portage,Portage,45.8773600,-78.8274900,Nipissing
FECRG,Allen Rocks,Rocks,45.0162800,-80.0140900,Muskoka
FACNZ,Allen's Corners,Locality,43.1191667,-79.5880556,Niagara
FACOE,Allen's Point,Point,46.3167200,-82.9582200,Algoma
FACOF,Allen's Ridge,Ridge,42.5485100,-80.0984000,Norfolk
FACMZ,Allenby,Geographic Township,48.9069444,-82.7375000,Algoma
FACNA,Allenby Creek,Creek,48.9744445,-82.8350000,Algoma
FACNB,Allenby Lake,Lake,48.8314600,-82.6379300,Cochrane; Algoma
FACNG,Allenford,Police Village,44.5362600,-81.1778000,Bruce
FACOA,Allens Creek,Creek,44.1322420,-81.2418080,Bruce
FACOC,Allens Lakes,Lakes,43.9616666,-80.0363889,Dufferin
FACOD,Allens Point,Point,44.0605556,-76.9911111,Lennox and Addington
FACOG,Allensville,Dispersed Rural Community,45.2615300,-79.3043500,Muskoka
FACOH,Allenwood,Dispersed Rural Community,44.5762200,-79.9540400,Simcoe
FACOI,Allenwood Beach,Dispersed Rural Community,44.5736111,-79.9916667,Simcoe
FACEC,Allie Island,Island,49.6024120,-94.4789850,Kenora
FACOM,Alligator Lake,Lake,47.4292300,-81.8640000,Sudbury
FACON,Alligator Point,Point,48.9708333,-84.4305555,Algoma
FACOO,Allimil,Railway Point,44.1109900,-79.7928900,Simcoe
FACOQ,Allin Lake,Lake,47.5357298,-81.3210840,Sudbury
FACOR,Allin Lake,Lake,49.8382230,-94.8674400,Kenora
FACOP,Allingham Creek,Creek,44.4800600,-79.4709530,Simcoe
FACOU,Allison Drain,Drain,45.0595600,-75.2101900,Dundas
FACOV,Allison Island,Island,46.1916667,-79.9077777,Nipissing
FACOW,Allison Lake,Lake,51.1155555,-92.3686111,Kenora
FACOX,Allisonville,Dispersed Rural Community,44.0298000,-77.3676000,Prince Edward
FACOY,Alliston,Urban Community,44.1536111,-79.8641667,Simcoe
FACOZ,Allman's Bay,Bay,49.9785800,-94.6529480,Kenora
FACPA,Allman's Island,Island,48.9325050,-93.7940390,Rainy River
FACPB,Alloa,Dispersed Rural Community,43.7044440,-79.8563890,Peel
FACPC,Allouez,Geographic Township,47.7028800,-84.9255600,Algoma
FACPD,Allouez Island,Island,48.6840350,-86.6120210,Thunder Bay
FACPE,Allsaw,Dispersed Rural Community,44.9888889,-78.6111112,Haliburton
FACPH,Allumette Lake,Lake,45.8910000,-77.2230000,Renfrew
FACPI,Alluring Creek,Creek,45.7786111,-78.1200000,Nipissing
FACPJ,Alluring Lake,Lake,45.7855555,-78.1363889,Nipissing
FACQA,Alm Lake,Lake,47.4798700,-83.7578200,Sudbury
FIDTI,Alm Lake Forest Conservation Reserve,Conservation Reserve,47.4707160,-83.7801370,Hancock
FACPP,Alma,Compact Rural Community,43.7302700,-80.5023500,Wellington
FACPK,Alma,Geographic Township,48.0586111,-80.5944445,Timiskaming
FACPQ,Alma Creek,Creek,46.3262860,-83.1707850,Algoma
FACPT,Alma Lake,Lake,47.6838889,-80.3094444,Timiskaming
FACPS,Alma Lake,Lake,46.9837300,-80.5625100,Sudbury
FACPR,Alma Lake,Lake,46.3136960,-83.1528260,Algoma
FACPV,Alma Lake,Lake,49.8643320,-87.8305340,Thunder Bay
FACPL,Alma Station,Railway Point,43.7250000,-80.4950000,Wellington
FACPX,Almas Bay,Bay,50.6325590,-89.5156180,Thunder Bay
FACPY,Almeda Point,Point,45.1452778,-79.5325000,Muskoka
FACPZ,Almira,Dispersed Rural Community,43.9322222,-79.3366666,York
FACQC,Almo Lake,Lake,50.4650000,-95.0072223,Kenora
FACQD,Almon Island,Island,46.3113889,-84.0608333,Algoma
FACQE,Almon Lake,Lake,49.4473200,-89.8990200,Thunder Bay
FACQF,Almonte,Community,45.2248700,-76.1951300,Lanark
FACQG,Almonte Lake,Lake,47.7268880,-84.6948860,Algoma
FACQH,Almonte Rapids,Rapids,45.2266667,-76.1925000,Lanark
FACQI,Almos Shoal,Shoal,48.7720800,-87.0650300,Thunder Bay
FACQJ,Alnwick,Geographic Township,44.1924400,-78.0731800,Northumberland
FEVHR,Alnwick/Haldimand,Township Municipality,44.1125000,-78.0533333,Northumberland
FACQN,Alona Bay,Bay,47.1644445,-84.7047222,Algoma
FACQO,Alona Bay Creek,Creek,47.1647223,-84.6936111,Algoma
FACQP,Alonghill Lake,Lake,49.0923840,-93.1846990,Rainy River
FACQV,Alph Creek,Creek,50.3207600,-86.5678900,Thunder Bay
FACQW,Alph Lake,Lake,50.3192120,-86.6483840,Thunder Bay
FACQQ,Alpha,Geographic Township,50.2944444,-86.6488889,Thunder Bay
FACQU,Alpha Lake,Lake,50.2791667,-87.7236111,Thunder Bay
FACQS,Alpha Lake,Lake,47.6631500,-83.9071000,Sudbury
FACQR,Alpha Lake,Lake,47.1566550,-84.6507980,Algoma
FACQT,Alpha Lake,Lake,48.7291550,-90.2904620,Thunder Bay
FACQX,Alphonse Bay,Bay,50.4309130,-89.2171890,Thunder Bay
FACRB,Alpine Lake,Lake,47.7504900,-84.9048300,Algoma
FACRC,Alpine Lake,Lake,48.8859090,-80.8239350,Cochrane
FACRE,Alpine Village,Dispersed Rural Community,44.5763889,-78.4719445,Peterborough
FACRD,Alpine Village,Urban Community,43.4236111,-80.4802777,Waterloo
FACRF,Alport,Dispersed Rural Community,45.0223500,-79.3535400,Muskoka
FACRG,Alport Lake,Lake,45.0211111,-79.3858334,Muskoka
FACRH,Alps Creek,Creek,43.9932240,-81.3436220,Bruce
FACRK,Alsace,Dispersed Rural Community,46.0336111,-79.5438889,Parry Sound
FACRL,Alsever Lake,Lake,45.6841667,-77.9950000,Nipissing
FACRM,Alsfeldt,Dispersed Rural Community,44.0103300,-80.9429300,Grey
FACRP,Alsops Beach,Dispersed Rural Community,44.4472222,-79.1575000,Durham
FACRQ,Alston Lake,Lake,47.6916667,-83.6280555,Sudbury
FACRR,Alston Lake,Lake,49.6071800,-92.6504230,Kenora
FAYTW,Alta Vista,Community,45.3863889,-75.6580555,Carleton
FACRS,Altair Island,Island,45.1444820,-80.0742950,Parry Sound
FACRT,Altar Lake,Lake,50.2295500,-89.2824900,Thunder Bay
FACRU,Althorpe,Dispersed Rural Community,44.7575100,-76.4753900,Lanark
FACRV,Altimeter Creek,Creek,50.4355390,-92.7102150,Kenora
FACRW,Altimeter Lake,Lake,50.5768150,-92.4672700,Kenora
FACRX,Altitude Creek,Creek,49.9644330,-87.2635830,Thunder Bay
FACRY,Altitude Lake,Lake,49.8772222,-87.4088889,Thunder Bay
FACRZ,Alto Lake,Lake,46.4950000,-82.4441667,Algoma
FDGLU,Alto's Point,Point,49.6780555,-92.5663889,Kenora
FACSB,Alton,Compact Rural Community,43.8593100,-80.0689400,Peel
FCQBY,Alton,Geographic Township,47.0225000,-82.0077778,Sudbury
FACSF,Alton Lake,Lake,47.0181840,-82.0100233,Sudbury
FACSC,Altona,Dispersed Rural Community,43.9763889,-79.1969444,Durham
FACSI,Alva,Railway Point,47.0420500,-84.0288000,Algoma
FACSJ,Alva Lake,Lake,47.0594445,-84.0194444,Algoma
FACSK,Alvanley,Dispersed Rural Community,44.5391200,-81.1198500,Grey
FBVXC,Alves Bay,Bay,45.4050000,-80.1936111,Parry Sound
FACSL,Alves Point,Point,45.3911800,-80.1620600,Parry Sound
FACSN,Alvin Lake,Lake,47.2621000,-84.2856000,Algoma
FACSM,Alvinholme Island,Island,45.2500800,-80.2135330,Parry Sound
FACSO,Alvinston,Community,42.8261111,-81.8638889,Lambton
FACSQ,Alwin Rock,Rock,45.8847222,-80.7725000,Parry Sound
FACSR,Alwyn Lake,Lake,49.2927760,-88.9413140,Thunder Bay
FBUCB,Amabel,Geographic Township,44.6591666,-81.2027778,Bruce
FACSS,Amable Creek,Creek,45.4931920,-78.1063090,Nipissing
FACSU,Amable Lakes,Lakes,45.3852170,-78.1201290,Nipissing
FIDMD,Amable du Fond Provincial Park,Provincial Park,46.1786460,-78.9173950,Lauder
FACST,Amable du Fond River,River,46.1694900,-78.9189576,Nipissing
FACSW,Amaleen Lake,Lake,45.0669445,-78.5458333,Haliburton
FACSX,Amanda Island,Island,45.2364080,-80.1541610,Parry Sound
FETRA,Amanda Lake,Lake,49.4833880,-89.5681620,
FAYIU,Amaranth,Geographic Township,43.9810700,-80.2331600,Dufferin
FELKI,Amaranth,Township Municipality,43.9720800,-80.2369000,Dufferin
FACTA,Amaranth Station,Railway Point,43.9027777,-80.2355556,Dufferin
FACTD,Amateur Islands,Islands,44.4800000,-75.8022222,Leeds
FACTF,Ambassador Beach,Locality,42.0131300,-82.9854500,Essex
FACTJ,Amberley,Compact Rural Community,44.0430560,-81.7163890,Bruce
FACTK,Amberley Beach,Beach,44.0541900,-81.7454000,Bruce
FACTL,Ambleside,Dispersed Rural Community,44.0125600,-81.1993400,Bruce
FACTM,Ambrose Lake,Lake,48.2309600,-85.3033400,Algoma
FEJJL,Ambrose Lake,Lake,48.9155400,-87.3605120,Thunder Bay
FACTN,Ambrose Point,Point,48.7922222,-85.4525000,Thunder Bay
FACTP,Amburgs Reef,Reef,44.5538889,-78.4916667,Peterborough
FACTQ,Ambush Bay,Bay,48.6195100,-90.2257300,Thunder Bay
FACTR,Ambush Narrows,Narrows,48.6405555,-90.3636111,Thunder Bay
FACTS,Amedroz Island,Island,46.0476500,-82.1511500,Algoma
FACTW,Amelia Lake,Lake,47.9069500,-83.9801100,Algoma
FACTV,Amelia Lake,Lake,47.5045300,-81.7295900,Sudbury
FDPIH,Amelia Rock,Rock,45.2694444,-80.3188889,Parry Sound
FACTY,Ameliasburg,Compact Rural Community,44.0591200,-77.4348500,Prince Edward
FACTZ,Ameliasburg Mill Pond,Pond,44.0625000,-77.4333333,Prince Edward
FCXKM,Ameliasburgh,Geographic Township,44.0419445,-77.3800000,Prince Edward
FACUA,Ament Bay,Bay,50.0210150,-92.1740010,Kenora
FACUH,Amer Island,Island,48.9193300,-93.3100800,Rainy River
FACUB,American Cabin Lake,Lake,48.0391667,-84.6555556,Algoma
FACUC,American Camp Island,Island,45.0409670,-80.0304440,Muskoka
FACUD,American Channel,Channel,48.5097223,-92.6294445,Rainy River
FACUE,American Island,Island,44.5712300,-76.4381500,Frontenac
FACUF,American Narrows,Narrows,48.6277778,-93.1825000,Rainy River
FDZNF,Amery,Geographic Township,50.2976300,-82.7833400,Cochrane
FCWRY,Ames,Geographic Township,48.6577778,-90.6416667,Thunder Bay
FACUM,Ames Creek,Creek,47.0983333,-80.5116666,Sudbury
FACUP,Ames Island,Island,44.2018100,-77.7486000,Northumberland
FACUR,Ames Lake,Lake,47.1664490,-80.5399020,Sudbury
FACUS,Ames Narrows,Narrows,45.1578800,-79.6781600,Muskoka
FACUW,Ames Point,Point,45.1671000,-79.6936500,Muskoka
FACUN,Amesdale,Dispersed Rural Community,50.0158340,-92.9343370,Kenora
FACUO,Amesdale Lake,Lake,50.0424550,-92.9504970,Kenora
FEUAI,Ameson,Locality,49.8061112,-84.5677778,Cochrane
FACUU,Ameson Creek,Creek,49.9208333,-84.4533334,Cochrane
FACUV,Ameson Lake,Lake,49.8080400,-84.5773600,Cochrane
FACUY,Amethyst Bay,Bay,48.5358333,-88.9047223,Thunder Bay
FACUZ,Amethyst Beach,Beach,48.5436111,-88.8841666,Thunder Bay
FACVB,Amethyst Harbour,Harbour,48.5427778,-88.8763889,Thunder Bay
FACVA,Amethyst Harbour,Dispersed Rural Community,48.5426700,-88.8729100,Thunder Bay
FACVC,Amethyst Lake,Lake,48.3987990,-90.3115640,Thunder Bay
FACVD,Amewin River,River,52.1150879,-81.3730889,Cochrane
FACVE,Amherst Bar,Bar,44.1909200,-76.6234600,Lennox and Addington
FEFRF,Amherst Bay,Bay,44.1115500,-76.7357700,Lennox and Addington
FACVK,Amherst Island,Geographic Township,44.1358000,-76.7245700,Lennox and Addington
FACVJ,Amherst Island,Island,44.1319220,-76.7279090,Lennox and Addington
FACVN,Amherst Pointe,Point,42.0571800,-83.1159600,Essex
FACVM,Amherst Pointe,Dispersed Rural Community,42.0558333,-83.1147222,Essex
FEVJQ,Amherstburg,Town,42.1172222,-83.0441666,Essex
FACVF,Amherstburg,Community,42.1042400,-83.1035100,Essex
FACVG,Amherstburg Channel,Channel,42.1081400,-83.1165600,Essex
FACVH,Amherstburg Harbour,Harbour,42.0961111,-83.1255556,Essex
FACVO,Amherstview,Dispersed Rural Community,44.2232700,-76.6453800,Lennox and Addington
FACWH,Ami Point,Point,48.8347223,-93.3130556,Rainy River
FACVQ,Amigari Downs,Urban Community,42.9294445,-78.9452778,Niagara
FACVR,Amigo Beach,Dispersed Rural Community,44.6863889,-79.3925000,Simcoe
FECRU,Amik,Geographic Township,48.4933334,-83.8136111,Algoma
FACVX,Amik Lake,Lake,48.5372500,-83.8409600,Algoma
FACVZ,Amik Lake,Lake,49.6329280,-87.6828150,Thunder Bay
FACVV,Amik Lake,Lake,49.2151300,-89.2645300,Thunder Bay
FACVY,Amik Lake,Lake,49.1942500,-81.2771200,Cochrane
FACVW,Amik Lake,Lake,48.1478580,-91.1931420,Rainy River
FACWA,Amik Lake,Lake,49.8302590,-91.9135550,Kenora
FACWE,Amik River,River,49.8784910,-91.7432700,Kenora
FACVS,Amikeus Creek,Creek,45.5938889,-78.3255556,Nipissing
FACVT,Amikeus Lake,Lake,45.5875000,-78.3438889,Nipissing
FACWB,Amikogaming Lake,Lake,46.0897650,-81.2843180,Manitoulin
FACWC,Amikougami Creek,Creek,48.1060580,-80.1018310,Timiskaming
FACWD,Amikougami Lake,Lake,48.1938218,-80.0705256,Timiskaming
FACWG,Amikwian Island,Island,49.5986610,-88.3435020,Thunder Bay
FACWK,Amis Point,Point,44.7003500,-76.1942800,Leeds
FACWI,Amisk Creek,Creek,50.4228900,-80.0164200,Cochrane
FACWM,Amlin Lake,Lake,49.6256800,-92.0875400,Kenora
FACWN,Amoeba Lake,Lake,50.0877520,-86.2992020,Cochrane
FACWP,Amos Creek,Creek,49.2102778,-89.0091666,Thunder Bay
FACWS,Amos Lake,Lake,47.9425000,-83.5463889,Sudbury
FACWR,Amos Lake,Lake,47.8601030,-80.9791380,Timiskaming
FACWQ,Amos Lake,Lake,49.1856110,-89.0736040,Thunder Bay
FACWV,Amp Lake,Lake,48.6594010,-90.2968980,Thunder Bay
FACWU,Amphibolite Bay,Bay,46.9782100,-79.9757700,Nipissing
FACWW,Amra Lake,Lake,50.5378460,-88.8134910,Thunder Bay
FACWY,Amulet Island,Island,45.8157880,-79.5090250,Parry Sound
FACWZ,Amulree,Dispersed Rural Community,43.4250000,-80.8383334,Perth
FACXA,Amundsen,Geographic Township,48.6462500,-82.9305300,Algoma
FACXB,Amundsen Creek,Creek,48.6988889,-82.9408334,Algoma
FACXC,Amwri,Railway Point,48.8091500,-85.8770600,Thunder Bay
FACXD,Amwri Creek,Creek,48.7798750,-85.9335840,Thunder Bay
FACXE,Amwri Lake,Lake,48.7986111,-85.8769445,Thunder Bay
FACXF,Amy Falls,Falls,50.8877540,-87.5423520,Thunder Bay
FACXH,Amy Island,Island,44.5428600,-78.1584600,Peterborough
FACXG,Amy Island,Island,45.5722720,-80.4406420,Parry Sound
FACXJ,Amy Lake,Lake,46.7127777,-80.8466667,Sudbury
FACXI,Amy Lake,Lake,46.9866667,-83.6047223,Algoma
FACXL,Amylou Lake,Lake,49.2994445,-85.5833334,Thunder Bay
FACXM,Amyoa Creek,Creek,45.6351090,-78.5586350,Nipissing
FACXN,Amyoa Lake,Lake,45.6408333,-78.5338889,Nipissing
FBTYU,Amyot,Geographic Township,47.3672222,-81.2650000,Sudbury
FACXO,Amyot,Dispersed Rural Community,48.4830556,-84.9536111,Algoma
FACXP,Amyot Creek,Creek,48.4616667,-84.9825000,Algoma
FBCZP,Amyot Rocks,Rocks,46.1442400,-82.5257100,Algoma
FDVIO,Ana Lake,Lake,45.7378140,-79.0399440,Nipissing
FACXU,Anahareo Creek,Creek,48.5597030,-84.7958280,Algoma
FACXV,Anahareo Lake,Lake,48.6176600,-84.6866000,Algoma
FACXY,Anape Lake,Lake,50.9572222,-92.6483333,Kenora
FACXZ,Anaway Creek,Creek,50.0280556,-92.6277778,Kenora
FACYA,Anaway Lake,Lake,49.9582160,-92.7026680,Kenora
FACYB,Ancaster,Community,43.2091667,-80.0119444,Wentworth
FDYYL,Ancaster,Geographic Township,43.1991600,-80.0001500,Wentworth
FACYC,Ancaster Creek,Creek,43.2547540,-79.9470710,Wentworth
FACYD,Ancaster Heights,Urban Community,43.2375000,-79.9644444,Wentworth
FACYE,Anchicum Bay,Bay,53.8896220,-92.4627950,Kenora
FACYI,Anchor Island,Island,45.1291667,-79.6861111,Muskoka
FACYJ,Anchor Island,Island,45.4905555,-80.4211111,Parry Sound
FACYM,Anchor Island,Island,46.1373000,-83.3443300,Algoma
FACYL,Anchor Island,Island,46.1329300,-82.2061300,Algoma
FACYK,Anchor Island,Island,45.9650000,-81.3625000,Manitoulin
FACYN,Anchor Island,Island,49.6836200,-94.4911290,Kenora
FACYO,Anchor Islands,Islands,48.5816570,-92.8166510,Rainy River
FACYR,Anchor Lake,Lake,50.9836111,-94.3891667,Kenora
FACYP,Anchor Lake,Lake,47.0452700,-82.0031050,Sudbury
FACYT,Anchor Lake,Lake,50.3667380,-86.4194910,Cochrane
FACYQ,Anchor Lake,Lake,48.1283400,-91.4467700,Rainy River
FACYV,Anchor Point,Point,45.0398500,-76.2240800,Lanark
FDNNI,Anchor Rock,Rock,44.9886111,-80.0530556,Muskoka
FACYW,Anchor Shoal,Shoal,44.3019444,-76.1925000,Leeds
FACYF,Anchorage Bay,Bay,44.5475000,-75.7427778,Leeds
FACYG,Anchorage Island,Island,44.5580556,-78.1297222,Peterborough
FACYY,Ancliff,Railway Point,48.7016667,-88.5825000,Thunder Bay
FACYZ,Ancliff Lake,Lake,48.7074610,-88.5961560,Thunder Bay
FACZA,Ancona Bay,Bay,45.6972223,-78.1469444,Nipissing
FACZB,Ancona Point,Dispersed Rural Community,44.5031700,-78.6143500,Victoria
FACZC,Ancona Point,Point,44.5052100,-78.6131600,Victoria
FACZF,Anders Lake,Lake,48.9807860,-88.9141250,Thunder Bay
FEUDU,Andersen Lake,Lake,48.5614470,-88.7234450,Thunder Bay
FACZI,Anderson,Dispersed Rural Community,44.2022000,-76.9281600,Lennox and Addington
FACZH,Anderson,Dispersed Rural Community,43.3153100,-81.2440200,Perth
FECQO,Anderson,Geographic Township,46.6658333,-84.0336111,Algoma
FACZL,Anderson Creek,Creek,48.6436111,-88.7738889,Thunder Bay
FACZJ,Anderson Creek,Creek,51.2909300,-81.2382200,Cochrane
FACZK,Anderson Creek,Creek,48.3127778,-80.5383333,Cochrane
FACZO,Anderson Creek,Creek,46.5550490,-79.2638760,Nipissing
FACZP,Anderson Creek,Creek,46.3288888,-83.9647222,Algoma
FACZN,Anderson Creek,Creek,51.2897223,-93.5205555,Kenora
FACZQ,Anderson Island,Island,44.8683400,-79.2837500,Muskoka
FACZV,Anderson Island,Island,49.7507100,-92.8258300,Kenora
FACZU,Anderson Island,Island,48.6349500,-90.4101680,Thunder Bay
FACZS,Anderson Island,Island,45.2527778,-79.4788889,Muskoka
FACZR,Anderson Island,Island,45.0447080,-77.4097840,Lennox and Addington
FDPFN,Anderson Island,Island,48.1787500,-89.1400600,Thunder Bay
FACZW,Anderson Island,Island,52.2156188,-81.6606674,Cochrane
FACZX,Anderson Islands,Islands,49.7666790,-88.5069740,Thunder Bay
FADAO,Anderson Lake,Lake,47.2524010,-79.5913190,Timiskaming
FADAA,Anderson Lake,Lake,44.9409500,-78.0534600,Haliburton
FADAJ,Anderson Lake,Lake,51.4942900,-81.6631100,Cochrane
FADAT,Anderson Lake,Lake,48.5353270,-80.6140860,Cochrane
FADAH,Anderson Lake,Lake,47.9858100,-84.7637220,Algoma
FADAN,Anderson Lake,Lake,46.6686111,-84.0283333,Algoma
FADAF,Anderson Lake,Lake,50.2350000,-79.6694444,Cochrane
FDQBY,Anderson Lake,Dispersed Rural Community,46.2306200,-81.7331700,Sudbury
FADAX,Anderson Lake,Lake,49.7622690,-92.3963030,Kenora
FADBA,Anderson Lake,Lake,51.2558333,-93.5483333,Kenora
FADAB,Anderson Lake,Lake,45.0862400,-76.5056300,Lanark
FACZZ,Anderson Lake,Lake,44.3274720,-80.8978530,Grey
FADAW,Anderson Lake,Lake,49.5244444,-84.7344445,Algoma
FADBC,Anderson Lake,Lake,46.5250000,-79.3275000,Nipissing
FADAR,Anderson Lake,Lake,48.2799550,-80.5140060,Cochrane
FADAE,Anderson Lake,Lake,46.2287050,-81.7237350,Sudbury
FACZY,Anderson Lake,Lake,48.8092200,-87.8351500,Thunder Bay
FADAY,Anderson Lake,Lake,49.9780320,-90.7392760,Thunder Bay
FADAU,Anderson Lake,Lake,48.6730160,-88.7672090,Thunder Bay
FADAZ,Anderson Lake,Lake,50.6963410,-95.1333940,Kenora
FADBD,Anderson Lake Station,Railway Point,46.2264400,-81.7115000,Sudbury
FEAMK,Anderson Ledge,Ledge,45.3933333,-81.7277778,Manitoulin
FADBF,Anderson Point,Point,52.2189100,-81.6356700,Cochrane
FADBG,Anderson Pond,Pond,42.5547030,-80.1242920,Norfolk
FADBJ,Anderson Shoal,Shoal,44.1269444,-77.4244445,Prince Edward
FADBH,Anderson's Bay,Bay,49.8240830,-91.4543860,Kenora
FADBL,Andersons Rapids,Rapids,45.1138889,-76.4655556,Lanark
FADBM,Andesite Island,Island,47.7086900,-85.9379000,Thunder Bay
FADBP,Andre Creek,Creek,48.1062360,-84.6871760,Algoma
FADBQ,Andre Lake,Lake,48.1383334,-84.6213889,Algoma
FADBR,Andress Lake,Lake,46.1847800,-81.9081800,Sudbury
FDZNG,Andrew Bay,Bay,49.6079500,-94.3378100,Kenora
FADBS,Andrew Island,Island,46.0411111,-81.6083333,Manitoulin
FADBU,Andrew Lake,Lake,48.4398360,-80.4821030,Cochrane
FADBT,Andrew Lake,Lake,44.8441666,-76.2491667,Lanark
FADBW,Andrews Bay,Bay,52.5083790,-91.5113890,Kenora
FADBX,Andrews Cove,Cove,46.1490000,-82.3750600,Algoma
FADBZ,Andrews Creek,Creek,44.9048340,-79.0599750,Victoria
FADCA,Andrews Creek,Creek,47.6813889,-83.8152778,Sudbury
FADCB,Andrews Creek,Creek,48.3588889,-91.8350000,Rainy River
FADBY,Andrews Creek,Creek,44.2536190,-81.6045890,Bruce
FADCC,Andrews Island,Island,45.3244444,-76.5122222,Renfrew
FADCD,Andrews Lake,Lake,44.9512080,-78.9743850,Victoria
FADCG,Andrews Lake,Lake,48.5949650,-80.1359400,Cochrane
FADCE,Andrews Lake,Lake,47.7624900,-83.8301200,Sudbury
FADCF,Andrews Lake,Lake,48.3649520,-91.8047580,Rainy River
FADCH,Andrews Lake,Lake,49.3008333,-81.3000000,Cochrane
FADCI,Andrewsville,Dispersed Rural Community,44.9517800,-75.8203500,Lanark
FADCJ,Androsace Lake,Lake,49.2871000,-86.6502200,Thunder Bay
FADBN,Andr,Geographic Township,48.0618300,-84.9891400,Algoma
FDZNH,Andy Island,Island,45.5551430,-79.9482940,Parry Sound
FADCK,Andy Lake,Lake,51.5993640,-91.4154670,Kenora
FADCN,Andy Lake,Lake,47.8619445,-80.9669444,Timiskaming
FADCP,Andy Lake,Lake,49.6296120,-94.0898420,Kenora
FADCO,Andy Lake,Lake,48.5369420,-90.2890280,Thunder Bay
FADCL,Andy Lake,Lake,48.3823000,-82.5393100,Sudbury
FETIN,Andy Thompson Lake,Lake,50.4549790,-87.5893850,District of Thunder Bay
FADCR,Andy's Corners,Locality,42.7630556,-80.5938889,Norfolk
FEEQD,Anelia Lake,Lake,46.9636920,-80.6307380,Sudbury
FADCS,Anenimus Bay,Bay,50.6769170,-91.7449760,Kenora
FADCT,Anenimus Lake,Lake,50.7572222,-91.8825000,Kenora
FADCU,Anenimus River,River,50.6894445,-91.7444444,Kenora
FADCV,Aneroid Lake,Lake,47.4416667,-80.3127778,Timiskaming
FADCX,Angekum Lake,Lake,53.3046410,-93.7765370,Kenora
FADDC,Angel Island,Island,45.1716667,-80.0783333,Parry Sound
FADDD,Angel Lake,Lake,48.7677778,-86.8700000,Thunder Bay
FADDF,Angel Lake,Lake,50.0714060,-87.9570280,Thunder Bay
FADDE,Angel Lake,Lake,45.1759030,-79.1933450,Muskoka
FADDI,Angel Point,Point,44.5716667,-76.0225000,Leeds
FADDK,Angel's Point,Point,46.0592800,-79.7820200,Parry Sound
FADCY,Angela Lake,Lake,49.5113889,-84.6497222,Algoma
FADCZ,Angelica Island,Island,48.6939500,-87.9662400,Thunder Bay
FADDA,Angelina Lake,Lake,49.7438888,-84.2461111,Cochrane
FADDH,Angelo Hill,Hill,45.5346400,-77.9021100,Nipissing
FADDJ,Angels Isle,Isle,44.9001300,-78.1093300,Haliburton
FADDL,Anger Lake,Lake,51.4827778,-88.8511111,Thunder Bay
FADDO,Angle Creek,Lake,49.6367900,-87.8647900,Thunder Bay
FADDP,Angle Ditch,Ditch,44.9005556,-81.2594445,Bruce
FADDU,Angle Lake,Lake,49.6571250,-87.8791140,Thunder Bay
FADDR,Angle Lake,Lake,48.0076070,-83.6489580,Sudbury
FADDT,Angle Lake,Lake,49.1416667,-84.7494445,Algoma
FADDX,Angler Creek,Creek,48.7547222,-86.4186111,Thunder Bay
FADDY,Angler Falls,Falls,48.6002777,-85.8619445,Thunder Bay
FADEA,Angler Lake,Lake,47.3652778,-80.1175000,Temiskaming
FADEB,Anglers Portage,Portage,45.9731800,-78.9931800,Nipissing
FDIPR,Anglesea,Geographic Township,44.8393300,-77.2706800,Lennox and Addington
FAAAR,Anglin,Geographic Township,45.9064000,-78.3134700,Nipissing
FADED,Anglin Bay,Bay,44.3942470,-76.3263273,Frontenac
FBVXB,Angling Island,Island,48.6325340,-93.1541820,Rainy River
FADEE,Angling Lake,Locality,53.8448400,-89.5309800,Kenora
FADEF,Angling Lake,Lake,53.8248220,-89.5147620,Kenora
FADEI,Angood Lake,Lake,50.2074630,-92.9751920,Kenora
FEFRG,Anguros Island,Island,48.8527660,-87.5869860,Thunder Bay
FADEK,Angus,Locality,44.3190400,-79.8789100,Simcoe
FAMQN,Angus,Geographic Township,46.8430556,-79.4405555,Nipissing
FADEL,Angus Creek,Creek,46.9372080,-79.7398530,Nipissing
FADEM,Angus Creek,Creek,47.5902778,-82.4933334,Sudbury
FADEN,Angus Islands,Islands,48.2344830,-89.0092130,Thunder Bay
FADER,Angus Lake,Lake,49.5286111,-84.5633334,Algoma
FADEQ,Angus Lake,Lake,47.5968000,-82.5199300,Sudbury
FADEP,Angus Lake,Lake,46.8969444,-79.7597222,Nipissing
FEFRH,Anibel Lake,Lake,49.2048800,-80.8773500,Cochrane
FADES,Anima Nipissing Lake,Lake,47.2594445,-79.9061111,Nipissing; Timiskaming
FADET,Anima Nipissing River,River,47.1622222,-80.0641667,Nipissing
FADEU,Animons Lake,Lake,48.6352778,-85.5708333,Thunder Bay
FADEV,Animoosh Lake,Lake,45.7716666,-78.1386111,Nipissing
FADEX,Anishinabi Lake,Lake,50.4398850,-93.4432730,Kenora
FADEY,Anishinabi River,River,50.4738889,-93.2616667,Kenora
FIHAB,Anita Lake,Lake,52.7864360,-95.1463230,
FADEZ,Anita Lake,Lake,49.6086111,-84.6144444,Algoma
FADFA,Anizev Lake,Lake,49.8253060,-91.5611530,Kenora
FADFB,Anjigame Lake,Lake,48.4566667,-83.5447222,Algoma
FADFC,Anjigami,Railway Point,47.8831900,-84.5417800,Algoma
FADFD,Anjigami Falls,Falls,47.8855800,-84.5731900,Algoma
FADFE,Anjigami Lake,Lake,47.8511111,-84.5833333,Algoma
FADFH,Anjigami River,River,47.9100500,-84.5553900,Algoma
FADFF,Anjigaming Lake,Lake,48.1439700,-83.7098700,Sudbury
FADFG,Anjigaming River,River,48.1490600,-83.6408900,Sudbury
FADFL,Ankcorn Lake,Lake,50.7746330,-87.5785040,Thunder Bay
FADFM,Anker Pint Islet,Islet,45.1765470,-80.1122990,Parry Sound
FADFN,Ankrom Lake,Lake,48.8242900,-84.1506800,Algoma
FEFRI,Ann Bay,Bay,49.0805556,-91.7783334,Kenora
FADFY,Ann Bay Portage,Portage,49.0883333,-91.7391667,Kenora
FADGZ,Ann Lake,Lake,46.3102778,-81.4422222,Sudbury
FADHA,Ann Lake,Lake,46.6095700,-84.1714500,Algoma
FADHD,Ann Lake,Lake,49.8930730,-95.1447240,Kenora
FADHF,Ann Lake,Lake,49.9856330,-94.3425670,Kenora
FEFRN,Ann Long Bank,Bank,45.9719444,-81.5394444,Manitoulin
FADFS,Anna Lake,Lake,45.1791000,-77.0598800,Renfrew
FADFU,Anna Lee Lake,Lake,49.2711000,-85.5390300,Thunder Bay
FADFV,Anna May Island,Island,45.4841400,-80.4503400,Parry Sound
FADFP,Annable Drain,Drain,45.1307200,-75.3567500,Dundas
FADFQ,Annable Lake,Lake,52.8055340,-91.1316900,Kenora
FADFR,Annable Settlement,Dispersed Rural Community,45.1062700,-75.3568400,Dundas
FADFW,Annan,Compact Rural Community,44.6156600,-80.8537500,Grey
FADFX,Annas Lake,Lake,52.2148460,-92.5930730,Kenora
FADFZ,Anne Island,Island,45.2664440,-80.2058290,Parry Sound
FADGC,Anne Lake,Lake,48.5517440,-90.2717830,Thunder Bay
FEFRJ,Annette Drain,Drain,42.7023000,-82.3215200,Lambton
FADGF,Annette Island,Island,45.1348270,-80.0973020,Parry Sound
FADGG,Annette Lake,Lake,49.7565600,-86.9745100,Thunder Bay
FETQZ,Annette Lake,Lake,49.4350840,-89.6635420,
FADGI,Annex,Railway Point,48.6194445,-90.0080556,Thunder Bay
FADGK,Annex Lake,Lake,47.5355470,-81.8153460,Sudbury
FADGJ,Annex Lake,Lake,48.3588889,-84.0911111,Algoma
FADGL,Annibal Lake,Lake,47.0139300,-83.7913420,Algoma
FADGM,Annie Bay,Bay,45.7157300,-78.2883700,Nipissing
FERMS,Annie Creek,Creek,46.2165660,-81.1417950,Sudbury
FEFRK,Annie Island,Island,49.3416210,-94.0719990,Kenora
FADGN,Annie Island,Island,45.1454210,-80.0627510,Parry Sound
FADGR,Annie Lake,Lake,47.8970140,-81.1370710,Sudbury
FADGP,Annie Lake,Lake,46.1850000,-81.1341667,Sudbury
FADGO,Annie Lake,Lake,45.1529000,-79.6606110,Muskoka
FADGS,Annie Lake,Lake,49.7633820,-94.7881490,Kenora
FADGQ,Annie Lake,Lake,47.1130555,-84.5852778,Algoma
FEFRL,Annie Rock,Rock,45.8492400,-81.4573500,Manitoulin
FADGU,Annies Lake,Lake,45.4752778,-77.6388889,Renfrew
FEFRM,Annimwash Lake,Lake,51.2399160,-90.3203040,Kenora
FADGX,Annis Lake,Lake,50.5018890,-91.7932740,Kenora
FADGY,Anniversary Island,Island,48.5055555,-80.9402777,Cochrane
FADHG,Anns Lake,Lake,47.5529000,-84.2360800,Algoma
FADHH,Anoma Lea,Dispersed Rural Community,44.6380555,-75.9219444,Leeds
FADHI,Anorthite Islet,Islet,48.3297600,-88.8412600,Thunder Bay
FEFRO,Another Lake,Lake,48.8619990,-91.8451950,Rainy River
FADHJ,Anrev Lake,Lake,48.2809790,-79.7724270,Cochrane
FADHO,Ans Lake,Lake,49.9844444,-91.6166667,Kenora
FADHK,Ansell Creek,Creek,48.8177778,-87.2002778,Thunder Bay
FADHL,Ansell Lake,Lake,48.8887800,-87.2293000,Thunder Bay
FADHM,Anselmi Lake,Lake,45.2094720,-79.7104590,Parry Sound
FADHN,Ansig Lake,Lake,50.0575340,-87.0480880,Thunder Bay
FADHP,Ansley Island,Island,45.2270750,-80.1967040,Parry Sound
FADHQ,Ansnorveldt,Compact Rural Community,44.0801700,-79.5400000,York
FADHR,Anson,Dispersed Rural Community,44.2980550,-77.5975000,Hastings
FEFRP,Anson,Geographic Township,44.9494444,-78.8325000,Haliburton
FADHS,Anson Creek,Creek,44.9392370,-78.9498560,Victoria; Haliburton
FADHU,Anson Lake,Lake,45.0545480,-78.8901040,Haliburton
FADHV,Anson Lake,Lake,51.8434080,-87.1536740,Kenora
FADHT,Ansonia,Dispersed Rural Community,46.3165500,-83.6095000,Algoma
FADHW,Ansonville,Urban Community,48.7563889,-80.6861111,Cochrane
FADHX,Ansters Hill,Hill,45.4195800,-76.8644200,Renfrew
FADHY,Anstey Lake,Lake,49.1169570,-93.6832720,Kenora
FADHZ,Anstice,Railway Point,46.9016667,-81.0286111,Sudbury
FEFRQ,Anstruther,Geographic Township,44.8137200,-78.1988000,Peterborough
FADIA,Anstruther Creek,Creek,44.7312900,-78.2384620,Peterborough
FADIC,Anstruther Lake,Lake,44.7434190,-78.2098760,Peterborough
FADIB,Anstruther Lake,Locality,44.7354300,-78.2000800,Peterborough
FADIQ,Ant Island,Island,49.4173600,-82.1518800,Cochrane
FADIP,Ant Island,Island,44.5683400,-78.8676700,Victoria
FADIS,Ant Island Lake,Lake,48.0753500,-82.0256800,Sudbury
FADIE,Ante Lake,Lake,49.1624700,-81.3601700,Cochrane
FADID,Anteater Lake,Lake,49.8766270,-93.7825060,Kenora
FEFRS,Antelope Rock,Rock,47.6963889,-85.9213889,Thunder Bay
FADIF,Anten Mills,Dispersed Rural Community,44.4822222,-79.8291666,Simcoe
FADIG,Antenna Creek,Creek,50.5497810,-92.0153510,Kenora
FEFRT,Antenna Lake,Lake,50.5841160,-92.0280700,Kenora
FADIH,Anthemis Lake,Lake,49.3630000,-86.6760000,Thunder Bay
FADII,Anthony,Dispersed Rural Community,48.5381700,-80.5934900,Cochrane
FADIJ,Anthony Hill,Hill,44.2427777,-78.5716667,Peterborough
FADIK,Anthony Island,Island,45.2222770,-80.1064240,Parry Sound
FADIL,Anthony Island,Island,45.8825000,-81.6463889,Manitoulin
FADIM,Anthony Lake,Lake,49.4236111,-85.9680556,Thunder Bay
FADIN,Anticline Point,Point,46.4248400,-82.3446000,Algoma
FADIX,Antler Creek,Creek,49.1760600,-90.6351400,Thunder Bay
FADIV,Antler Creek,Creek,45.9280700,-77.2968490,Renfrew
FADIW,Antler Creek,Creek,48.7617950,-87.9794310,Thunder Bay
FADIZ,Antler Island,Island,45.3219444,-79.1863889,Muskoka
FADJB,Antler Lake,Lake,47.5929260,-83.6927880,Sudbury
FADJE,Antler Lake,Lake,49.9247222,-94.3872222,Kenora
FEJJM,Antler Lake,Lake,48.8658334,-87.4222222,Thunder Bay
FADJA,Antler Lake,Lake,45.9397222,-77.3205556,Renfrew
FADJF,Antler Lake,Lake,50.1238800,-90.1045610,Thunder Bay
FEFRU,Antler Lake,Lake,49.1917810,-90.6479930,Thunder Bay
FADJD,Antler Lake,Lake,48.8133333,-88.0013889,Thunder Bay
FADJG,Antler Point,Point,45.9622222,-77.3100000,Renfrew
FEFRW,Antoine,Geographic Township,46.4871500,-78.9648400,Nipissing
FADJI,Antoine Creek,Creek,46.3750683,-78.8792294,Nipissing
FADJH,Antoine Creek,Creek,44.9425690,-76.6870890,Frontenac
FADJK,Antoine Lake,Lake,46.4905556,-79.1550000,Nipissing
FADJN,Antoine Lake,Lake,47.8958300,-84.8426400,Algoma
FEFRX,Antoine Lake,Lake,48.5245940,-91.5254770,Rainy River
FADJL,Antoine Lake,Lake,45.0066667,-76.7311111,Frontenac
FADJP,Antoine Point,Point,44.7590200,-76.6558100,Frontenac
FADJR,Anton Lake,Lake,48.3256740,-90.2970750,Thunder Bay
FADJS,Antrim,Dispersed Rural Community,45.3680555,-76.2280555,Carleton
FEFRY,Antrim,Geographic Township,46.9310800,-81.6451500,Sudbury
FADJT,Antrim Lake,Lake,46.9353400,-81.6262200,Sudbury
FEFRZ,Anubis Lake,Lake,48.3349660,-91.2484540,Rainy River
FADJU,Anvil Creek,Creek,47.0722223,-83.5244444,Algoma
FADJV,Anvil Lake,Lake,47.0708334,-83.5102778,Algoma
FADJW,Anvil Lake,Lake,47.4226152,-80.2669133,Timiskaming
FADJY,Apex Lake,Lake,50.4316667,-90.9891667,Kenora
FADJX,Apex Lake,Lake,47.3564600,-80.6968000,Timiskaming
FADJZ,Apisabigo Creek,Creek,48.4237270,-83.6988500,Sudbury
FADKA,Apisabigo Lake,Lake,48.4536900,-83.7274000,Algoma; Sudbury
FADKB,Apitu Lake,Lake,52.5711980,-92.2301530,Kenora
FADKC,Apohaqui Island,Island,44.3161600,-76.1565300,Leeds
FADKD,Apollo Island,Island,45.0894444,-79.5072223,Muskoka
FEEQE,Apollo Lake,Lake,47.1489720,-80.6594070,Sudbury
FADKE,Apostle Island,Island,45.2435750,-80.2235770,Parry Sound
FADKF,Appelbe Islands,Islands,45.1675970,-80.1560790,Parry Sound
FADKG,Appelle Lake,Lake,49.2708963,-85.8004023,Thunder Bay
FADKH,Appelo,Dispersed Rural Community,47.1983334,-81.4019444,Sudbury
FADKI,Appelo Lake,Lake,47.2008900,-81.3965000,Sudbury
FADKJ,Appendix Lake,Lake,49.8104200,-86.3490000,Thunder Bay
FADKL,Appin,Suburban Community,42.7958333,-81.6491667,Middlesex
FADKS,Apple Hill,Locality,45.2208330,-74.7702780,Glengarry
FADKT,Apple Island,Island,45.0276400,-79.5455400,Muskoka
FADKU,Apple Lake,Lake,45.5124050,-80.2397510,Parry Sound
FADKV,Apple Lake,Lake,45.6716110,-80.0719530,Parry Sound
FADKW,Apple Lake,Lake,46.7716667,-80.2711111,Nipissing
FADKM,Appleby,Dispersed Rural Community,43.3777500,-79.7743100,Halton
FEFSD,Appleby,Geographic Township,46.4054100,-80.4915500,Sudbury
FADKO,Appleby Creek,Creek,43.3603660,-79.7409650,Halton
FADKP,Appleby Lake,Lake,46.4280556,-83.3494444,Algoma
FADKQ,Appledore,Dispersed Rural Community,42.5219444,-82.1433333,Kent
FADKX,Applesauce Lake,Lake,46.5897710,-82.5672520,Algoma
FADKY,Appleton,Compact Rural Community,45.1818500,-76.1240100,Lanark
FADKZ,Appleton Rapids,Rapids,45.1802778,-76.1247223,Lanark
FADLB,Applewood Acres,Urban Community,43.5922222,-79.5780555,Peel
FADLC,Applewood Acres,Community,45.3850000,-75.6691667,Carleton
FADLD,Applewood Creek,Creek,43.5812230,-79.5434510,Peel
FADLE,Applewood Heights,Compact Rural Community,43.6072222,-79.5950000,Peel
FADLF,Applewood Hills,Urban Community,43.6183333,-79.6022223,Peel
FADLH,Apps Lake,Lake,52.4476550,-94.2678770,Kenora
FADLI,April Lake,Lake,47.5483333,-84.1177778,Algoma
FADLJ,Apsey Lake,Lake,46.2176200,-81.7688100,Sudbury
FADLK,Apsley,Compact Rural Community,44.7550000,-78.0866670,Peterborough
FADLL,Apsley Creek,Creek,44.7251780,-78.0549440,Peterborough
FADLM,Apsley Lake,Lake,44.7608333,-78.0686111,Peterborough
FADLN,Apto,Dispersed Rural Community,44.5094445,-79.8033334,Simcoe
FADLO,Apukwa Lake,Lake,45.6057900,-78.2465370,Nipissing
FADLP,Apungsisagen Lake,Lake,48.7614720,-91.6899270,Rainy River
FADLQ,Aquarius Creek,Creek,49.0024070,-87.5703190,Thunder Bay
FADLR,Aquarius Lake,Lake,49.0091667,-87.5455556,Thunder Bay
FADLS,Aquatuk Lake,Lake,54.3687300,-84.5549500,Kenora
FADLT,Aquatuk River,River,54.9725000,-84.0816667,Kenora
FADLU,Aquila Island,Island,45.2252600,-79.0931600,Muskoka
FADLW,Aquiline Lake,Lake,48.8957110,-90.4760990,Thunder Bay
FADMI,Ara Island,Island,50.3055480,-86.8218190,Thunder Bay
FADMK,Ara Lake,Lake,50.5506150,-87.4683300,Thunder Bay
FADME,Arab Lake,Lake,44.5163290,-76.5402240,Frontenac
FADLY,Arabella Island,Island,44.2441667,-76.1688888,Frontenac
FADLZ,Arabella Lake,Lake,47.4363690,-80.2470350,Timiskaming
FADMB,Arabi Creek,Creek,49.5075000,-90.8852778,Thunder Bay
FADMC,Arabi Lake,Lake,49.5413610,-90.8581470,Thunder Bay
FDPFL,Arabian Rock,Rock,48.1307300,-89.2257100,Thunder Bay
FADMG,Aragon Creek,Creek,47.5351200,-81.6053400,Sudbury
FADMH,Aragon Lake,Lake,47.5391667,-81.5950000,Sudbury
FADML,Aralia Lake,Lake,49.2408333,-86.9352778,Thunder Bay
FADMM,Arameta Channel,Channel,50.5167660,-87.4462630,Thunder Bay
FEFSE,Aramis Lake,Lake,48.7435890,-91.3799320,Rainy River
FADMP,Araxes Bank,Bank,45.2869300,-80.3312400,Parry Sound
FAYTX,Arbeatha Park,Community,45.3163889,-75.8216667,Carleton
FADMQ,Arbeesee Lake,Lake,47.9011800,-82.0701000,Sudbury
FADMR,Arber Lake,Lake,54.4866666,-91.3736111,Kenora
FADMT,Arbor Vitae,Dispersed Rural Community,48.8979100,-94.2943400,Rainy River
FADMU,Arbor Vitae Island,Island,45.7004300,-80.0231030,Parry Sound
FADMV,Arbour Island,Island,45.4318160,-80.3455170,Parry Sound
FADMW,Arbour Lake,Lake,48.6715500,-90.8335050,Thunder Bay
FADMX,Arbuckle Lake,Lake,45.3726190,-78.8196530,Haliburton
FEFSF,Arbutus,Geographic Township,47.5415900,-82.1509600,Sudbury
FADMZ,Arbutus Lake,Lake,45.5862600,-78.1365900,Nipissing
FADMY,Arbutus Lake,Lake,47.5604142,-82.1384769,Sudbury
FEFSG,Arbutus Rock,Rock,45.1961111,-81.7372222,Bruce
FADNS,Arc Lake,Lake,50.7169444,-90.9066667,Thunder Bay
FADNA,Arcand Lake,Lake,46.8289830,-80.2943620,Sudbury
FADNB,Archambeau Lake,Lake,46.6080556,-82.4391666,Algoma
FEZYY,Archambeau Lake Forest Conservation Reserve,Conservation Reserve,46.6074890,-82.4288150,Algoma
FADNC,Archer,Dispersed Rural Community,44.9888889,-75.1072222,Dundas
FADNE,Archer Bay,Bay,51.0282910,-94.2276460,Kenora
FADND,Archer Bay,Bay,45.4833334,-78.6238889,Nipissing
FADNG,Archer Island,Island,45.4439540,-80.4660850,Parry Sound
FADNF,Archer Island,Island,45.0126000,-78.3759500,Haliburton
FADNI,Archer Lake,Lake,50.3034420,-91.8151650,Kenora
FETJX,Archer's Bay,Bay,45.0014420,-79.4049360,Muskoka
FEFSH,Archibald,Geographic Township,46.9302777,-84.2908333,Algoma
FADNJ,Archibald Island,Island,46.0761111,-83.8872222,Algoma
FADNK,Archibald Lake,Lake,47.1652700,-83.3079400,Algoma
FADNM,Archie Bay,Bay,46.2077778,-81.2308333,Sudbury
FIEQZ,Archie Coulter Conservation Area,Conservation Area,42.7667000,-81.0500000,Elgin
FADNO,Archie Lake,Lake,49.6501110,-87.9492960,Thunder Bay
FADNQ,Archie's Lake,Lake,45.7690300,-82.3274100,Manitoulin
FLABO,Archie's Rock,Rock,48.3133281,-81.7866647,Cochrane
FADNP,Archies Lake,Lake,45.3700000,-77.0858333,Renfrew
FADNT,Arcol Bay,Bay,45.0433333,-76.8125000,Frontenac
FADNU,Arcol Island,Island,45.0520700,-76.8002900,Frontenac
FADNV,Arcol Lake,Lake,45.0522222,-76.8169444,Frontenac
FEFSI,Ardagh,Geographic Township,51.3436111,-81.1733333,Cochrane
FADNW,Ardagh Creek,Creek,51.3103800,-81.1346800,Cochrane
FADNX,Ardagh Island,Island,45.4043660,-80.3705600,Parry Sound
FADNY,Ardbeg,Dispersed Rural Community,45.6408333,-80.0800000,Parry Sound
FEFSJ,Arden,Geographic Township,47.3691667,-81.9000000,Sudbury
FADNZ,Arden,Compact Rural Community,44.7208333,-76.9244444,Frontenac
FIHBK,Arden Creek,Creek,47.4547221,-81.9333332,Sudbury
FADOC,Arden Lake,Lake,47.3516590,-81.9197090,Sudbury
FADOB,Arden Lake,Lake,44.7161000,-76.9338680,Frontenac
FADOA,Ardendale,Dispersed Rural Community,44.7216666,-76.9444445,Frontenac
FEFSK,Ardent Rock,Rock,45.3191667,-80.2800000,Parry Sound
FADOD,Ardilaun Island,Island,44.9018700,-79.8533540,Muskoka
FADOG,Ardis Lake,Lake,49.7725300,-93.1330970,Kenora
FADOH,Ardmore Beach,Locality,44.7011111,-80.0058334,Simcoe
FADOI,Ardoch,Dispersed Rural Community,44.9302778,-76.9072222,Frontenac
FADOJ,Ardoch Lake,Lake,44.9316667,-76.8622222,Frontenac
FADOK,Ardtrea,Dispersed Rural Community,44.6866666,-79.4025000,Simcoe
FADOM,Ardwell Island,Island,45.1706500,-80.1162190,Parry Sound
FADON,Aremis Lake,Lake,49.2065270,-93.5629150,Kenora
FEFSL,Arethusa Lake,Lake,49.7184660,-91.8617600,Kenora
FEFVO,Argo Lake,Lake,48.2539680,-91.8067940,Rainy River
FADOP,Argo Lake,Lake,50.3411111,-81.0669444,Cochrane
FADOO,Argo Lake,Lake,48.2584400,-84.0586200,Algoma
FADOQ,Argolis,Railway Point,48.6883333,-83.4486111,Algoma
FEUEO,Argon,Railway Point,48.8931200,-90.0090600,Thunder Bay
FADOS,Argon Creek,Creek,48.8877500,-90.1243000,Thunder Bay
FADOT,Argon Lake,Lake,48.8283080,-90.1595840,Thunder Bay
FADOU,Argosy Lake,Lake,47.4652778,-84.3869444,Algoma
FADOV,Argosy Lake,Lake,51.2308334,-92.4333333,Kenora
FADOW,Argue Lake,Lake,45.5983060,-80.3195900,Parry Sound
FADOX,Argue Lake,Lake,45.7047222,-77.7394444,Nipissing
FEDBN,Argues Marsh,Marsh,44.8791667,-79.5333333,Muskoka
FADOY,Arguing Lake,Lake,54.0057300,-90.2803500,Kenora
FADOZ,Argyle,Compact Rural Community,44.4506800,-79.0172200,Victoria
FEFSM,Argyle,Geographic Township,48.0593500,-80.8545600,Timiskaming
FADPA,Argyle Creek,Creek,48.0541590,-80.8702340,Timiskaming
FADPB,Argyle Drain,Drain,42.7772900,-80.9751200,Elgin
FADPC,Argyle Island,Island,45.1340770,-80.1092450,Parry Sound
FEFSN,Argyle Island,Island,48.8811200,-93.3411580,Rainy River
FADPE,Argyle Islands,Islands,44.7769444,-81.3244444,Bruce
FADPF,Argyle Lake,Lake,48.0367740,-80.8588900,Timiskaming
FADPH,Arib Lake,Lake,49.7329600,-87.2932200,Thunder Bay
FEFSO,Ariel Island,Island,48.4168380,-88.6158000,Thunder Bay
FEFSP,Ariel Rock,Rock,45.3534500,-80.3479900,Parry Sound
FADPI,Aries Lake,Lake,49.0065550,-87.5892270,Thunder Bay
FADPJ,Ariott Lake,Lake,52.3652780,-91.1379630,Kenora
FADPK,Ariss,Dispersed Rural Community,43.5752778,-80.3650000,Wellington
FEOGK,Aristenesos Island,Island,45.5460590,-80.4859390,Parry Sound
FADPL,Arkell,Dispersed Rural Community,43.5365200,-80.1677000,Wellington
FADPM,Arkinstall Bay,Bay,49.8005555,-83.7250000,Cochrane
FADPO,Arklan,Dispersed Rural Community,45.0872222,-76.3461111,Lanark
FADPP,Arklan Island,Island,45.1504090,-76.1291000,Lanark
FADPQ,Arklan Rapids,Rapids,45.1480900,-76.1287200,Lanark
FADPS,Arkon Lake,Lake,44.5372223,-76.5530555,Frontenac
FADPR,Arkona,Community,43.0830555,-81.8261111,Lambton
FADPT,Arkose Island,Island,47.6269100,-80.7828900,Timiskaming
FEFSQ,Arkwood,Railway Point,42.4812800,-82.1217900,Kent
FADPU,Arkwright,Compact Rural Community,44.4530555,-81.2158333,Bruce
FADPV,Arkwright Creek,Creek,44.5139390,-81.1734780,Bruce
FADPY,Arlington Woods,Community,45.3230440,-75.7875560,Carleton
FADPZ,Arliss Lake,Lake,48.0488889,-84.7133333,Algoma
FADQA,Arlotte Lake,Lake,50.7997400,-88.1334400,Thunder Bay
FADQY,Arm Lake,Lake,49.3941020,-92.9466290,Kenora
FADQU,Arm Lake,Lake,46.7566667,-81.2316667,Sudbury
FADQV,Arm Lake,Lake,47.0172222,-82.5697222,Sudbury
FADRA,Arm Lake,Lake,50.0238889,-86.7430556,Thunder Bay
FADRB,Arm of the Bear,Bay,46.4486700,-82.3831900,Algoma
FADQC,Arma Island,Island,45.1558334,-79.7119445,Muskoka
FADQB,Armadale,Compact Rural Community,43.8371900,-79.2579200,York
FEFSR,Armagh,Geographic Township,47.0194000,-80.3542900,Sudbury
FADQD,Armatta Lake,Lake,51.8600830,-87.9419830,Kenora
FADQE,Armbro Heights,Urban Community,43.6703200,-79.7468100,Peel
FADQF,Armer Bay,Bay,45.2655556,-80.1544444,Parry Sound
FADQG,Armer Lake,Lake,48.1716190,-80.1423620,Timiskaming
FADQH,Armes Lake,Lake,52.3167040,-86.0319760,Kenora
FADQI,Armida Island,Island,45.5642200,-80.4194600,Parry Sound
FADQJ,Armin Lake,Lake,48.2135140,-91.4499700,Rainy River
FADQK,Armishaw Lake,Lake,45.2346640,-79.7738460,Parry Sound
FADQL,Armistice Creek,Creek,49.5354860,-89.6960600,Thunder Bay
FADQM,Armistice Lake,Lake,49.3426920,-89.9181500,Thunder Bay
FADQT,Armit Lake,Lake,50.4696890,-90.9357850,Kenora; Thunder Bay
FADQN,Armitage,Urban Community,44.0336111,-79.4761111,York
FADQQ,Armitage Lake,Lake,49.1910810,-84.9838580,Algoma
FETDE,Armitage Lake,Lake,50.4530490,-95.1118170,Kenora
FADQP,Armitage Lake,Lake,48.3856210,-79.9053570,Cochrane
FEFSS,Armot Island,Island,48.6523140,-93.0689840,Rainy River
FELKN,Armour,Township Municipality,45.6289000,-79.3439900,Parry Sound
FEFST,Armour,Geographic Township,45.6306600,-79.3534900,Parry Sound
FADRC,Armour Creek,Creek,50.4440510,-92.2029730,Kenora
FADRD,Armour Harbour,Harbour,48.7535900,-87.8540400,Thunder Bay
FADRE,Armour Heights,Urban Community,43.7433333,-79.4300000,York
FADRF,Armour Hill,Hill,44.3122300,-78.3017700,Peterborough
FADRG,Armour Island,Island,44.3409800,-77.7730800,Northumberland
FADRH,Armour Island,Island,46.1176200,-82.3189200,Algoma
FADRI,Armour Island,Island,48.7477770,-87.8657640,Thunder Bay
FADRL,Armour Lake,Lake,50.4667900,-92.1680130,Kenora
FADRM,Armour Lake,Lake,51.4480910,-92.9252740,Kenora
FADRK,Armour Lake,Lake,47.0919445,-83.6544445,Algoma
FADRO,Armow,Compact Rural Community,44.1927778,-81.5138889,Bruce
FADRQ,Arms,Railway Point,49.5677778,-86.0119444,Thunder Bay
FADRS,Arms Creek,Creek,49.6056570,-85.9908060,Thunder Bay
FADRT,Arms Lake,Lake,49.0715160,-92.9733010,Rainy River
FADRU,Arms Lake,Lake,49.5527778,-86.0258333,Thunder Bay
FELKO,Armstrong,Township Municipality,47.7111900,-79.8245600,Timiskaming
FEFSU,Armstrong,Geographic Township,47.7122222,-79.8194445,Timiskaming
FADRV,Armstrong,Compact Rural Community,50.3048860,-89.0418090,Thunder Bay
FEUMV,Armstrong Creek,Creek,46.4944440,-81.6411110,Sudbury
FADRZ,Armstrong Creek,Creek,47.7909860,-79.5305660,Timiskaming
FADSB,Armstrong Island,Island,44.6899400,-78.0604300,Peterborough
FADSC,Armstrong Island,Island,44.7356400,-78.9040500,Victoria
FADSL,Armstrong Lake,Lake,52.3222030,-92.6713790,Kenora
FADSI,Armstrong Lake,Lake,48.0884000,-82.2081800,Sudbury
FADSM,Armstrong Lake,Lake,50.2645190,-89.0085150,Thunder Bay
FADSF,Armstrong Lake,Lake,46.5308900,-81.5731600,Sudbury
FADSH,Armstrong Lake,Lake,46.9600600,-82.1965300,Algoma
FADSE,Armstrong Lake,Lake,45.5124540,-79.9169250,Parry Sound
FEFSW,Armstrong Lake,Lake,49.9653540,-94.3784620,Kenora
FADSN,Armstrong Mills,Dispersed Rural Community,43.6291667,-80.2613889,Wellington
FADSO,Armstrong Point,Point,45.1369444,-79.5800000,Muskoka
FEFSY,Armstrong Rock,Rock,45.1066666,-80.1388889,Parry Sound
FEFSZ,Armstrong Rocks,Rocks,45.5595200,-80.5170900,Parry Sound
FADSS,Armstrong Station,Post Office,50.3008660,-89.0421390,Thunder Bay
FEFTA,Armstrongs Corners,Dispersed Rural Community,44.9330555,-76.3050000,Lanark
FADSR,Armstrongs Lake,Lake,44.9883600,-76.9976200,Frontenac
FADSU,Army Lake,Lake,46.8633900,-82.6890500,Algoma
FADSV,Army Lake,Lake,49.6625490,-91.8298750,Kenora
FADSW,Arneil Lake,Lake,52.5003140,-87.7868790,Kenora
FADSX,Arner,Dispersed Rural Community,42.0319444,-82.8238889,Essex
FADSY,Arneson Lake,Lake,49.5685040,-91.6194560,Kenora
FADSZ,Arney Mountain,Mountain,44.6406700,-76.8639000,Frontenac
FEFTB,Arno Island,Island,48.4389200,-88.6270240,Thunder Bay
FEFTC,Arnold,Geographic Township,48.2338300,-79.8201600,Timiskaming
FADTA,Arnold Creek,Creek,48.7610900,-91.8387600,Rainy River
FEFTD,Arnold Creek,Creek,42.4190340,-82.1650150,Kent
FEEQF,Arnold Lake,Lake,46.3294445,-81.0191666,Sudbury
FEFTE,Arnold Lake,Lake,48.7743210,-91.8284110,Rainy River
FEFTF,Arnold Point,Point,46.1463889,-82.3691667,Algoma
FADTE,Arnold Rock,Rock,46.1198400,-82.3416500,Algoma
FADTF,Arnolds Bay,Bay,45.1088889,-79.9466667,Muskoka
FADTG,Arnot Lake,Lake,53.5540920,-93.9589880,Kenora
FEFTG,Arnott,Geographic Township,49.6431100,-84.5807000,Algoma
FDGLY,Arnott,Dispersed Rural Community,44.4300000,-80.8550000,Grey
FADTI,Arnott Creek,Creek,49.1063889,-88.8672222,Thunder Bay
FADTJ,Arnott Lake,Lake,45.0454200,-77.3773000,Lennox and Addington
FADTM,Arnott Lake,Lake,49.5979780,-84.6065440,Algoma
FADTK,Arnott Lake,Lake,45.2091430,-79.7251740,Parry Sound
FADTL,Arnott Lake,Lake,49.0959430,-88.9553780,Thunder Bay
FADTN,Arnprior,Town,45.4347223,-76.3580556,Renfrew
FADTQ,Arnstein,Compact Rural Community,45.9217200,-79.9329500,Parry Sound
FADTR,Arnston Lake,Lake,50.6825640,-88.8245280,Thunder Bay
FADTS,Aroland,Dispersed Rural Community,50.2320650,-86.9600230,Thunder Bay
FESXL,Aroland 83,Indian Reserve,50.2194440,-86.9641670,Thunder Bay
FADTU,Aronson Lake,Lake,49.2225760,-92.9654220,Kenora
FADTY,Arp Lake,Lake,48.1811130,-91.2981340,Rainy River
FADTW,Arpin,Dispersed Rural Community,48.9294445,-80.7236111,Cochrane
FADTX,Arpin Lake,Lake,49.9204010,-94.1207370,Kenora
FADTZ,Arps Lake,Lake,49.7847222,-79.6844444,Cochrane
FEFTH,Arran,Geographic Township,44.4597223,-81.2155556,Bruce
FADUB,Arran Island,Island,48.1801100,-80.2333700,Timiskaming
FADUC,Arran Lake,Lake,44.4819900,-81.2595200,Bruce
FEUYK,Arran-Elderslie,Township Municipality,44.3970100,-81.2034400,Bruce
FADUD,Arranvale,Dispersed Rural Community,44.4526200,-81.1454900,Bruce
FADUF,Arras Lake,Lake,48.2621950,-80.3700670,Timiskaming
FADUG,Arrell Lake,Lake,49.2601230,-87.6523880,Thunder Bay
FADUH,Arril Lake,Lake,50.8589050,-89.5083110,Thunder Bay
FADUI,Arrow Bay,Bay,47.1200000,-81.4713889,Sudbury
FADUM,Arrow Head Island,Island,49.4925070,-94.5605790,Kenora
FADUT,Arrow Island,Island,51.1565691,-80.8036325,Cochrane
FEFTI,Arrow Lake,Lake,48.1585530,-90.2649850,Thunder Bay
FADUY,Arrow Lake,Lake,50.0515050,-90.0410550,Thunder Bay
FADUV,Arrow Lake,Lake,46.1827778,-78.4736111,Nipissing
FADUW,Arrow Lake,Lake,48.3897222,-80.7791667,Cochrane
FADUX,Arrow Lake,Lake,49.3163160,-94.4304410,Kenora
FADUU,Arrow Lake,Lake,45.9983950,-78.8699410,Nipissing
FEPUS,Arrow Lake Provincial Park,Provincial Park,48.1783500,-90.2254200,Thunder Bay
FADVC,Arrow River,River,48.0211940,-89.7243090,Thunder Bay
FADUK,Arrowhead Island,Island,45.0158334,-79.8602777,Muskoka
FADUL,Arrowhead Island,Island,45.4433333,-79.5850000,Parry Sound
FADUQ,Arrowhead Lake,Lake,50.7300220,-92.9252840,Kenora
FADUN,Arrowhead Lake,Lake,45.3961460,-79.2017950,Muskoka
FADUP,Arrowhead Lake,Lake,49.3276390,-88.6773510,Thunder Bay
FADUO,Arrowhead Lake,Lake,46.5077580,-82.4265330,Algoma
FEPSN,Arrowhead Peninsula Provincial Nature Reserve,Provincial Nature Reserve,48.2538889,-90.6686111,Thunder Bay
FADUJ,Arrowhead Provincial Park,Provincial Park,45.3916667,-79.1986112,Muskoka
FADVD,Arrowroot Lake,Lake,49.1080700,-89.1559520,Thunder Bay
FADVE,Arsenic Lake,Lake,47.0926400,-79.8054700,Nipissing
FADVF,Art Creek,Creek,45.0650000,-78.4586111,Haliburton
FADWE,Art Lake,Lake,48.5664550,-91.2907640,Rainy River
FADWD,Art Lake,Lake,45.3094480,-78.9021740,Haliburton
FADWF,Art Lake,Lake,48.8405320,-91.6922340,Rainy River
FEFTK,Artemesia,Geographic Township,44.2815200,-80.5348500,Grey
FADVG,Artery Creek,Creek,51.4089300,-95.0758550,Kenora
FADVH,Artery Lake,Lake,51.3438040,-95.1216390,Kenora
FEFTL,Arthur,Geographic Township,43.9158333,-80.6511112,Wellington
FADVI,Arthur,Community,43.8326600,-80.5378900,Wellington
FADVM,Arthur Island,Island,48.5544445,-88.3125000,Thunder Bay
FADVK,Arthur Island,Island,44.9307000,-79.8865400,Muskoka
FADVN,Arthur Lake,Lake,45.8718330,-80.0926420,Parry Sound
FADVP,Arthur Lake,Lake,47.6975300,-81.0737400,Timiskaming
FADVQ,Arthur Lake,Lake,48.2789360,-80.4598920,Cochrane
FADVO,Arthur Lake,Lake,46.5983333,-83.3747222,Algoma
FEFTM,Arthur Orr Rock,Rock,45.3518200,-80.3390700,Parry Sound
FADVU,Arthur Point,Point,46.0308333,-80.4783333,Parry Sound
FADVT,Arthur Point,Point,45.9633600,-82.9703800,Manitoulin
FADVV,Arthur's Corners,Locality,42.9041667,-80.5747223,Oxford
FADVS,Arthurlie Bay,Bay,45.1169444,-79.5502778,Muskoka
FADVX,Arthurs Point,Point,46.0575000,-79.8030556,Parry Sound
FADVY,Artie Lake,Lake,45.1830555,-79.2400000,Muskoka
FADWA,Artist Creek,Creek,46.0504380,-81.4669180,Manitoulin
FADWB,Artist Lake,Lake,46.0533334,-81.4622222,Sudbury
FADWH,Arundel Lake,Lake,49.2199440,-89.8621620,Thunder Bay
FADWI,Arva,Dispersed Rural Community,43.0500000,-81.2936111,Middlesex
FADWJ,Arva Lake,Lake,47.8180556,-83.9644445,Sudbury
FADWK,Aryhart Lake,Lake,44.9848600,-77.9317100,Hastings
FADWL,Asbury Point,Point,50.4600500,-87.0531940,Thunder Bay
FADWM,Ascalon,Railway Point,46.0741667,-78.8052778,Nipissing
FADWN,Ascalon Lake,Lake,46.0632400,-78.7681700,Nipissing
FADWQ,Ash,Dispersed Rural Community,43.4387800,-79.8160600,Halton
FEFTN,Ash Bay,Bay,48.9007500,-93.4134900,Rainy River
FADWU,Ash Bay,Bay,49.6277778,-94.7683333,Kenora
FEEQG,Ash Bay,Bay,46.0861111,-80.3463889,Sudbury
FADWT,Ash Bay,Bay,48.7672222,-91.0361111,Rainy River
FADXR,Ash Island,Island,44.3550530,-76.0045580,Leeds
FEFTV,Ash Lake,Lake,49.9391560,-94.3709770,Kenora
FEFTT,Ash Lake,Lake,48.9499640,-93.4505570,Rainy River
FADXT,Ash Lake,Lake,47.5512290,-82.0123980,Sudbury
FADXU,Ash Lake,Lake,48.2583333,-83.9775000,Sudbury
FADYC,Ash Narrows,Narrows,48.8988889,-93.3583333,Rainy River
FADYF,Ash Rapids,Rapids,49.6205556,-94.7747222,Kenora
FADYG,Ash River,River,50.4996910,-84.4863680,Cochrane
FADYH,Ash's Rock,Rock,47.7572220,-79.9280550,Timiskaming
FADWR,Ashaway Falls,Falls,54.0679310,-89.3699700,Kenora
FADWS,Ashball Lake,Lake,45.2861111,-78.8650000,Haliburton
FADWW,Ashbridges Bay,Bay,43.6598300,-79.3143700,York
FADWX,Ashburn,Compact Rural Community,44.0024600,-78.9951700,Durham
FADWZ,Ashburn Lake,Lake,47.6635870,-81.0922130,Sudbury
FADWY,Ashburnham,Urban Community,44.3030550,-78.3086110,Peterborough
FADXA,Ashburton,Railway Point,46.5163889,-80.0150000,Nipissing
FEFTO,Ashburton Bay,Bay,48.7716667,-86.7169444,Thunder Bay
FEFTP,Ashby,Geographic Township,45.1051600,-77.4517700,Lennox and Addington
FEFTQ,Ashby Creek,Creek,45.0663000,-77.3699800,Lennox and Addington
FADXD,Ashby Lake,Lake,45.0925000,-77.3511111,Lennox and Addington
FADXC,Ashby Lake,Post Office,45.0830556,-77.2886111,Lennox and Addington
FADXE,Ashby Mill,Dispersed Rural Community,44.4676500,-77.8254600,Peterborough
FADXF,Ashby White Lake,Lake,45.1499250,-77.3668430,Lennox and Addington
FERMJ,Ashdad,Compact Rural Community,45.3500000,-76.7516667,Renfrew
FADXH,Ashdale,Compact Rural Community,45.3000000,-75.7000000,
FADXL,Ashdowns Island,Island,45.2265400,-79.6592400,Parry Sound
FEFTR,Asheigamo Lake,Lake,49.2112250,-93.4268550,Kenora
FADXM,Asheweig River,River,53.4320199,-89.5429593,Kenora
FEFTS,Ashfield,Geographic Township,43.9203800,-81.6348500,Huron
FEVIN,Ashfield-Colborne-Wawanosh,Township Municipality,43.8878400,-81.5940100,Huron
FADXN,Ashgrove,Dispersed Rural Community,43.6086111,-79.8944445,Halton
FADXO,Ashigami Lake,Lake,46.6462260,-80.5764000,Sudbury
FEEQH,Ashigami Portage,Portage,46.6763889,-80.5602778,Sudbury
FADXQ,Ashiganshing Point,Point,45.9007300,-81.6872000,Manitoulin
FADXS,Ashkewe Lake,Lake,52.0052810,-91.5556640,Kenora
FADXV,Ashlee Island,Island,45.2386111,-79.4452777,Muskoka
FADXX,Ashley,Geographic Township,48.4075000,-84.9991670,Algoma
FADXY,Ashley Lake,Lake,48.0238780,-80.8239230,Timiskaming
FADXZ,Ashmead Point,Point,46.1830556,-82.4955556,Algoma
FEFTX,Ashmore,Geographic Township,49.7117900,-86.8815200,Thunder Bay
FADYA,Ashmore Creek,Creek,49.7974860,-86.8363130,Thunder Bay
FADYB,Ashmore Lake,Lake,49.7454100,-86.8975400,Thunder Bay
FEJKT,Ashmore Lake,Lake,48.8617530,-87.1866350,Thunder Bay
FADYD,Ashnelot Island,Island,44.6968400,-76.5693200,Frontenac
FADYI,Ashton,Compact Rural Community,45.1572222,-76.0319445,Carleton; Lanark
FADYJ,Ashton Drain,Drain,42.7759000,-81.0720600,Elgin
FADYK,Ashton Lake,Lake,49.7522222,-86.9483333,Thunder Bay
FADYL,Ashton Station,Dispersed Rural Community,45.1736111,-76.0541667,Lanark
FADYM,Ashworth,Dispersed Rural Community,45.3492200,-79.4020500,Muskoka
FEFTY,Asia Rocks,Rocks,46.2534100,-83.6582200,Algoma
FADYP,Asin Bay,Bay,51.0785840,-92.6528120,Kenora
FADYO,Asinab Island,Island,49.4447230,-88.6778950,Thunder Bay
FADYN,Asinabi Rapids,Rapids,50.8558333,-81.1097222,Cochrane
FADYR,Asinn Creek,Creek,49.4698900,-91.5482800,Kenora
FEFUA,Asinn Lake,Lake,49.4255250,-91.5425550,Kenora
FADYT,Asio Lake,Lake,45.6550000,-78.4286111,Nipissing
FADYU,Asipoquobah Lake,Lake,53.6665100,-91.2491300,Kenora
FADYV,Asiyan Rapids,Rapids,50.5505556,-80.7577777,Cochrane
FADYW,Askaskwayau Ridge,Ridge,51.1779439,-80.5025203,Cochrane
FADYX,Askawamattawa Creek,Creek,50.8676660,-85.7920040,Cochrane
FEFUB,Askin,Geographic Township,46.9331300,-79.6962400,Nipissing
FADYZ,Askin Island,Island,45.5036111,-79.2547222,Parry Sound
FEFUR,Askins Point,Point,42.3336111,-82.8916667,Essex
FADZB,Askwith Lake,Lake,49.2624500,-89.6512200,Thunder Bay
FEFUC,Asmus Bay,Bay,49.0536111,-94.5183333,Kenora
FEFUD,Asmussen,Geographic Township,48.7986111,-91.9552778,Rainy River
FEFUI,Asp Lake,Lake,47.4576100,-84.2493800,Algoma
FEFIG,Aspdin,Dispersed Rural Community,45.2977778,-79.3708334,Muskoka
FEFUF,Asperitas Island,Island,45.2073160,-80.1867990,Parry Sound
FEFUG,Asphodel,Geographic Township,44.3505555,-77.9997222,Peterborough
FEUXK,Asphodel-Norwood,Township Municipality,44.3530556,-78.0183333,Peterborough
FEFUJ,Asquith,Geographic Township,47.5391000,-81.2657100,Sudbury
FZAAB,Assabaska,Indian Reserve,48.9873125,-94.4354954,
FDNIQ,Assad,Geographic Township,46.9340200,-82.5141800,Algoma
FEFUL,Assapan Lake,Lake,52.4277733,-95.1501553,Kenora
FDNIR,Assef,Geographic Township,46.9328300,-82.3895700,Algoma
FEFUM,Assef Islands,Islands,49.6487300,-88.3555750,Thunder Bay
FADZC,Asselin,Geographic Township,47.6151600,-84.8050700,Algoma
FEFUN,Asselin Lake,Lake,51.9815650,-88.0024760,Kenora
FEFUO,Asselstine,Dispersed Rural Community,44.2443400,-76.7312600,Lennox and Addington
FELKU,Assiginack,Township Municipality,45.7061111,-81.8863889,Manitoulin
FEFUQ,Assiginack,Geographic Township,45.7077000,-81.8784800,Manitoulin
FEFUU,Assin Lake,Lake,52.8378260,-89.9324740,Kenora
FADZE,Assin Lake,Lake,49.7543640,-94.9252930,Kenora
FEFUS,Assinaboia Island,Island,45.1252210,-80.0799290,Parry Sound
FEFUT,Assinamish Lake,Lake,46.6025000,-83.3338889,Algoma
FADZD,Assinkepatakiso Lake,Lake,49.4297650,-93.4133050,Kenora
FADZF,Assumption,Dispersed Rural Community,44.2708333,-78.2677778,Peterborough
FEFUV,Aster Creek,Creek,49.2327777,-86.6450000,Thunder Bay
FEFUW,Aster Lake,Lake,49.3347222,-86.6430555,Thunder Bay
FEFUX,Aster Pond,Pond,45.6526300,-78.7069100,Nipissing
FEFUY,Aston,Geographic Township,47.1925000,-80.0833334,Nipissing
FEFVA,Aston Lake,Lake,47.2244444,-80.1077777,Timiskaming; Nipissing
FEFUZ,Astonish Lake,Lake,46.5653070,-82.8548220,Algoma
FDOKQ,Astorville,Compact Rural Community,46.1858333,-79.2794445,Nipissing
FEFVB,Astounder Island,Island,44.3123800,-76.0971200,Leeds
FEFVC,Astrand Island,Island,49.5757190,-88.6236560,Thunder Bay
FEFVD,Astrolabe Lake,Lake,45.6030556,-76.8341667,Renfrew
FEFVE,Astron Bay,Bay,49.4496500,-94.5693200,Kenora
FEFVF,Astrop Creek,Creek,48.9368200,-89.1046100,Thunder Bay
FADZI,Astrop Lake,Lake,48.8401080,-89.0231040,Thunder Bay
FADZJ,Astrop's Hill,Hill,44.9658333,-81.2577778,Bruce
FADZK,Asylum Point,Point,44.8083333,-79.9313889,Simcoe
FADZN,Atcheson Island,Island,46.0838889,-79.7780556,Parry Sound
FADZP,Atekepi Lake,Lake,47.9092300,-82.0134600,Sudbury
FADZS,Atha Road,Dispersed Rural Community,43.9439900,-79.1708600,Durham
FADZR,Athabasca Rock,Rock,45.6525000,-80.6188889,Parry Sound
FADZT,Athelstane Creek,Creek,48.7475000,-90.3219444,Thunder Bay
FEFXX,Athelstane Lake,Lake,48.7745740,-90.2079620,Thunder Bay
FEVUE,Athens,Township Municipality,44.6255555,-75.9383334,Leeds
FADZV,Athens,Community,44.6315900,-75.9462800,Leeds
FADZW,Atherley,Compact Rural Community,44.6012300,-79.3611700,Simcoe
FADZX,Atherton,Dispersed Rural Community,42.8224600,-80.4490600,Norfolk
FADZY,Athlone,Dispersed Rural Community,44.0353900,-79.8869100,Simcoe
FEFXY,Athlone,Geographic Township,47.0238888,-81.7688889,Sudbury
FADZZ,Athlone Creek,Creek,47.0019444,-81.8102778,Sudbury
FAEAA,Athlone Lake,Lake,47.0636700,-81.7451200,Sudbury
FAEAB,Athol,Dispersed Rural Community,43.9218400,-77.2296000,Prince Edward
FAEAC,Athol,Dispersed Rural Community,45.3201300,-74.8936000,Glengarry
FAEAD,Athol Bay,Bay,43.8872222,-77.2463889,Prince Edward
FAEAI,Athos Lake,Lake,49.1984850,-93.5451270,Kenora
FAEAK,Atigogama Creek,Creek,49.7590240,-87.4995720,Thunder Bay
FAEAL,Atigogama Lake,Lake,49.8030555,-87.4852778,Thunder Bay
FAEAX,Atik Creek,Creek,51.0538400,-80.1498700,Cochrane
FAEAY,Atik Creek,Creek,51.7825970,-89.9852290,Kenora
FAEAZ,Atik Island,Island,54.7246382,-86.5112013,Kenora
FAEBB,Atik Lake,Lake,51.7365380,-90.0512470,Kenora
FEFYC,Atik Lake,Lake,48.2109400,-90.1781290,Thunder Bay
FAEBA,Atik Lake,Lake,48.0011111,-84.1138889,Algoma
FEFYB,Atikameg,Geographic Township,48.8422222,-85.5180555,Thunder Bay
FAEAM,Atikameg Lake,Lake,48.8469444,-85.5033334,Thunder Bay
FAEAO,Atikameg Lake,Lake,54.2444445,-88.3725000,Kenora
FAEAN,Atikameg Lake,Lake,50.1324770,-87.0329400,Thunder Bay
FAEAR,Atikameg River,River,52.4971247,-82.7540268,Kenora
FAEAT,Atikamik Lake,Lake,52.3496740,-92.7095640,Kenora
FAEAU,Atikaminike Bay,Bay,49.2412900,-94.0434600,Kenora
FAEAV,Atikasibi Lake,Lake,50.1261020,-86.0017940,Cochrane
FAEAW,Atikasibi River,River,50.1691200,-85.6108780,Cochrane
FEFQV,Atikokan,Suburban Community,48.7583334,-91.6133333,Rainy River
FAEBC,Atikokan,Township Municipality,48.7588889,-91.6216666,Rainy River
FAEBD,Atikokan River,River,48.7616667,-91.6725000,Rainy River
FEFYE,Atikokiwam Lake,Lake,51.1631810,-89.9143490,Kenora; Thunder Bay
FAEBE,Atikomik Lake,Lake,52.9929600,-91.3128830,Kenora
FAEBH,Atikwa Creek,Creek,50.4371000,-91.8260020,Kenora
FAEBI,Atikwa Lake,Lake,49.4976770,-93.5334820,Kenora
FAEBJ,Atikwa River,River,49.4030560,-93.7155550,Kenora
FAEBK,Atim Lake,Lake,52.7835940,-90.5006980,Kenora
FAEBL,Atim River,River,52.7073430,-90.2995670,Kenora
FAEBM,Atironto,Suburban Community,44.9030555,-76.0072222,Lanark
FAEBP,Atkin Bay,Bay,46.2034400,-79.6910800,Parry Sound
FAEBQ,Atkins Bay,Bay,48.3470400,-91.1387700,Rainy River
FAEBT,Atkins Lake,Lake,48.7203580,-91.0351520,Rainy River
FEFYF,Atkins Lake,Lake,44.7505555,-75.8511111,Leeds
FAEBS,Atkins Lake,Lake,45.1196860,-79.2287300,Muskoka
FAEBU,Atkinson,Dispersed Rural Community,44.3872400,-76.2770900,Frontenac
FAEBV,Atkinson,Geographic Township,48.4933330,-84.7397220,Algoma
FAEBW,Atkinson Creek,Creek,46.8152778,-84.0886111,Algoma
FAEBY,Atkinson Lake,Lake,49.8203100,-79.5776700,Cochrane
FAEBZ,Atkinsons Creek,Creek,44.8614510,-75.8730790,Grenville
FAECB,Atlantic Lake,Lake,50.2441120,-91.4566400,Kenora
FAECC,Atlantic Rock,Rock,46.3282200,-84.1057700,Algoma
FAECG,Atom Lake,Lake,49.3564270,-93.7530520,Kenora
FAECF,Atomic Lake,Lake,47.3318530,-84.2265310,Algoma
FAECH,Attach Lake,Lake,47.5405556,-81.9827778,Sudbury
FAECI,Attack Lake,Lake,50.4494360,-91.2982350,Kenora
FAECJ,Attawapiskat,Dispersed Rural Community,52.9225000,-82.4252778,Kenora
FESVK,Attawapiskat 91,Indian Reserve,53.5808330,-84.3191670,Kenora
FESVL,Attawapiskat 91A,Indian Reserve,52.9263105,-82.4230133,Kenora
FAECM,Attawapiskat Lake,Lake,52.2376190,-87.8763820,Kenora
FAECN,Attawapiskat River,River,52.7777590,-84.8143617,Kenora
FAECO,Attercliffe,Dispersed Rural Community,42.9922223,-79.5861111,Niagara
FAECP,Attercliffe Station,Dispersed Rural Community,42.9687400,-79.5923800,Haldimand
FEFYG,Attlee,Geographic Township,46.1519444,-81.0136111,Sudbury
FEZZB,Attlee Central Forest Conservation Reserve,Conservation Reserve,46.1579990,-81.0315680,Sudbury
FEZZA,Attlee Conservation Reserve,Conservation Reserve,46.1521492,-80.9989505,Sudbury
FAECT,Attraction Lake,Lake,48.7873700,-91.2396600,Rainy River
FEEQJ,Attwood Island,Island,46.0138889,-80.8608333,Sudbury
FAECU,Attwood Lake,Lake,51.2634200,-88.4828900,Thunder Bay
FAECV,Attwood River,River,51.3842770,-87.9389560,Thunder Bay
FIELF,Attwood River Conservation Reserve,Conservation Reserve,51.2799240,-88.2967060,District Of Thunder Bay
